loggingTime(txt),locationTimestamp_since1970(s),locationLatitude(WGS84),locationLongitude(WGS84),locationAltitude(m),locationSpeed(m/s),locationSpeedAccuracy(m/s),locationCourse(°),locationCourseAccuracy(°),locationVerticalAccuracy(m),locationHorizontalAccuracy(m),locationFloor(Z),accelerometerTimestamp_sinceReboot(s),accelerometerAccelerationX(G),accelerometerAccelerationY(G),accelerometerAccelerationZ(G),motionTimestamp_sinceReboot(s),motionYaw(rad),motionRoll(rad),motionPitch(rad),motionRotationRateX(rad/s),motionRotationRateY(rad/s),motionRotationRateZ(rad/s),motionUserAccelerationX(G),motionUserAccelerationY(G),motionUserAccelerationZ(G),motionAttitudeReferenceFrame(txt),motionQuaternionX(R),motionQuaternionY(R),motionQuaternionZ(R),motionQuaternionW(R),motionGravityX(G),motionGravityY(G),motionGravityZ(G),motionMagneticFieldX(µT),motionMagneticFieldY(µT),motionMagneticFieldZ(µT),motionHeading(°),motionMagneticFieldCalibrationAccuracy(Z),activityTimestamp_sinceReboot(s),activity(txt),activityActivityConfidence(Z),activityActivityStartDate(txt),pedometerStartDate(txt),pedometerNumberofSteps(N),pedometerAverageActivePace(s/m),pedometerCurrentPace(s/m),pedometerCurrentCadence(steps/s),pedometerDistance(m),pedometerFloorAscended(N),pedometerFloorDescended(N),pedometerEndDate(txt),altimeterTimestamp_sinceReboot(s),altimeterReset(bool),altimeterRelativeAltitude(m),altimeterPressure(kPa),batteryState(N),batteryLevel(R)
2022-05-12T10:36:22.885+02:00,1652344580.189638,53.22886087381632,10.39822053984233,39.55266,-1,-1,-1,-1,23.87610244750977,40,-9999,3071.521488291667,0.0211029052734375,-0.658172607421875,-0.702239990234375,3071.516490291667,-0.2188836367105643,0.04868714227292666,0.7274935525831064,-0.1286536455154419,-0.1962940841913223,-0.1875109374523163,-0.005677442997694016,-0.00101548433303833,0.04580873250961304,XArbitraryZVertical,0.3560296896341599,-0.01623539890620552,-0.09343852899955979,0.9296496857765549,0.03634731471538544,-0.664999783039093,-0.7459585666656494,0,0,0,-1,-1,3070.518723666667,walking,2,2022-05-12T10:36:21.834+02:00,2022-05-11T22:15:20.957+02:00,586,0.8719785,0.8264485,1.715091,454.1317,0,0,2022-05-12T10:36:21.834+02:00,674037381.8341753,0,0.1899986,100.9032,1,0.95
2022-05-12T10:36:22.905+02:00,1652344580.189638,53.22886087381632,10.39822053984233,39.55266,-1,-1,-1,-1,23.87610244750977,40,-9999,3071.531483291667,0.0329742431640625,-0.6609954833984375,-0.705780029296875,3071.526485291667,-0.2210739142886155,0.04808411066508311,0.7261240768389998,-0.1205380335450172,-0.2058095037937164,-0.1621348112821579,-0.01483859866857529,0.005804121494293213,0.04464894533157349,XArbitraryZVertical,0.3553478974707439,-0.01682916143733199,-0.09460603674531759,0.9297819384483711,0.03594121336936951,-0.6639763712882996,-0.7468892931938171,0,0,0,-1,-1,3070.518723666667,walking,2,2022-05-12T10:36:21.834+02:00,2022-05-11T22:15:20.957+02:00,586,0.8719785,0.8264485,1.715091,454.1317,0,0,2022-05-12T10:36:21.834+02:00,674037381.8341753,0,0.1899986,100.9032,1,0.95
2022-05-12T10:36:22.920+02:00,1652344580.189638,53.22886087381632,10.39822053984233,39.55266,-1,-1,-1,-1,23.87610244750977,40,-9999,3071.541478291667,0.0330657958984375,-0.6490325927734375,-0.7076873779296875,3071.536480291667,-0.2228841001450869,0.04712966901174746,0.7248220045710596,-0.127316027879715,-0.2106655091047287,-0.1247363090515137,-0.002295088022947311,0.002007067203521729,0.04200583696365356,XArbitraryZVertical,0.3546828286006431,-0.01752136961040218,-0.09565703966870544,0.9299154974464783,0.03526903316378593,-0.6630021929740906,-0.7477861642837524,0,0,0,-1,-1,3070.518723666667,walking,2,2022-05-12T10:36:21.834+02:00,2022-05-11T22:15:20.957+02:00,586,0.8719785,0.8264485,1.715091,454.1317,0,0,2022-05-12T10:36:21.834+02:00,674037381.8341753,0,0.1899986,100.9032,1,0.95
2022-05-12T10:36:22.922+02:00,1652344580.189638,53.22886087381632,10.39822053984233,39.55266,-1,-1,-1,-1,23.87610244750977,40,-9999,3071.551473291667,0.02410888671875,-0.652679443359375,-0.726165771484375,3071.546475291667,-0.2240676928564505,0.04582572376956179,0.723504908925529,-0.1288424283266068,-0.1988764852285385,-0.07539458572864532,-0.001268409192562103,0.01298338174819946,0.04101550579071045,XArbitraryZVertical,0.3539983307088876,-0.01826335029121546,-0.0964786454366857,0.9300772396437946,0.03433390706777573,-0.6620156168937683,-0.7487032413482666,0,0,0,-1,-1,3070.518723666667,walking,2,2022-05-12T10:36:21.834+02:00,2022-05-11T22:15:20.957+02:00,586,0.8719785,0.8264485,1.715091,454.1317,0,0,2022-05-12T10:36:21.834+02:00,674037381.8341753,0,0.1899986,100.9032,1,0.95
2022-05-12T10:36:22.924+02:00,1652344580.189638,53.22886087381632,10.39822053984233,39.55266,-1,-1,-1,-1,23.87610244750977,40,-9999,3071.561468291667,0.0086822509765625,-0.6749725341796875,-0.735931396484375,3071.556470291667,-0.2249396205189631,0.04453508511625435,0.7220776206243487,-0.1729315966367722,-0.1718147844076157,-0.08096032589673996,-0.009301017969846725,0.008266091346740723,0.02352404594421387,XArbitraryZVertical,0.3532651924997972,-0.01893735576904777,-0.0971556116882409,0.9302720562408585,0.03340960666537285,-0.6609452366828918,-0.7496901750564575,0,0,0,-1,-1,3070.518723666667,walking,2,2022-05-12T10:36:21.834+02:00,2022-05-11T22:15:20.957+02:00,586,0.8719785,0.8264485,1.715091,454.1317,0,0,2022-05-12T10:36:21.834+02:00,674037381.8341753,0,0.1899986,100.9032,1,0.95
2022-05-12T10:36:22.926+02:00,1652344580.189638,53.22886087381632,10.39822053984233,39.55266,-1,-1,-1,-1,23.87610244750977,40,-9999,3071.571463291667,0.044097900390625,-0.684844970703125,-0.74273681640625,3071.566465291667,-0.2258640392393421,0.04339622326243587,0.7199820082604045,-0.2355380803346634,-0.1888727843761444,-0.06374039500951767,-0.02393385395407677,-0.01560109853744507,0.01517808437347412,XArbitraryZVertical,0.3522277384824737,-0.01951191085435709,-0.09784950831091946,0.930580718357954,0.03261580690741539,-0.6593711376190186,-0.7511098384857178,0,0,0,-1,-1,3070.518723666667,walking,2,2022-05-12T10:36:21.834+02:00,2022-05-11T22:15:20.957+02:00,586,0.8719785,0.8264485,1.715091,454.1317,0,0,2022-05-12T10:36:21.834+02:00,674037381.8341753,0,0.1899986,100.9032,1,0.95
2022-05-12T10:36:22.929+02:00,1652344580.189638,53.22886087381632,10.39822053984233,39.55266,-1,-1,-1,-1,23.87610244750977,40,-9999,3071.581457291667,0.02642822265625,-0.6800994873046875,-0.7634735107421875,3071.576460291667,-0.2262385545181326,0.041738705336168,0.7179899149910625,-0.2044680416584015,-0.1615772545337677,-0.03727816045284271,0.0126720666885376,-0.02697247266769409,0.009736597537994385,XArbitraryZVertical,0.3512173215622701,-0.02023658276825543,-0.0983745150138898,0.9308917574477442,0.03142553195357323,-0.6578721404075623,-0.752473771572113,0,0,0,-1,-1,3070.518723666667,walking,2,2022-05-12T10:36:21.834+02:00,2022-05-11T22:15:20.957+02:00,586,0.8719785,0.8264485,1.715091,454.1317,0,0,2022-05-12T10:36:21.834+02:00,674037381.8341753,0,0.1899986,100.9032,1,0.95
2022-05-12T10:36:22.937+02:00,1652344580.189638,53.22886087381632,10.39822053984233,39.55266,-1,-1,-1,-1,23.87610244750977,40,-9999,3071.591452291667,0.02911376953125,-0.6753692626953125,-0.765472412109375,3071.586455291667,-0.22661251362595,0.04039097084245236,0.7162318805173737,-0.1748023331165314,-0.1657768487930298,-0.03138265386223793,-0.004030104726552963,-0.0235520601272583,-0.009804010391235352,XArbitraryZVertical,0.3503301018678511,-0.02083030544075237,-0.0988366106960889,0.9311639316712436,0.03045802190899849,-0.6565471291542053,-0.7536698579788208,0,0,0,-1,-1,3070.518723666667,walking,2,2022-05-12T10:36:21.834+02:00,2022-05-11T22:15:20.957+02:00,586,0.8719785,0.8264485,1.715091,454.1317,0,0,2022-05-12T10:36:21.834+02:00,674037381.8341753,0,0.1899986,100.9032,1,0.95
2022-05-12T10:36:22.939+02:00,1652344580.189638,53.22886087381632,10.39822053984233,39.55266,-1,-1,-1,-1,23.87610244750977,40,-9999,3071.601447291667,0.0309906005859375,-0.67218017578125,-0.7664337158203125,3071.596450291667,-0.2270180145116774,0.03898740101818024,0.7147824766369743,-0.1476916074752808,-0.1665837913751602,-0.03777184337377548,-0.0003237556666135788,-0.01991569995880127,-0.01081079244613647,XArbitraryZVertical,0.3495825379728144,-0.02147300786040231,-0.09931311818793888,0.9313795417351992,0.0294372234493494,-0.6554531455039978,-0.7546619176864624,0,0,0,-1,-1,3070.518723666667,walking,2,2022-05-12T10:36:21.834+02:00,2022-05-11T22:15:20.957+02:00,586,0.8719785,0.8264485,1.715091,454.1317,0,0,2022-05-12T10:36:21.834+02:00,674037381.8341753,0,0.1899986,100.9032,1,0.95
2022-05-12T10:36:22.941+02:00,1652344580.189638,53.22886087381632,10.39822053984233,39.55266,-1,-1,-1,-1,23.87610244750977,40,-9999,3071.611442291667,0.0262298583984375,-0.671142578125,-0.7787017822265625,3071.606445291667,-0.2273711836612645,0.03756040621927818,0.7136626293672468,-0.1078920736908913,-0.1622003614902496,-0.02775290049612522,0.002602456137537956,-0.01757282018661499,-0.01099783182144165,XArbitraryZVertical,0.3489869668148842,-0.02213610347066192,-0.09975896888375201,0.9315397182111191,0.02838784083724022,-0.6546069979667664,-0.7554361820220947,0,0,0,-1,-1,3070.518723666667,walking,2,2022-05-12T10:36:21.834+02:00,2022-05-11T22:15:20.957+02:00,586,0.8719785,0.8264485,1.715091,454.1317,0,0,2022-05-12T10:36:21.834+02:00,674037381.8341753,0,0.1899986,100.9032,1,0.95
2022-05-12T10:36:22.942+02:00,1652344580.189638,53.22886087381632,10.39822053984233,39.55266,-1,-1,-1,-1,23.87610244750977,40,-9999,3071.621437291667,0.0153045654296875,-0.6615447998046875,-0.7873077392578125,3071.616440291667,-0.2277583628541759,0.03624776130422708,0.7128387385088422,-0.08712660521268845,-0.153002604842186,-0.03319746628403664,-0.001186180859804153,-0.01715832948684692,-0.02269059419631958,XArbitraryZVertical,0.3485338196719578,-0.02276858228220782,-0.1001916119204617,0.931647740101282,0.02741573378443718,-0.6539839506149292,-0.7560115456581116,0,0,0,-1,-1,3070.518723666667,walking,2,2022-05-12T10:36:21.834+02:00,2022-05-11T22:15:20.957+02:00,586,0.8719785,0.8264485,1.715091,454.1317,0,0,2022-05-12T10:36:21.834+02:00,674037381.8341753,0,0.1899986,100.9032,1,0.95
2022-05-12T10:36:22.948+02:00,1652344580.189638,53.22886087381632,10.39822053984233,39.55266,-1,-1,-1,-1,23.87610244750977,40,-9999,3071.631432291667,0.0208587646484375,-0.661712646484375,-0.7980194091796875,3071.626434291667,-0.2282289514138844,0.0350769592649366,0.7120460108789988,-0.08792362362146378,-0.1421681940555573,-0.04100359231233597,-0.01124449074268341,-0.00816047191619873,-0.03074705600738525,XArbitraryZVertical,0.3481008763833174,-0.02335125682557425,-0.1006370405333383,0.93174717947841,0.02654874883592129,-0.6533840298652649,-0.7565609812736511,0,0,0,-1,-1,3070.518723666667,walking,2,2022-05-12T10:36:21.834+02:00,2022-05-11T22:15:20.957+02:00,586,0.8719785,0.8264485,1.715091,454.1317,0,0,2022-05-12T10:36:21.834+02:00,674037381.8341753,0,0.1899986,100.9032,1,0.95
2022-05-12T10:36:22.958+02:00,1652344580.189638,53.22886087381632,10.39822053984233,39.55266,-1,-1,-1,-1,23.87610244750977,40,-9999,3071.641427291667,0.0176544189453125,-0.658660888671875,-0.80902099609375,3071.636429291667,-0.2286606711117914,0.03393088616138382,0.7112542862316437,-0.07801773399114609,-0.1410294324159622,-0.0332505963742733,-0.004840739071369171,-0.008927822113037109,-0.04091209173202515,XArbitraryZVertical,0.3476696906497013,-0.02391566432521449,-0.1010596107078147,0.9318480483939315,0.02569919638335705,-0.6527844667434692,-0.757107675075531,0,0,0,-1,-1,3070.518723666667,walking,2,2022-05-12T10:36:21.834+02:00,2022-05-11T22:15:20.957+02:00,586,0.8719785,0.8264485,1.715091,454.1317,0,0,2022-05-12T10:36:21.834+02:00,674037381.8341753,0,0.1899986,100.9032,1,0.95
2022-05-12T10:36:22.968+02:00,1652344580.189638,53.22886087381632,10.39822053984233,39.55266,-1,-1,-1,-1,23.87610244750977,40,-9999,3071.651422291667,0.00762939453125,-0.642181396484375,-0.806060791015625,3071.646424291667,-0.2290880807824956,0.03286295588780559,0.7105855091096175,-0.06753489375114441,-0.1242044419050217,-0.04485498741269112,-0.007250871509313583,-0.006382882595062256,-0.05145049095153809,XArbitraryZVertical,0.3472992705672605,-0.02444979378805053,-0.10146278789293,0.9319285317130737,0.02490498311817646,-0.6522777080535889,-0.7575708627700806,0,0,0,-1,-1,3070.518723666667,walking,2,2022-05-12T10:36:21.834+02:00,2022-05-11T22:15:20.957+02:00,586,0.8719785,0.8264485,1.715091,454.1317,0,0,2022-05-12T10:36:21.834+02:00,674037381.8341753,0,0.1899986,100.9032,1,0.95
2022-05-12T10:36:22.978+02:00,1652344580.189638,53.22886087381632,10.39822053984233,39.55266,-1,-1,-1,-1,23.87610244750977,40,-9999,3071.661417291667,0.0030059814453125,-0.6300201416015625,-0.8103485107421875,3071.656419291667,-0.2297239112830926,0.03215858581484114,0.7099390375279648,-0.06696018576622009,-0.1017923429608345,-0.05056613683700562,-0.01675583049654961,0.009606480598449707,-0.04805159568786621,XArbitraryZVertical,0.3469548026807758,-0.02485187922967628,-0.101899083392552,0.9319985856522683,0.02438491955399513,-0.6517875194549561,-0.7580094933509827,0,0,0,-1,-1,3070.518723666667,walking,2,2022-05-12T10:36:21.834+02:00,2022-05-11T22:15:20.957+02:00,586,0.8719785,0.8264485,1.715091,454.1317,0,0,2022-05-12T10:36:21.834+02:00,674037381.8341753,0,0.1899986,100.9032,1,0.95
2022-05-12T10:36:22.988+02:00,1652344580.189638,53.22886087381632,10.39822053984233,39.55266,-1,-1,-1,-1,23.87610244750977,40,-9999,3071.671412291667,0.00311279296875,-0.632415771484375,-0.808502197265625,3071.666414291667,-0.2304205331285586,0.03175053836861886,0.7093836969843942,-0.04762101173400879,-0.0696382075548172,-0.05477626249194145,-0.02108142897486687,0.02134644985198975,-0.05196774005889893,XArbitraryZVertical,0.3466668049711362,-0.02513141323279117,-0.1023096750722685,0.9320533201284082,0.02408710122108459,-0.6513662934303284,-0.7583810687065125,0,0,0,-1,-1,3070.518723666667,walking,2,2022-05-12T10:36:21.834+02:00,2022-05-11T22:15:20.957+02:00,586,0.8719785,0.8264485,1.715091,454.1317,0,0,2022-05-12T10:36:21.834+02:00,674037381.8341753,0,0.1899986,100.9032,1,0.95
2022-05-12T10:36:22.998+02:00,1652344580.189638,53.22886087381632,10.39822053984233,39.55266,-1,-1,-1,-1,23.87610244750977,40,-9999,3071.681407291667,0.011077880859375,-0.6403350830078125,-0.8071441650390625,3071.676409291667,-0.2311086601409641,0.03163682180802153,0.7090036931226541,-0.02795516327023506,-0.04649693518877029,-0.05448624491691589,-0.02089620009064674,0.01866245269775391,-0.04987138509750366,XArbitraryZVertical,0.3464754507027644,-0.02528210205625047,-0.1026604695367716,0.9320818260485072,0.02400868944823742,-0.6510778665542603,-0.75863116979599,0,0,0,-1,-1,3070.518723666667,walking,2,2022-05-12T10:36:21.834+02:00,2022-05-11T22:15:20.957+02:00,586,0.8719785,0.8264485,1.715091,454.1317,0,0,2022-05-12T10:36:21.834+02:00,674037381.8341753,0,0.1899986,100.9032,1,0.95
2022-05-12T10:36:23.008+02:00,1652344580.189638,53.22886087381632,10.39822053984233,39.55266,-1,-1,-1,-1,23.87610244750977,40,-9999,3071.691401291667,0.0143890380859375,-0.6450347900390625,-0.8037109375,3071.686404291667,-0.2319211683192731,0.03181736259839629,0.7088039410900586,-0.01590456068515778,-0.03183077275753021,-0.06750710308551788,-0.01307221874594688,0.01059150695800781,-0.04838770627975464,XArbitraryZVertical,0.346381485940042,-0.02532733678505526,-0.1030133367244265,0.9320765958650138,0.02414979040622711,-0.6509262323379517,-0.7587567567825317,0,0,0,-1,-1,3070.518723666667,walking,2,2022-05-12T10:36:21.834+02:00,2022-05-11T22:15:20.957+02:00,586,0.8719785,0.8264485,1.715091,454.1317,0,0,2022-05-12T10:36:21.834+02:00,674037381.8341753,0,0.1899986,100.9032,1,0.95
2022-05-12T10:36:23.018+02:00,1652344580.189638,53.22886087381632,10.39822053984233,39.55266,-1,-1,-1,-1,23.87610244750977,40,-9999,3071.701396291667,0.016937255859375,-0.646514892578125,-0.7998809814453125,3071.696399291667,-0.2329329478194346,0.03214311236550967,0.7086137533023436,-0.01881539449095726,-0.03488621860742569,-0.08757775276899338,-0.01001220196485519,0.005747437477111816,-0.04483866691589355,XArbitraryZVertical,0.3462969671281189,-0.02533987052961183,-0.1034336917213596,0.9320611165677953,0.02440093085169792,-0.6507818698883057,-0.7588726282119751,0,0,0,-1,-1,3070.518723666667,walking,2,2022-05-12T10:36:21.834+02:00,2022-05-11T22:15:20.957+02:00,586,0.8719785,0.8264485,1.715091,454.1317,0,0,2022-05-12T10:36:21.834+02:00,674037381.8341753,0,0.1899986,100.9032,1,0.95
2022-05-12T10:36:23.028+02:00,1652344580.189638,53.22886087381632,10.39822053984233,39.55266,-1,-1,-1,-1,23.87610244750977,40,-9999,3071.711391291667,0.0208740234375,-0.6530303955078125,-0.7940826416015625,3071.706394291667,-0.2341583454102779,0.0324851702243811,0.7083207046840646,-0.02508863806724548,-0.054709792137146,-0.1032056510448456,-0.007729755714535713,0.004044830799102783,-0.04082649946212769,XArbitraryZVertical,0.3461628284517141,-0.02537578448242439,-0.1039536830640821,0.9320520192027431,0.02466670051217079,-0.6505593657493591,-0.7590547204017639,0,0,0,-1,-1,3070.518723666667,walking,2,2022-05-12T10:36:21.834+02:00,2022-05-11T22:15:20.957+02:00,586,0.8719785,0.8264485,1.715091,454.1317,0,0,2022-05-12T10:36:21.834+02:00,674037381.8341753,0,0.1899986,100.9032,1,0.95
2022-05-12T10:36:23.038+02:00,1652344580.189638,53.22886087381632,10.39822053984233,39.55266,-1,-1,-1,-1,23.87610244750977,40,-9999,3071.721386291667,0.02203369140625,-0.6625823974609375,-0.783935546875,3071.716389291667,-0.2354981354431551,0.03279175702198227,0.7079726066647878,-0.02928844466805458,-0.05903343483805656,-0.1053071469068527,-0.004033127799630165,-0.00273507833480835,-0.03480947017669678,XArbitraryZVertical,0.3459997829316347,-0.02544464243124188,-0.1045347168906423,0.9320457258492902,0.02490683831274509,-0.6502949595451355,-0.7592734694480896,0,0,0,-1,-1,3070.518723666667,walking,2,2022-05-12T10:36:21.834+02:00,2022-05-11T22:15:20.957+02:00,586,0.8719785,0.8264485,1.715091,454.1317,0,0,2022-05-12T10:36:21.834+02:00,674037381.8341753,0,0.1899986,100.9032,1,0.95
2022-05-12T10:36:23.048+02:00,1652344580.189638,53.22886087381632,10.39822053984233,39.55266,-1,-1,-1,-1,23.87610244750977,40,-9999,3071.731381291667,0.026397705078125,-0.6633758544921875,-0.7696990966796875,3071.726384291667,-0.2369106594128948,0.03307202297810055,0.707570227278938,-0.03516989946365356,-0.06452886760234833,-0.1122950166463852,-0.003094907850027084,-0.01259291172027588,-0.02440792322158813,XArbitraryZVertical,0.3458091711789739,-0.02553494061568458,-0.1051557973804963,0.932044262171029,0.02512828819453716,-0.6499891877174377,-0.7595279812812805,0,0,0,-1,-1,3070.518723666667,walking,2,2022-05-12T10:36:21.834+02:00,2022-05-11T22:15:20.957+02:00,586,0.8719785,0.8264485,1.715091,454.1317,0,0,2022-05-12T10:36:21.834+02:00,674037381.8341753,0,0.1899986,100.9032,1,0.95
2022-05-12T10:36:23.058+02:00,1652344580.189638,53.22886087381632,10.39822053984233,39.55266,-1,-1,-1,-1,23.87610244750977,40,-9999,3071.741376291667,0.0255584716796875,-0.665313720703125,-0.759674072265625,3071.736379291667,-0.2383787353025203,0.03331084841494933,0.7070515355535836,-0.04927453398704529,-0.07381104677915573,-0.1237253025174141,0.001076485961675644,-0.01378059387207031,-0.009840607643127441,XArbitraryZVertical,0.3455616081151536,-0.02564706958252772,-0.1058133328882679,0.9320585952612392,0.02532090805470943,-0.6495949625968933,-0.7598587870597839,0,0,0,-1,-1,3070.518723666667,walking,2,2022-05-12T10:36:21.834+02:00,2022-05-11T22:15:20.957+02:00,586,0.8719785,0.8264485,1.715091,454.1317,0,0,2022-05-12T10:36:21.834+02:00,674037381.8341753,0,0.1899986,100.9032,1,0.95
2022-05-12T10:36:23.068+02:00,1652344580.189638,53.22886087381632,10.39822053984233,39.55266,-1,-1,-1,-1,23.87610244750977,40,-9999,3071.751371291667,0.03033447265625,-0.66656494140625,-0.748748779296875,3071.746373291667,-0.2398839812193195,0.03345667405844806,0.7063008576791281,-0.07507990300655365,-0.08734709769487381,-0.1169531494379044,0.0001101456582546234,-0.0162893533706665,0.0006678104400634766,XArbitraryZVertical,0.3452006785269957,-0.02579490472405658,-0.1065109882464711,0.9321087524201018,0.02544801868498325,-0.6490240097045898,-0.7603422403335571,0,0,0,-1,-1,3070.518723666667,walking,2,2022-05-12T10:36:21.834+02:00,2022-05-11T22:15:20.957+02:00,586,0.8719785,0.8264485,1.715091,454.1317,0,0,2022-05-12T10:36:21.834+02:00,674037381.8341753,0,0.1899986,100.9032,1,0.95
2022-05-12T10:36:23.078+02:00,1652344580.189638,53.22886087381632,10.39822053984233,39.55266,-1,-1,-1,-1,23.87610244750977,40,-9999,3071.761366291667,0.0264739990234375,-0.6574249267578125,-0.7476043701171875,3071.756368291667,-0.2412890819226806,0.03347492028251351,0.7052925846611908,-0.1004486382007599,-0.08354436606168747,-0.1091668605804443,0.004850380122661591,-0.01830792427062988,0.01224625110626221,XArbitraryZVertical,0.344714252460968,-0.02596909978803492,-0.1071914978175835,0.9322058772704815,0.02548377960920334,-0.6482566595077515,-0.7609953880310059,0,0,0,-1,-1,3070.518723666667,walking,2,2022-05-12T10:36:21.834+02:00,2022-05-11T22:15:20.957+02:00,586,0.8719785,0.8264485,1.715091,454.1317,0,0,2022-05-12T10:36:21.834+02:00,674037381.8341753,0,0.1899986,100.9032,1,0.95
2022-05-12T10:36:23.088+02:00,1652344580.189638,53.22886087381632,10.39822053984233,39.55266,-1,-1,-1,-1,23.87610244750977,40,-9999,3071.771361291667,0.0157623291015625,-0.6386260986328125,-0.749359130859375,3071.766363291667,-0.2426272422705926,0.0335123055898169,0.7041881450067533,-0.09407415986061096,-0.07669512182474136,-0.1110908687114716,0.0009374842047691345,-0.0100092887878418,0.01410484313964844,XArbitraryZVertical,0.3441847906835321,-0.02611642802305159,-0.1078404310040856,0.9323225510878711,0.02553620189428329,-0.6474152803421021,-0.7617095112800598,0,0,0,-1,-1,3070.518723666667,walking,2,2022-05-12T10:36:21.834+02:00,2022-05-11T22:15:20.957+02:00,586,0.8719785,0.8264485,1.715091,454.1317,0,0,2022-05-12T10:36:21.834+02:00,674037381.8341753,0,0.1899986,100.9032,1,0.95
2022-05-12T10:36:23.098+02:00,1652344580.189638,53.22886087381632,10.39822053984233,39.55266,-1,-1,-1,-1,23.87610244750977,40,-9999,3071.781356291667,0.0113525390625,-0.629058837890625,-0.7427825927734375,3071.776358291667,-0.2440676257570848,0.03372538751169267,0.7031998320295644,-0.08121483027935028,-0.06500677019357681,-0.1213988959789276,-0.009958053007721901,0.008036017417907715,0.01298373937606812,XArbitraryZVertical,0.3437174344792838,-0.02620566701736793,-0.1085036777803788,0.9324155028899649,0.02572007104754448,-0.6466617584228516,-0.762343168258667,0,0,0,-1,-1,3070.518723666667,walking,2,2022-05-12T10:36:21.834+02:00,2022-05-11T22:15:20.957+02:00,586,0.8719785,0.8264485,1.715091,454.1317,0,0,2022-05-12T10:36:21.834+02:00,674037381.8341753,0,0.1899986,100.9032,1,0.95
2022-05-12T10:36:23.108+02:00,1652344580.189638,53.22886087381632,10.39822053984233,39.55266,-1,-1,-1,-1,23.87610244750977,40,-9999,3071.791351291667,0.016998291015625,-0.634246826171875,-0.7392120361328125,3071.786353291667,-0.2456437180371471,0.03411888090485545,0.7023008207234069,-0.07537593692541122,-0.05976933240890503,-0.128821462392807,-0.01468764245510101,0.01691722869873047,0.02013081312179565,XArbitraryZVertical,0.3432996669559499,-0.02623876749962004,-0.1091968991463201,0.9324875943642802,0.02603986859321594,-0.6459757685661316,-0.762913703918457,0,0,0,-1,-1,3070.518723666667,walking,2,2022-05-12T10:36:21.834+02:00,2022-05-11T22:15:20.957+02:00,586,0.8719785,0.8264485,1.715091,454.1317,0,0,2022-05-12T10:36:21.834+02:00,674037381.8341753,0,0.1899986,100.9032,1,0.95
2022-05-12T10:36:23.118+02:00,1652344580.189638,53.22886087381632,10.39822053984233,39.55266,-1,-1,-1,-1,23.87610244750977,40,-9999,3071.801345291667,0.0214996337890625,-0.644927978515625,-0.7356414794921875,3071.796348291667,-0.247360349783206,0.03456638849993115,0.7014605260084265,-0.07456208020448685,-0.07312881201505661,-0.1418040990829468,-0.009402047842741013,0.01108759641647339,0.02423179149627686,XArbitraryZVertical,0.3429104799481973,-0.02627365305366066,-0.1099450022494001,0.9325418663989871,0.02640002407133579,-0.6453340649604797,-0.763444185256958,0,0,0,-1,-1,3070.518723666667,walking,2,2022-05-12T10:36:21.834+02:00,2022-05-11T22:15:20.957+02:00,586,0.8719785,0.8264485,1.715091,454.1317,0,0,2022-05-12T10:36:21.834+02:00,674037381.8341753,0,0.1899986,100.9032,1,0.95
2022-05-12T10:36:23.128+02:00,1652344580.189638,53.22886087381632,10.39822053984233,39.55266,-1,-1,-1,-1,23.87610244750977,40,-9999,3071.811340291667,0.013427734375,-0.64642333984375,-0.73333740234375,3071.806343291667,-0.2492443965065418,0.03486714747991419,0.7005815466548694,-0.09473399817943573,-0.1065388321876526,-0.1520930975675583,-0.005150081589818001,-0.0002652406692504883,0.02836102247238159,XArbitraryZVertical,0.3424930741625561,-0.02640254568610872,-0.1107977638730457,0.9325906592547676,0.02664939872920513,-0.6446623802185059,-0.764002799987793,0,0,0,-1,-1,3070.518723666667,walking,2,2022-05-12T10:36:21.834+02:00,2022-05-11T22:15:20.957+02:00,586,0.8719785,0.8264485,1.715091,454.1317,0,0,2022-05-12T10:36:21.834+02:00,674037381.8341753,0,0.1899986,100.9032,1,0.95
2022-05-12T10:36:23.138+02:00,1652344580.189638,53.22886087381632,10.39822053984233,39.55266,-1,-1,-1,-1,23.87610244750977,40,-9999,3071.821335291667,-4.57763671875e-05,-0.6412506103515625,-0.734466552734375,3071.816338291667,-0.2512369954840808,0.03496275325973155,0.6994988863633693,-0.1149615049362183,-0.1274718046188354,-0.1620032489299774,-0.01331940852105618,-0.002588629722595215,0.03135961294174194,XArbitraryZVertical,0.3419679372791,-0.0266322679333811,-0.1117425540034954,0.9326640727158531,0.02674682252109051,-0.6438343524932861,-0.7646973133087158,0,0,0,-1,-1,3070.518723666667,walking,2,2022-05-12T10:36:21.834+02:00,2022-05-11T22:15:20.957+02:00,586,0.8719785,0.8264485,1.715091,454.1317,0,0,2022-05-12T10:36:21.834+02:00,674037381.8341753,0,0.1899986,100.9032,1,0.95
2022-05-12T10:36:23.148+02:00,1652344580.189638,53.22886087381632,10.39822053984233,39.55266,-1,-1,-1,-1,23.87610244750977,40,-9999,3071.8313295,-0.00994873046875,-0.633514404296875,-0.727264404296875,3071.826333291667,-0.2534847735644483,0.03500905697414945,0.6983243065578175,-0.1226072385907173,-0.1530116647481918,-0.1907356977462769,-0.02685477398335934,0.001684904098510742,0.03098446130752563,XArbitraryZVertical,0.3413935695196247,-0.02692176833182327,-0.1128177740255253,0.9327367168619892,0.02680868096649647,-0.6429351568222046,-0.7654513120651245,0,0,0,-1,-1,3070.518723666667,walking,2,2022-05-12T10:36:21.834+02:00,2022-05-11T22:15:20.957+02:00,586,0.8719785,0.8264485,1.715091,454.1317,0,0,2022-05-12T10:36:21.834+02:00,674037381.8341753,0,0.1899986,100.9032,1,0.95
2022-05-12T10:36:23.158+02:00,1652344580.189638,53.22886087381632,10.39822053984233,39.55266,-1,-1,-1,-1,23.87610244750977,40,-9999,3071.8413245,-0.0113372802734375,-0.6240692138671875,-0.719573974609375,3071.8363275,-0.2560945900040935,0.03503710255596666,0.6970988306519136,-0.130429744720459,-0.1814520955085754,-0.218114048242569,-0.03680678084492683,0.008481979370117188,0.03897273540496826,XArbitraryZVertical,0.3407891340395873,-0.02727697673783271,-0.1140667570667745,0.9327956593387365,0.02685773186385632,-0.6419960260391235,-0.7662374377250671,0,0,0,-1,-1,3070.518723666667,walking,2,2022-05-12T10:36:21.834+02:00,2022-05-11T22:15:20.957+02:00,586,0.8719785,0.8264485,1.715091,454.1317,0,0,2022-05-12T10:36:21.834+02:00,674037381.8341753,0,0.1899986,100.9032,1,0.95
2022-05-12T10:36:23.168+02:00,1652344580.189638,53.22886087381632,10.39822053984233,39.55266,-1,-1,-1,-1,23.87610244750977,40,-9999,3071.8513195,-0.00726318359375,-0.623260498046875,-0.71185302734375,3071.8463225,-0.2590234375988725,0.03497106085824141,0.6957529073948484,-0.1398408263921738,-0.2077252417802811,-0.2393860518932343,-0.03817491978406906,0.01689469814300537,0.04752779006958008,XArbitraryZVertical,0.3401183922012684,-0.02772115168620021,-0.1154845256269667,0.9328528208503998,0.02683731354773045,-0.6409635543823242,-0.767102062702179,0,0,0,-1,-1,3070.518723666667,walking,2,2022-05-12T10:36:21.834+02:00,2022-05-11T22:15:20.957+02:00,586,0.8719785,0.8264485,1.715091,454.1317,0,0,2022-05-12T10:36:21.834+02:00,674037381.8341753,0,0.1899986,100.9032,1,0.95
2022-05-12T10:36:23.178+02:00,1652344580.189638,53.22886087381632,10.39822053984233,39.55266,-1,-1,-1,-1,23.87610244750977,40,-9999,3071.8613145,-0.0127105712890625,-0.636016845703125,-0.70928955078125,3071.8563175,-0.2622626218346452,0.03475844334385518,0.6942190957236526,-0.1616963297128677,-0.2439966946840286,-0.281551867723465,-0.03397185727953911,0.01652532815933228,0.05623602867126465,XArbitraryZVertical,0.3393463866456512,-0.02827233252841065,-0.1170779188796402,0.9329189305134412,0.02670834958553314,-0.6397854685783386,-0.7680894136428833,0,0,0,-1,-1,3070.518723666667,walking,2,2022-05-12T10:36:21.834+02:00,2022-05-11T22:15:20.957+02:00,586,0.8719785,0.8264485,1.715091,454.1317,0,0,2022-05-12T10:36:21.834+02:00,674037381.8341753,0,0.1899986,100.9032,1,0.95
2022-05-12T10:36:23.188+02:00,1652344580.189638,53.22886087381632,10.39822053984233,39.55266,-1,-1,-1,-1,23.87610244750977,40,-9999,3071.8713095,0.0025177001953125,-0.646240234375,-0.718170166015625,3071.8663115,-0.2659820129710378,0.0344918048887405,0.6923960605183954,-0.1904857158660889,-0.2826079130172729,-0.3115212917327881,-0.03925461694598198,0.002366781234741211,0.05997097492218018,XArbitraryZVertical,0.3384285321721856,-0.02890877294136396,-0.1189136192559546,0.9330005476735347,0.02654372155666351,-0.6383833289146423,-0.7692608237266541,0,0,0,-1,-1,3070.518723666667,walking,2,2022-05-12T10:36:21.834+02:00,2022-05-11T22:15:20.957+02:00,586,0.8719785,0.8264485,1.715091,454.1317,0,0,2022-05-12T10:36:21.834+02:00,674037381.8341753,0,0.1899986,100.9032,1,0.95
2022-05-12T10:36:23.198+02:00,1652344580.189638,53.22886087381632,10.39822053984233,39.55266,-1,-1,-1,-1,23.87610244750977,40,-9999,3071.8813045,-0.013916015625,-0.669677734375,-0.7258453369140625,3071.8763065,-0.2704858633673723,0.03430370352491371,0.6899950593775014,-0.2839962244033813,-0.3196809887886047,-0.4333784878253937,-0.02393414452672005,-0.009706556797027588,0.05262500047683716,XArbitraryZVertical,0.3372330713807312,-0.02959934819826173,-0.1211202001624887,0.9331279569424824,0.02645151503384113,-0.6365333795547485,-0.770795464515686,0,0,0,-1,-1,3070.518723666667,walking,2,2022-05-12T10:36:21.834+02:00,2022-05-11T22:15:20.957+02:00,586,0.8719785,0.8264485,1.715091,454.1317,0,0,2022-05-12T10:36:21.834+02:00,674037381.8341753,0,0.1899986,100.9032,1,0.95
2022-05-12T10:36:23.208+02:00,1652344580.189638,53.22886087381632,10.39822053984233,39.55266,-1,-1,-1,-1,23.87610244750977,40,-9999,3071.8912995,0.0125732421875,-0.6522979736328125,-0.73291015625,3071.8863015,-0.2755059323794578,0.03384369477895274,0.6872004034719238,-0.2453402131795883,-0.4118576049804688,-0.3773410022258759,-0.04007337987422943,-0.03530186414718628,0.04673677682876587,XArbitraryZVertical,0.3358277504046548,-0.03047178442100713,-0.1236263530332431,0.9332779690770852,0.02615702897310257,-0.6343755125999451,-0.7725824117660522,0,0,0,-1,-1,3070.518723666667,walking,2,2022-05-12T10:36:21.834+02:00,2022-05-11T22:15:20.957+02:00,586,0.8719785,0.8264485,1.715091,454.1317,0,0,2022-05-12T10:36:21.834+02:00,674037381.8341753,0,0.1899986,100.9032,1,0.95
2022-05-12T10:36:23.218+02:00,1652344580.189638,53.22886087381632,10.39822053984233,39.55266,-1,-1,-1,-1,23.87610244750977,40,-9999,3071.9012945,-0.0264739990234375,-0.671478271484375,-0.7298126220703125,3071.8962965,-0.2809258515331752,0.0328241551131466,0.6843310835827122,-0.3055159449577332,-0.4819562435150146,-0.4715255498886108,-0.01285606250166893,-0.02014279365539551,0.04151427745819092,XArbitraryZVertical,0.3343429899577625,-0.0316603392300712,-0.1264156366295191,0.9333979524971523,0.02542897313833237,-0.6321548223495483,-0.7744247913360596,0,0,0,-1,-1,3070.518723666667,walking,2,2022-05-12T10:36:21.834+02:00,2022-05-11T22:15:20.957+02:00,586,0.8719785,0.8264485,1.715091,454.1317,0,0,2022-05-12T10:36:21.834+02:00,674037381.8341753,0,0.1899986,100.9032,1,0.95
2022-05-12T10:36:23.228+02:00,1652344580.189638,53.22886087381632,10.39822053984233,39.55266,-1,-1,-1,-1,23.87610244750977,40,-9999,3071.9112895,-0.0259857177734375,-0.655364990234375,-0.7273101806640625,3071.9062915,-0.2871664747691254,0.03157374254637917,0.6809147114326755,-0.3447997868061066,-0.5584919452667236,-0.5160500407218933,-0.05100296810269356,-0.04197394847869873,0.04679709672927856,XArbitraryZVertical,0.3325700793496118,-0.03304752778231617,-0.129643415731522,0.9335404254769768,0.02452863566577435,-0.6295040249824524,-0.7766100168228149,0,0,0,-1,-1,3070.518723666667,walking,2,2022-05-12T10:36:21.834+02:00,2022-05-11T22:15:20.957+02:00,586,0.8719785,0.8264485,1.715091,454.1317,0,0,2022-05-12T10:36:21.834+02:00,674037381.8341753,0,0.1899986,100.9032,1,0.95
2022-05-12T10:36:23.238+02:00,1652344580.189638,53.22886087381632,10.39822053984233,39.55266,-1,-1,-1,-1,23.87610244750977,40,-9999,3071.9212835,-0.057830810546875,-0.6648406982421875,-0.7121124267578125,3071.9162865,-0.2941502182634035,0.03009961724831329,0.6769259456776724,-0.432709664106369,-0.6129685044288635,-0.5881657600402832,-0.04944523051381111,-0.02896493673324585,0.05183839797973633,XArbitraryZVertical,0.330495994001612,-0.03461089457166555,-0.1332727203961996,0.9337093203440222,0.02345917001366615,-0.6263997554779053,-0.7791489958763123,0,0,0,-1,-1,3070.518723666667,walking,2,2022-05-12T10:36:21.834+02:00,2022-05-11T22:15:20.957+02:00,586,0.8719785,0.8264485,1.715091,454.1317,0,0,2022-05-12T10:36:21.834+02:00,674037381.8341753,0,0.1899986,100.9032,1,0.95
2022-05-12T10:36:23.248+02:00,1652344580.189638,53.22886087381632,10.39822053984233,39.55266,-1,-1,-1,-1,23.87610244750977,40,-9999,3071.9312785,-0.0615234375,-0.682098388671875,-0.70550537109375,3071.9262815,-0.3018796978192572,0.02859409129283405,0.6719420528652525,-0.520776629447937,-0.6517550349235535,-0.6409211158752441,-0.0802062526345253,-0.04233330488204956,0.07018160820007324,XArbitraryZVertical,0.3279338083695403,-0.03622516233016708,-0.1372861135337923,0.9339699034006388,0.02237509377300739,-0.6225070357322693,-0.7822943329811096,0,0,0,-1,-1,3070.518723666667,walking,2,2022-05-12T10:36:21.834+02:00,2022-05-11T22:15:20.957+02:00,586,0.8719785,0.8264485,1.715091,454.1317,0,0,2022-05-12T10:36:21.834+02:00,674037381.8341753,0,0.1899986,100.9032,1,0.95
2022-05-12T10:36:23.258+02:00,1652344580.189638,53.22886087381632,10.39822053984233,39.55266,-1,-1,-1,-1,23.87610244750977,40,-9999,3071.9412735,-0.202728271484375,-0.778228759765625,-0.69927978515625,3071.9362765,-0.3093206914892179,0.02772196194461993,0.6662763601654512,-0.5797078609466553,-0.4303741753101349,-0.4998832941055298,-0.08331402391195297,-0.06403505802154541,0.08032089471817017,XArbitraryZVertical,0.325093728216908,-0.03742713046436912,-0.1410828239407,0.9343495672551024,0.02179023623466492,-0.6180630326271057,-0.785826563835144,0,0,0,-1,-1,3070.518723666667,walking,2,2022-05-12T10:36:21.834+02:00,2022-05-11T22:15:20.957+02:00,586,0.8719785,0.8264485,1.715091,454.1317,0,0,2022-05-12T10:36:21.834+02:00,674037381.8341753,0,0.1899986,100.9032,1,0.95
2022-05-12T10:36:23.268+02:00,1652344580.189638,53.22886087381632,10.39822053984233,39.55266,-1,-1,-1,-1,23.87610244750977,40,-9999,3071.9512685,-0.1331329345703125,-0.705718994140625,-0.658966064453125,3071.9462715,-0.3153442785417982,0.02709656411958745,0.6599792606621371,-0.6659775972366333,-0.4348202347755432,-0.517709493637085,-0.2241324186325073,-0.1651279926300049,0.09043490886688232,XArbitraryZVertical,0.321996853533577,-0.03821698793222232,-0.1441986180038517,0.9349140956354158,0.02140380069613457,-0.6131004691123962,-0.7897149920463562,0,0,0,-1,-1,3070.518723666667,walking,2,2022-05-12T10:36:21.834+02:00,2022-05-11T22:15:20.957+02:00,586,0.8719785,0.8264485,1.715091,454.1317,0,0,2022-05-12T10:36:21.834+02:00,674037381.8341753,0,0.1899986,100.9032,1,0.95
2022-05-12T10:36:23.278+02:00,1652344580.189638,53.22886087381632,10.39822053984233,39.55266,-1,-1,-1,-1,23.87610244750977,40,-9999,3071.9612635,-0.119232177734375,-0.7432098388671875,-0.6201324462890625,3071.9562665,-0.3226597938600265,0.02662100374582356,0.6533482446686655,-0.6480015516281128,-0.5680259466171265,-0.6639564633369446,-0.1542692929506302,-0.0978701114654541,0.1348053812980652,XArbitraryZVertical,0.3187247153696261,-0.03909856597654337,-0.147906810280089,0.935419461818316,0.02113599330186844,-0.6078484654426575,-0.7937717437744141,0,0,0,-1,-1,3070.518723666667,walking,2,2022-05-12T10:36:21.834+02:00,2022-05-11T22:15:20.957+02:00,586,0.8719785,0.8264485,1.715091,454.1317,0,0,2022-05-12T10:36:21.834+02:00,674037381.8341753,0,0.1899986,100.9032,1,0.95
2022-05-12T10:36:23.288+02:00,1652344580.189638,53.22886087381632,10.39822053984233,39.55266,-1,-1,-1,-1,23.87610244750977,40,-9999,3071.9712585,-0.220001220703125,-0.7980804443359375,-0.5817413330078125,3071.9662615,-0.3313971714053007,0.02579136829186516,0.6459784842276642,-0.8076725602149963,-0.650773286819458,-0.7585623264312744,-0.1398249566555023,-0.1412294507026672,0.1781128644943237,XArbitraryZVertical,0.3150462357070187,-0.0402874384434142,-0.1523624458587944,0.9358998853990513,0.02059241198003292,-0.6019800305366516,-0.7982456088066101,0,0,0,-1,-1,3070.518723666667,walking,2,2022-05-12T10:36:21.834+02:00,2022-05-11T22:15:20.957+02:00,586,0.8719785,0.8264485,1.715091,454.1317,0,0,2022-05-12T10:36:21.834+02:00,674037381.8341753,0,0.1899986,100.9032,1,0.95
2022-05-12T10:36:23.298+02:00,1652344580.189638,53.22886087381632,10.39822053984233,39.55266,-1,-1,-1,-1,23.87610244750977,40,-9999,3071.9812535,-0.2886962890625,-0.78546142578125,-0.561279296875,3071.9762555,-0.3412352464883069,0.02498194249061939,0.6366911942600278,-1.011791586875916,-0.6911377310752869,-0.8680413961410522,-0.2400866746902466,-0.2035419344902039,0.2220748662948608,XArbitraryZVertical,0.310441200619412,-0.04144891387173749,-0.1573944659287905,0.9365550345276706,0.02008507587015629,-0.5945382118225098,-0.8038164973258972,0,0,0,-1,-1,3070.518723666667,walking,2,2022-05-12T10:36:21.834+02:00,2022-05-11T22:15:20.957+02:00,586,0.8719785,0.8264485,1.715091,454.1317,0,0,2022-05-12T10:36:21.834+02:00,674037381.8341753,0,0.1899986,100.9032,1,0.95
2022-05-12T10:36:23.308+02:00,1652344580.189638,53.22886087381632,10.39822053984233,39.55266,-1,-1,-1,-1,23.87610244750977,40,-9999,3071.9912485,-0.3253936767578125,-0.7579193115234375,-0.559234619140625,3071.9862505,-0.3523392717299463,0.02451928167060479,0.6254735218025749,-1.183615446090698,-0.7133047580718994,-0.9806777834892273,-0.3085721135139465,-0.1999799013137817,0.2491627931594849,XArbitraryZVertical,0.3049234021873865,-0.0424328699218972,-0.163032912387532,0.9373588632731877,0.01987544633448124,-0.5854812264442444,-0.810442328453064,0,0,0,-1,-1,3070.518723666667,walking,2,2022-05-12T10:36:21.834+02:00,2022-05-11T22:15:20.957+02:00,586,0.8719785,0.8264485,1.715091,454.1317,0,0,2022-05-12T10:36:21.834+02:00,674037381.8341753,0,0.1899986,100.9032,1,0.95
2022-05-12T10:36:23.318+02:00,1652344580.189638,53.22886087381632,10.39822053984233,39.55266,-1,-1,-1,-1,23.87610244750977,40,-9999,3072.0012435,-0.3400421142578125,-0.72674560546875,-0.559814453125,3071.9962455,-0.3646422759387255,0.0243367972854065,0.6126426895171579,-1.332903623580933,-0.7646425366401672,-1.079340100288391,-0.3453027904033661,-0.1828874349594116,0.2586541175842285,XArbitraryZVertical,0.2986367568220179,-0.04326202843561713,-0.1692511895907246,0.9382422291491237,0.0199087280780077,-0.5750315189361572,-0.8178889751434326,0,0,0,-1,-1,3070.518723666667,walking,2,2022-05-12T10:36:21.834+02:00,2022-05-11T22:15:20.957+02:00,586,0.8719785,0.8264485,1.715091,454.1317,0,0,2022-05-12T10:36:21.834+02:00,674037381.8341753,0,0.1899986,100.9032,1,0.95
2022-05-12T10:36:23.328+02:00,1652344580.189638,53.22886087381632,10.39822053984233,39.55266,-1,-1,-1,-1,23.87610244750977,40,-9999,3072.0112385,-0.3563385009765625,-0.7150115966796875,-0.566070556640625,3072.0062405,-0.3779746437245948,0.0239405788495989,0.5984016311164659,-1.477007150650024,-0.8595427274703979,-1.177812933921814,-0.3598212003707886,-0.163422703742981,0.2661856412887573,XArbitraryZVertical,0.291636526552672,-0.04413572361761874,-0.1760396735004903,0.9391541101632043,0.01977870613336563,-0.5633225440979004,-0.8260003328323364,0,0,0,-1,-1,3070.518723666667,walking,2,2022-05-12T10:36:21.834+02:00,2022-05-11T22:15:20.957+02:00,586,0.8719785,0.8264485,1.715091,454.1317,0,0,2022-05-12T10:36:21.834+02:00,674037381.8341753,0,0.1899986,100.9032,1,0.95
2022-05-12T10:36:23.338+02:00,1652344580.189638,53.22886087381632,10.39822053984233,39.55266,-1,-1,-1,-1,23.87610244750977,40,-9999,3072.0212335,-0.39971923828125,-0.68731689453125,-0.596343994140625,3072.0162355,-0.3924307587325909,0.02289956375402105,0.5829469267753543,-1.55091118812561,-0.9210787415504456,-1.30534553527832,-0.3754547834396362,-0.1645246744155884,0.2685543894767761,XArbitraryZVertical,0.2839693014161612,-0.0452642387014364,-0.183496372078154,0.9400222100530051,0.01911589317023754,-0.5504865646362305,-0.8346251845359802,0,0,0,-1,-1,3070.518723666667,walking,2,2022-05-12T10:36:21.834+02:00,2022-05-11T22:15:20.957+02:00,586,0.8719785,0.8264485,1.715091,454.1317,0,0,2022-05-12T10:36:21.834+02:00,674037381.8341753,0,0.1899986,100.9032,1,0.95
2022-05-12T10:36:23.348+02:00,1652344580.189638,53.22886087381632,10.39822053984233,39.55266,-1,-1,-1,-1,23.87610244750977,40,-9999,3072.0312275,-0.41015625,-0.6411895751953125,-0.5993194580078125,3072.0262305,-0.4084677216589914,0.02262873281140276,0.5671623191928693,-1.550078868865967,-0.8986691832542419,-1.450067520141602,-0.4188037514686584,-0.1500757336616516,0.2468687295913696,XArbitraryZVertical,0.276165957000324,-0.04610716782035403,-0.1916040813417136,0.9406883375565818,0.01908409968018532,-0.5372408032417297,-0.8432129621505737,0,0,0,-1,-1,3070.518723666667,walking,2,2022-05-12T10:36:21.834+02:00,2022-05-11T22:15:20.957+02:00,586,0.8719785,0.8264485,1.715091,454.1317,0,0,2022-05-12T10:36:21.834+02:00,674037381.8341753,0,0.1899986,100.9032,1,0.95
2022-05-12T10:36:23.358+02:00,1652344580.189638,53.22886087381632,10.39822053984233,39.55266,-1,-1,-1,-1,23.87610244750977,40,-9999,3072.0412225,-0.412384033203125,-0.6317596435546875,-0.6141204833984375,3072.0362255,-0.4259161150057173,0.02258792106545135,0.5513727667397164,-1.538473725318909,-0.9606635570526123,-1.5882648229599,-0.4293955564498901,-0.1173321604728699,0.2522692680358887,XArbitraryZVertical,0.2683381431411381,-0.04690617324818551,-0.2003533415779937,0.941091397515797,0.01923889480531216,-0.523857057094574,-0.8515889048576355,0,0,0,-1,-1,3070.518723666667,walking,2,2022-05-12T10:36:21.834+02:00,2022-05-11T22:15:20.957+02:00,586,0.8719785,0.8264485,1.715091,454.1317,0,0,2022-05-12T10:36:21.834+02:00,674037381.8341753,0,0.1899986,100.9032,1,0.95
2022-05-12T10:36:23.368+02:00,1652344580.189638,53.22886087381632,10.39822053984233,39.55266,-1,-1,-1,-1,23.87610244750977,40,-9999,3072.0512175,-0.433135986328125,-0.64385986328125,-0.619781494140625,3072.0462205,-0.444842015515282,0.02252327961975419,0.5357160456031702,-1.525098204612732,-1.011484503746033,-1.719137191772461,-0.4317506551742554,-0.1213024258613586,0.2455645799636841,XArbitraryZVertical,0.2605259195563762,-0.04778718673495272,-0.2098047429513446,0.9411826359137146,0.01936620660126209,-0.510456919670105,-0.8596852421760559,0,0,0,-1,-1,3070.518723666667,walking,2,2022-05-12T10:36:21.834+02:00,2022-05-11T22:15:20.957+02:00,586,0.8719785,0.8264485,1.715091,454.1317,0,0,2022-05-12T10:36:21.834+02:00,674037381.8341753,0,0.1899986,100.9032,1,0.95
2022-05-12T10:36:23.399+02:00,1652344580.189638,53.22886087381632,10.39822053984233,39.55266,-1,-1,-1,-1,23.87610244750977,40,-9999,3072.0612125,-0.4670257568359375,-0.6498870849609375,-0.6299591064453125,3072.0562155,-0.4651442944076118,0.0224176139990637,0.5200301734083618,-1.53681218624115,-1.042564630508423,-1.866732239723206,-0.4525888860225677,-0.1469532251358032,0.2478044629096985,XArbitraryZVertical,0.2526540933302483,-0.04871166962199554,-0.2199157123897953,0.9409730777749411,0.01945247128605843,-0.4969063103199005,-0.8675861358642578,0,0,0,-1,-1,3070.518723666667,walking,2,2022-05-12T10:36:21.834+02:00,2022-05-11T22:15:20.957+02:00,586,0.8719785,0.8264485,1.715091,454.1317,0,0,2022-05-12T10:36:21.834+02:00,674037381.8341753,0,0.1899986,100.9032,1,0.95
2022-05-12T10:36:23.401+02:00,1652344580.189638,53.22886087381632,10.39822053984233,39.55266,-1,-1,-1,-1,23.87610244750977,40,-9999,3072.0712075,-0.4481964111328125,-0.6360015869140625,-0.6487884521484375,3072.0662105,-0.486970260629132,0.02270500524393026,0.5041810397416334,-1.556064128875732,-1.050769567489624,-2.003319263458252,-0.4869043231010437,-0.1667962074279785,0.245385468006134,XArbitraryZVertical,0.2447064724710625,-0.04946086981941372,-0.2307033122837927,0.9404511605418147,0.01987812295556068,-0.4830905497074127,-0.8753447532653809,0,0,0,-1,-1,3070.518723666667,walking,2,2022-05-12T10:36:21.834+02:00,2022-05-11T22:15:20.957+02:00,586,0.8719785,0.8264485,1.715091,454.1317,0,0,2022-05-12T10:36:21.834+02:00,674037381.8341753,0,0.1899986,100.9032,1,0.95
2022-05-12T10:36:23.403+02:00,1652344580.189638,53.22886087381632,10.39822053984233,39.55266,-1,-1,-1,-1,23.87610244750977,40,-9999,3072.0812025,-0.4297027587890625,-0.62921142578125,-0.6884307861328125,3072.0762055,-0.5100018605470505,0.02308180256002451,0.4878590586131776,-1.619056463241577,-1.070538759231567,-2.125589609146118,-0.4685840904712677,-0.1672654747962952,0.234314501285553,XArbitraryZVertical,0.2365170748854699,-0.05008102151376066,-0.2420654679482505,0.9396573513611405,0.02038723230361938,-0.4687357842922211,-0.8831031322479248,0,0,0,-1,-1,3070.518723666667,walking,2,2022-05-12T10:36:21.834+02:00,2022-05-11T22:15:20.957+02:00,586,0.8719785,0.8264485,1.715091,454.1317,0,0,2022-05-12T10:36:21.834+02:00,674037381.8341753,0,0.1899986,100.9032,1,0.95
2022-05-12T10:36:23.408+02:00,1652344580.189638,53.22886087381632,10.39822053984233,39.55266,-1,-1,-1,-1,23.87610244750977,40,-9999,3072.0911975,-0.430511474609375,-0.631011962890625,-0.7327423095703125,3072.0861995,-0.5341531207286404,0.02331961610089694,0.4707103540097694,-1.718949317932129,-1.102042078971863,-2.239727735519409,-0.4504848718643188,-0.1756916046142578,0.2025730609893799,XArbitraryZVertical,0.2278980279512776,-0.05060107077903327,-0.2539971867477662,0.9386093525419379,0.02078163996338844,-0.4535194933414459,-0.8910040259361267,0,0,0,-1,-1,3070.518723666667,walking,2,2022-05-12T10:36:21.834+02:00,2022-05-11T22:15:20.957+02:00,586,0.8719785,0.8264485,1.715091,454.1317,0,0,2022-05-12T10:36:21.834+02:00,674037381.8341753,0,0.1899986,100.9032,1,0.95
2022-05-12T10:36:23.418+02:00,1652344580.189638,53.22886087381632,10.39822053984233,39.55266,-1,-1,-1,-1,23.87610244750977,40,-9999,3072.1011925,-0.4454193115234375,-0.6431732177734375,-0.7878265380859375,3072.0961945,-0.5592476089422601,0.02321151152018934,0.4522897267253287,-1.868878364562988,-1.149355053901672,-2.345059394836426,-0.4513876438140869,-0.1939854919910431,0.1664640307426453,XArbitraryZVertical,0.2186202406794454,-0.05100911390018041,-0.2664474605623484,0.937341553722831,0.02087569236755371,-0.437026172876358,-0.8992065191268921,0,0,0,-1,-1,3070.518723666667,walking,2,2022-05-12T10:36:21.834+02:00,2022-05-11T22:15:20.957+02:00,586,0.8719785,0.8264485,1.715091,454.1317,0,0,2022-05-12T10:36:21.834+02:00,674037381.8341753,0,0.1899986,100.9032,1,0.95
2022-05-12T10:36:23.428+02:00,1652344580.189638,53.22886087381632,10.39822053984233,39.55266,-1,-1,-1,-1,23.87610244750977,40,-9999,3072.1111875,-0.467254638671875,-0.6577911376953125,-0.8400726318359375,3072.1061895,-0.58542755946938,0.02274342864221888,0.432183939165275,-2.043786287307739,-1.190229535102844,-2.479743242263794,-0.4660702347755432,-0.2243179678916931,0.119991660118103,XArbitraryZVertical,0.2084855393612265,-0.05123097764350638,-0.2794880093388803,0.9358395931923017,0.0206504613161087,-0.4188549220561981,-0.9078183174133301,0,0,0,-1,-1,3070.518723666667,walking,2,2022-05-12T10:36:21.834+02:00,2022-05-11T22:15:20.957+02:00,586,0.8719785,0.8264485,1.715091,454.1317,0,0,2022-05-12T10:36:21.834+02:00,674037381.8341753,0,0.1899986,100.9032,1,0.95
2022-05-12T10:36:23.438+02:00,1652344580.189638,53.22886087381632,10.39822053984233,39.55266,-1,-1,-1,-1,23.87610244750977,40,-9999,3072.1211825,-0.503326416015625,-0.6576385498046875,-0.9055633544921875,3072.1161845,-0.612748904155992,0.02192722097961211,0.4104103653182958,-2.186593294143677,-1.193435192108154,-2.613054990768433,-0.4873598515987396,-0.2588052153587341,0.07666397094726562,XArbitraryZVertical,0.1975047700678211,-0.05121997247751073,-0.2931282828228932,0.9340473237824922,0.02010471187531948,-0.3989856541156769,-0.9167367815971375,0,0,0,-1,-1,3070.518723666667,walking,2,2022-05-12T10:36:21.834+02:00,2022-05-11T22:15:20.957+02:00,586,0.8719785,0.8264485,1.715091,454.1317,0,0,2022-05-12T10:36:21.834+02:00,674037381.8341753,0,0.1899986,100.9032,1,0.95
2022-05-12T10:36:23.448+02:00,1652344580.189638,53.22886087381632,10.39822053984233,39.55266,-1,-1,-1,-1,23.87610244750977,40,-9999,3072.1311775,-0.533111572265625,-0.6145782470703125,-0.986968994140625,3072.1261795,-0.6414021069033854,0.02122842037735172,0.3878102016386717,-2.206971883773804,-1.168920516967773,-2.763926267623901,-0.5229774117469788,-0.279476135969162,0.01996731758117676,XArbitraryZVertical,0.1861406385692786,-0.05085523766902114,-0.307365843314874,0.9318218135913791,0.01965050958096981,-0.378162145614624,-0.9255307912826538,0,0,0,-1,-1,3070.518723666667,walking,2,2022-05-12T10:36:21.834+02:00,2022-05-11T22:15:20.957+02:00,586,0.8719785,0.8264485,1.715091,454.1317,0,0,2022-05-12T10:36:21.834+02:00,674037381.8341753,0,0.1899986,100.9032,1,0.95
2022-05-12T10:36:23.458+02:00,1652344580.189638,53.22886087381632,10.39822053984233,39.55266,-1,-1,-1,-1,23.87610244750977,40,-9999,3072.1411725,-0.574951171875,-0.539337158203125,-1.064910888671875,3072.1361745,-0.6715223458562377,0.02092378458155535,0.365386196337768,-2.146843910217285,-1.111424207687378,-2.937025785446167,-0.5526531934738159,-0.257267951965332,-0.05318772792816162,XArbitraryZVertical,0.1749137918381466,-0.05014446233620876,-0.3221923223074094,0.9290225146547408,0.01954109221696854,-0.357310026884079,-0.9337813854217529,0,0,0,-1,-1,3070.518723666667,walking,2,2022-05-12T10:36:21.834+02:00,2022-05-11T22:15:20.957+02:00,586,0.8719785,0.8264485,1.715091,454.1317,0,0,2022-05-12T10:36:21.834+02:00,674037381.8341753,0,0.1899986,100.9032,1,0.95
2022-05-12T10:36:23.468+02:00,1652344580.189638,53.22886087381632,10.39822053984233,39.55266,-1,-1,-1,-1,23.87610244750977,40,-9999,3072.1511665,-0.5770721435546875,-0.4519500732421875,-1.147079467773438,3072.1461695,-0.7036381299504036,0.02153995022685046,0.34402849275589,-1.997896313667297,-0.9965860247612,-3.172457933425903,-0.5952278971672058,-0.2020546197891235,-0.1237258315086365,XArbitraryZVertical,0.1643300023384543,-0.04902093105179865,-0.3377700902736842,0.9254750904612723,0.02027621865272522,-0.3372822701931,-0.9411851763725281,0,0,0,-1,-1,3070.518723666667,walking,2,2022-05-12T10:36:21.834+02:00,2022-05-11T22:15:20.957+02:00,586,0.8719785,0.8264485,1.715091,454.1317,0,0,2022-05-12T10:36:21.834+02:00,674037381.8341753,0,0.1899986,100.9032,1,0.95
2022-05-12T10:36:23.478+02:00,1652344580.189638,53.22886087381632,10.39822053984233,39.55266,-1,-1,-1,-1,23.87610244750977,40,-9999,3072.1611615,-0.5800323486328125,-0.383209228515625,-1.238693237304688,3072.1561645,-0.7379021573663551,0.02338830696441428,0.324232926745142,-1.812933683395386,-0.871131956577301,-3.391791820526123,-0.5992403030395508,-0.1333679854869843,-0.1994433999061584,XArbitraryZVertical,0.1546972156748207,-0.04744155141452627,-0.3541237675591571,0.9210941883005902,0.02216764725744724,-0.318581759929657,-0.9476361274719238,0,0,0,-1,-1,3070.518723666667,walking,2,2022-05-12T10:36:21.834+02:00,2022-05-11T22:15:20.957+02:00,586,0.8719785,0.8264485,1.715091,454.1317,0,0,2022-05-12T10:36:21.834+02:00,674037381.8341753,0,0.1899986,100.9032,1,0.95
2022-05-12T10:36:23.488+02:00,1652344580.189638,53.22886087381632,10.39822053984233,39.55266,-1,-1,-1,-1,23.87610244750977,40,-9999,3072.1711565,-0.56982421875,-0.3292236328125,-1.315597534179688,3072.1661595,-0.7743609208808314,0.02661033405804781,0.3062501499376027,-1.62053370475769,-0.7344580292701721,-3.633819818496704,-0.6054020524024963,-0.08172360062599182,-0.2855600714683533,XArbitraryZVertical,0.1461892093828531,-0.04541026853586769,-0.3712489456098798,0.9158280712009679,0.02536918222904205,-0.3014853894710541,-0.953133225440979,0,0,0,-1,-1,3070.518723666667,walking,2,2022-05-12T10:36:21.834+02:00,2022-05-11T22:15:20.957+02:00,586,0.8719785,0.8264485,1.715091,454.1317,0,0,2022-05-12T10:36:21.834+02:00,674037381.8341753,0,0.1899986,100.9032,1,0.95
2022-05-12T10:36:23.498+02:00,1652344580.189638,53.22886087381632,10.39822053984233,39.55266,-1,-1,-1,-1,23.87610244750977,40,-9999,3072.1811515,-0.53582763671875,-0.304931640625,-1.377304077148438,3072.1761545,-0.8132337416069682,0.03135902949017957,0.2898008198604742,-1.458533883094788,-0.5981084704399109,-3.905923366546631,-0.5998712182044983,-0.04346203804016113,-0.3577679395675659,XArbitraryZVertical,0.1387403704580053,-0.0428518082905946,-0.3892320833062239,0.9096226218188069,0.03004645928740501,-0.2857613563537598,-0.9578296542167664,0,0,0,-1,-1,3070.518723666667,walking,2,2022-05-12T10:36:21.834+02:00,2022-05-11T22:15:20.957+02:00,586,0.8719785,0.8264485,1.715091,454.1317,0,0,2022-05-12T10:36:21.834+02:00,674037381.8341753,0,0.1899986,100.9032,1,0.95
2022-05-12T10:36:23.508+02:00,1652344580.189638,53.22886087381632,10.39822053984233,39.55266,-1,-1,-1,-1,23.87610244750977,40,-9999,3072.1911465,-0.4891510009765625,-0.28521728515625,-1.45233154296875,3072.1861495,-0.8546617417817413,0.03783421970522918,0.2747510949462644,-1.270002722740173,-0.4144497215747833,-4.148179531097412,-0.5722346901893616,-0.03362405300140381,-0.4155001640319824,XArbitraryZVertical,0.1323726451907613,-0.03969250212621819,-0.4081076646988526,0.9024135878282121,0.03640647605061531,-0.2713073790073395,-0.9618039727210999,0,0,0,-1,-1,3070.518723666667,walking,2,2022-05-12T10:36:21.834+02:00,2022-05-11T22:15:20.957+02:00,586,0.8719785,0.8264485,1.715091,454.1317,0,0,2022-05-12T10:36:21.834+02:00,674037381.8341753,0,0.1899986,100.9032,1,0.95
2022-05-12T10:36:23.518+02:00,1652344580.189638,53.22886087381632,10.39822053984233,39.55266,-1,-1,-1,-1,23.87610244750977,40,-9999,3072.2011415,-0.44854736328125,-0.248138427734375,-1.521820068359375,3072.1961445,-0.898186821828409,0.04613765382574631,0.2611870700935987,-1.097182750701904,-0.2250113487243652,-4.359993457794189,-0.5337086319923401,-0.02698957920074463,-0.4872755408287048,XArbitraryZVertical,0.1272078350519343,-0.03591842336546443,-0.4276316370218929,0.8942367216413126,0.04455704241991043,-0.2582275569438934,-0.9650560617446899,0,0,0,-1,-1,3070.518723666667,walking,2,2022-05-12T10:36:21.834+02:00,2022-05-11T22:15:20.957+02:00,586,0.8719785,0.8264485,1.715091,454.1317,0,0,2022-05-12T10:36:21.834+02:00,674037381.8341753,0,0.1899986,100.9032,1,0.95
2022-05-12T10:36:23.528+02:00,1652344580.189638,53.22886087381632,10.39822053984233,39.55266,-1,-1,-1,-1,23.87610244750977,40,-9999,3072.2111365,-0.4302215576171875,-0.2635650634765625,-1.614120483398438,3072.2061385,-0.9437980671816415,0.05637746523063971,0.2492038500225426,-0.8523507118225098,-0.0162686575204134,-4.583067417144775,-0.5031549334526062,-0.0015057772397995,-0.5542507171630859,XArbitraryZVertical,0.1233657915049643,-0.03156253569587356,-0.4477551563636203,0.8850423705341403,0.05460697412490845,-0.2466324865818024,-0.9675693511962891,0,0,0,-1,-1,3070.518723666667,walking,2,2022-05-12T10:36:21.834+02:00,2022-05-11T22:15:20.957+02:00,586,0.8719785,0.8264485,1.715091,454.1317,0,0,2022-05-12T10:36:21.834+02:00,674037381.8341753,0,0.1899986,100.9032,1,0.95
2022-05-12T10:36:23.538+02:00,1652344580.189638,53.22886087381632,10.39822053984233,39.55266,-1,-1,-1,-1,23.87610244750977,40,-9999,3072.2211315,-0.4304656982421875,-0.2652130126953125,-1.67132568359375,3072.2161335,-0.9914514251504875,0.06853980365298445,0.2391224879149403,-0.6020628809928894,0.188601940870285,-4.777053356170654,-0.4967596232891083,-0.0267147421836853,-0.6448554396629333,XArbitraryZVertical,0.1210385449812516,-0.02677943417721159,-0.4684021992837403,0.8747753970050902,0.06653746217489243,-0.2368501722812653,-0.9692650437355042,0,0,0,-1,-1,3070.518723666667,walking,2,2022-05-12T10:36:21.834+02:00,2022-05-11T22:15:20.957+02:00,586,0.8719785,0.8264485,1.715091,454.1317,0,0,2022-05-12T10:36:21.834+02:00,674037381.8341753,0,0.1899986,100.9032,1,0.95
2022-05-12T10:36:23.548+02:00,1652344580.189638,53.22886087381632,10.39822053984233,39.55266,-1,-1,-1,-1,23.87610244750977,40,-9999,3072.2311265,-0.439300537109375,-0.22589111328125,-1.707015991210938,3072.2261285,-1.041137597953196,0.08304339622072068,0.2308967614182392,-0.3138662576675415,0.4140526354312897,-4.988246917724609,-0.511212944984436,-0.03636232018470764,-0.701218843460083,XArbitraryZVertical,0.1203556346189227,-0.02147261519000526,-0.4894887249028481,0.8633969352848077,0.08074667304754257,-0.2288505733013153,-0.9701068997383118,0,0,0,-1,-1,3070.518723666667,walking,2,2022-05-12T10:36:21.834+02:00,2022-05-11T22:15:20.957+02:00,586,0.8719785,0.8264485,1.715091,454.1317,0,0,2022-05-12T10:36:21.834+02:00,674037381.8341753,0,0.1899986,100.9032,1,0.95
2022-05-12T10:36:23.558+02:00,1652344580.189638,53.22886087381632,10.39822053984233,39.55266,-1,-1,-1,-1,23.87610244750977,40,-9999,3072.2411215,-0.4349365234375,-0.1554107666015625,-1.710922241210938,3072.2361235,-1.092849459252359,0.1000164595689548,0.2240386143291498,-0.1529138535261154,0.6830212473869324,-5.18202018737793,-0.5366554856300354,-0.003721922636032104,-0.7368804812431335,XArbitraryZVertical,0.1212009327623944,-0.01557403565088521,-0.5109592724877468,0.8508750944917853,0.09735435992479324,-0.2221691012382507,-0.9701355695724487,0,0,0,-1,-1,3070.518723666667,walking,2,2022-05-12T10:36:21.834+02:00,2022-05-11T22:15:20.957+02:00,586,0.8719785,0.8264485,1.715091,454.1317,0,0,2022-05-12T10:36:21.834+02:00,674037381.8341753,0,0.1899986,100.9032,1,0.95
2022-05-12T10:36:23.568+02:00,1652344580.189638,53.22886087381632,10.39822053984233,39.55266,-1,-1,-1,-1,23.87610244750977,40,-9999,3072.2511165,-0.3728790283203125,-0.07562255859375,-1.715255737304688,3072.2461185,-1.146554357692155,0.1200350622067448,0.2178552778156449,0.09818689525127411,0.9330389499664307,-5.373081207275391,-0.5518537163734436,0.0607253760099411,-0.7415845394134521,XArbitraryZVertical,0.123508286988878,-0.008764646778050675,-0.532724555569193,0.8371819162466076,0.1169165894389153,-0.21613609790802,-0.9693377614021301,0,0,0,-1,-1,3070.518723666667,walking,2,2022-05-12T10:36:21.834+02:00,2022-05-11T22:15:20.957+02:00,586,0.8719785,0.8264485,1.715091,454.1317,0,0,2022-05-12T10:36:21.834+02:00,674037381.8341753,0,0.1899986,100.9032,1,0.95
2022-05-12T10:36:23.578+02:00,1652344580.189638,53.22886087381632,10.39822053984233,39.55266,-1,-1,-1,-1,23.87610244750977,40,-9999,3072.2611105,-0.3561248779296875,0.0048675537109375,-1.75421142578125,3072.2561135,-1.202432097624537,0.1428740758001686,0.2130647968266835,0.389985978603363,1.31138551235199,-5.581773281097412,-0.5120483636856079,0.1358338445425034,-0.7478271126747131,XArbitraryZVertical,0.1276068372759842,-0.001465607000157057,-0.5547457178365974,0.822175003443767,0.1391687244176865,-0.2114563882350922,-0.9674286842346191,0,0,0,-1,-1,3070.518723666667,walking,2,2022-05-12T10:36:21.834+02:00,2022-05-11T22:15:20.957+02:00,586,0.8719785,0.8264485,1.715091,454.1317,0,0,2022-05-12T10:36:21.834+02:00,674037381.8341753,0,0.1899986,100.9032,1,0.95
