loggingTime(txt),locationTimestamp_since1970(s),locationLatitude(WGS84),locationLongitude(WGS84),locationAltitude(m),locationSpeed(m/s),locationSpeedAccuracy(m/s),locationCourse(°),locationCourseAccuracy(°),locationVerticalAccuracy(m),locationHorizontalAccuracy(m),locationFloor(Z),accelerometerTimestamp_sinceReboot(s),accelerometerAccelerationX(G),accelerometerAccelerationY(G),accelerometerAccelerationZ(G),motionTimestamp_sinceReboot(s),motionYaw(rad),motionRoll(rad),motionPitch(rad),motionRotationRateX(rad/s),motionRotationRateY(rad/s),motionRotationRateZ(rad/s),motionUserAccelerationX(G),motionUserAccelerationY(G),motionUserAccelerationZ(G),motionAttitudeReferenceFrame(txt),motionQuaternionX(R),motionQuaternionY(R),motionQuaternionZ(R),motionQuaternionW(R),motionGravityX(G),motionGravityY(G),motionGravityZ(G),motionMagneticFieldX(µT),motionMagneticFieldY(µT),motionMagneticFieldZ(µT),motionHeading(°),motionMagneticFieldCalibrationAccuracy(Z),activityTimestamp_sinceReboot(s),activity(txt),activityActivityConfidence(Z),activityActivityStartDate(txt),pedometerStartDate(txt),pedometerNumberofSteps(N),pedometerAverageActivePace(s/m),pedometerCurrentPace(s/m),pedometerCurrentCadence(steps/s),pedometerDistance(m),pedometerFloorAscended(N),pedometerFloorDescended(N),pedometerEndDate(txt),altimeterTimestamp_sinceReboot(s),altimeterReset(bool),altimeterRelativeAltitude(m),altimeterPressure(kPa),batteryState(N),batteryLevel(R)
2022-05-12T10:37:00.914+02:00,1652344619.99987,53.22896503848325,10.39844155312553,36.42404,0.17,0.73,-1,-1,4,10,-9999,3109.556671666667,0.1197357177734375,-0.633026123046875,-0.7795562744140625,3109.551673666667,0.06005365135335535,0.1488781084198711,0.6610704783733964,0.008078736253082752,0.04141880571842194,-0.00746440701186657,-0.02562004327774048,-0.01062542200088501,-0.002202808856964111,XArbitraryZVertical,0.3213927302722503,0.08002958778558095,0.05244447768705641,0.9420996388802233,0.1170811429619789,-0.6139621734619141,-0.7806039452552795,0,0,0,-1,-1,3106.325342125,walking,2,2022-05-12T10:36:57.641+02:00,2022-05-11T22:15:20.957+02:00,633,0.8772626,0.6313528,2.236902,487.2902,0,0,2022-05-12T10:37:00.200+02:00,674037420.1998624,0,0.4399986,100.9019,1,0.95
2022-05-12T10:37:00.920+02:00,1652344619.99987,53.22896503848325,10.39844155312553,36.42404,0.17,0.73,-1,-1,4,10,-9999,3109.566666666667,0.1277008056640625,-0.6368408203125,-0.7741851806640625,3109.561668666667,0.05986745384427051,0.149346574841616,0.6610079156707913,-0.006584362126886845,0.0174919031560421,-0.01536067947745323,0.002283096313476562,-0.01911294460296631,0.001030385494232178,XArbitraryZVertical,0.3213583898629331,0.08022020943236158,0.05243014627691585,0.9420959440115455,0.1174525320529938,-0.6139127612113953,-0.7805870175361633,0,0,0,-1,-1,3106.325342125,walking,2,2022-05-12T10:36:57.641+02:00,2022-05-11T22:15:20.957+02:00,633,0.8772626,0.6313528,2.236902,487.2902,0,0,2022-05-12T10:37:00.200+02:00,674037420.1998624,0,0.4399986,100.9019,1,0.95
2022-05-12T10:37:00.922+02:00,1652344619.99987,53.22896503848325,10.39844155312553,36.42404,0.17,0.73,-1,-1,4,10,-9999,3109.576661666667,0.119659423828125,-0.62939453125,-0.7775421142578125,3109.571663666667,0.05963174966021707,0.1495840755156723,0.6607016959273385,-0.0172483567148447,0.0006734407506883144,-0.02282705157995224,0.01003479957580566,-0.02316939830780029,0.006559431552886963,XArbitraryZVertical,0.3212171535102892,0.0802936139516755,0.05234793851448565,0.9421424391103771,0.1176659315824509,-0.6136710643768311,-0.7807449698448181,0,0,0,-1,-1,3106.325342125,walking,2,2022-05-12T10:36:57.641+02:00,2022-05-11T22:15:20.957+02:00,633,0.8772626,0.6313528,2.236902,487.2902,0,0,2022-05-12T10:37:00.200+02:00,674037420.1998624,0,0.4399986,100.9019,1,0.95
2022-05-12T10:37:00.935+02:00,1652344619.99987,53.22896503848325,10.39844155312553,36.42404,0.17,0.73,-1,-1,4,10,-9999,3109.586656666667,0.121368408203125,-0.6182708740234375,-0.77581787109375,3109.581658666667,0.05947895059950062,0.1496114966608794,0.6603653755081917,-0.01787286810576916,0.009558545425534248,-0.02260574325919151,0.00194123387336731,-0.01598864793777466,0.003403306007385254,XArbitraryZVertical,0.3210638806709133,0.08028134372614101,0.05227009356715496,0.9422000800805518,0.1177181005477905,-0.6134054660797119,-0.7809457778930664,0,0,0,-1,-1,3106.325342125,walking,2,2022-05-12T10:36:57.641+02:00,2022-05-11T22:15:20.957+02:00,633,0.8772626,0.6313528,2.236902,487.2902,0,0,2022-05-12T10:37:00.200+02:00,674037420.1998624,0,0.4399986,100.9019,1,0.95
2022-05-12T10:37:00.936+02:00,1652344619.99987,53.22896503848325,10.39844155312553,36.42404,0.17,0.73,-1,-1,4,10,-9999,3109.596651666667,0.12713623046875,-0.6146240234375,-0.7762603759765625,3109.591653666667,0.05963403941894106,0.1491682437574804,0.6601436185069013,-0.01062307879328728,0.007268493063747883,-0.02372400462627411,0.003976181149482727,-0.005040168762207031,0.005314111709594727,XArbitraryZVertical,0.3209646169819195,0.08009698230671515,0.05226525658382906,0.9422498501213413,0.1173921450972557,-0.613230288028717,-0.7811324000358582,0,0,0,-1,-1,3106.325342125,walking,2,2022-05-12T10:36:57.641+02:00,2022-05-11T22:15:20.957+02:00,633,0.8772626,0.6313528,2.236902,487.2902,0,0,2022-05-12T10:37:00.200+02:00,674037420.1998624,0,0.4399986,100.9019,1,0.95
2022-05-12T10:37:00.938+02:00,1652344619.99987,53.22896503848325,10.39844155312553,36.42404,0.17,0.73,-1,-1,4,10,-9999,3109.606646666667,0.12591552734375,-0.61260986328125,-0.7760009765625,3109.601648666667,0.05940592962487319,0.1492747359565447,0.659890041550629,-0.009995106607675552,-0.002462697913870215,-0.02633283659815788,0.009637698531150818,-0.001593649387359619,0.005012869834899902,XArbitraryZVertical,0.3208513377862262,0.08011006065993138,0.05216716032275495,0.9422927100171756,0.117498442530632,-0.613029956817627,-0.7812736034393311,0,0,0,-1,-1,3106.325342125,walking,2,2022-05-12T10:36:57.641+02:00,2022-05-11T22:15:20.957+02:00,633,0.8772626,0.6313528,2.236902,487.2902,0,0,2022-05-12T10:37:00.200+02:00,674037420.1998624,0,0.4399986,100.9019,1,0.95
2022-05-12T10:37:00.940+02:00,1652344619.99987,53.22896503848325,10.39844155312553,36.42404,0.17,0.73,-1,-1,4,10,-9999,3109.616641666667,0.1232147216796875,-0.6086273193359375,-0.7817230224609375,3109.611643666667,0.05895509538691358,0.149696042814799,0.6598108373459076,-0.01578548364341259,-0.001239507691934705,-0.02568302489817142,0.008080616593360901,0.0003579258918762207,0.005270719528198242,XArbitraryZVertical,0.3208210532587527,0.08023608590158751,0.0520199147801783,0.9423004649078252,0.1178348362445831,-0.6129674315452576,-0.7812720537185669,0,0,0,-1,-1,3106.325342125,walking,2,2022-05-12T10:36:57.641+02:00,2022-05-11T22:15:20.957+02:00,633,0.8772626,0.6313528,2.236902,487.2902,0,0,2022-05-12T10:37:00.200+02:00,674037420.1998624,0,0.4399986,100.9019,1,0.95
2022-05-12T10:37:00.943+02:00,1652344619.99987,53.22896503848325,10.39844155312553,36.42404,0.17,0.73,-1,-1,4,10,-9999,3109.626635666667,0.127044677734375,-0.6004791259765625,-0.787506103515625,3109.621638666667,0.05879793416334039,0.1496676343400404,0.6597431792552835,-0.01001121662557125,-0.004166588187217712,-0.02136550843715668,0.005395807325839996,0.004287004470825195,-0.0004069805145263672,XArbitraryZVertical,0.3207961699729673,0.08019737159515568,0.05193924058969797,0.942316680803688,0.1178188249468803,-0.612913966178894,-0.7813163995742798,0,0,0,-1,-1,3106.325342125,walking,2,2022-05-12T10:36:57.641+02:00,2022-05-11T22:15:20.957+02:00,633,0.8772626,0.6313528,2.236902,487.2902,0,0,2022-05-12T10:37:00.200+02:00,674037420.1998624,0,0.4399986,100.9019,1,0.95
2022-05-12T10:37:00.953+02:00,1652344619.99987,53.22896503848325,10.39844155312553,36.42404,0.17,0.73,-1,-1,4,10,-9999,3109.636630666667,0.126373291015625,-0.5984039306640625,-0.7966461181640625,3109.631633666667,0.05869524391596649,0.1495106064960517,0.6597336531706138,-0.00372812245041132,-0.01001082919538021,-0.02164041250944138,0.009347587823867798,0.0124276876449585,-0.006165802478790283,XArbitraryZVertical,0.3207998693257708,0.08010689932445501,0.05186537972947651,0.9423271743661167,0.11769700050354,-0.6129063963890076,-0.7813406586647034,0,0,0,-1,-1,3106.325342125,walking,2,2022-05-12T10:36:57.641+02:00,2022-05-11T22:15:20.957+02:00,633,0.8772626,0.6313528,2.236902,487.2902,0,0,2022-05-12T10:37:00.200+02:00,674037420.1998624,0,0.4399986,100.9019,1,0.95
2022-05-12T10:37:00.965+02:00,1652344619.99987,53.22896503848325,10.39844155312553,36.42404,0.17,0.73,-1,-1,4,10,-9999,3109.646625666667,0.12115478515625,-0.6043243408203125,-0.802978515625,3109.641628666667,0.05845805432986556,0.1495594622444159,0.6598501121180579,0.005690679885447025,-0.01056982576847076,-0.01710212044417858,0.008648671209812164,0.0145949125289917,-0.01538217067718506,XArbitraryZVertical,0.3208630508998641,0.08009206788533724,0.0517650235104308,0.9423124563177606,0.1177245378494263,-0.6129984259605408,-0.7812643051147461,0,0,0,-1,-1,3106.325342125,walking,2,2022-05-12T10:36:57.641+02:00,2022-05-11T22:15:20.957+02:00,633,0.8772626,0.6313528,2.236902,487.2902,0,0,2022-05-12T10:37:00.200+02:00,674037420.1998624,0,0.4399986,100.9019,1,0.95
2022-05-12T10:37:00.973+02:00,1652344619.99987,53.22896503848325,10.39844155312553,36.42404,0.17,0.73,-1,-1,4,10,-9999,3109.656620666667,0.1245574951171875,-0.60198974609375,-0.8001861572265625,3109.651623666667,0.05820377081729158,0.1497265978375189,0.660077149445633,0.01427894178777933,-0.0003755781799554825,-0.01132246106863022,0.003320351243019104,0.00885385274887085,-0.02187192440032959,XArbitraryZVertical,0.3209760596970211,0.08013039102404125,0.05167899751917011,0.9422753859346029,0.1178343519568443,-0.6131777763366699,-0.7811070084571838,0,0,0,-1,-1,3106.325342125,walking,2,2022-05-12T10:36:57.641+02:00,2022-05-11T22:15:20.957+02:00,633,0.8772626,0.6313528,2.236902,487.2902,0,0,2022-05-12T10:37:00.200+02:00,674037420.1998624,0,0.4399986,100.9019,1,0.95
2022-05-12T10:37:00.983+02:00,1652344619.99987,53.22896503848325,10.39844155312553,36.42404,0.17,0.73,-1,-1,4,10,-9999,3109.666615666667,0.1278839111328125,-0.60174560546875,-0.79949951171875,3109.661618666667,0.05804502443553544,0.1498121176695772,0.6602875971010997,0.008438097313046455,-0.004742896184325218,-0.008759168907999992,0.00667552649974823,0.01135468482971191,-0.01921725273132324,XArbitraryZVertical,0.321079532735217,0.08014554245777061,0.0516243982321952,0.9422417712749567,0.1178818792104721,-0.6133440136909485,-0.7809692621231079,0,0,0,-1,-1,3106.325342125,walking,2,2022-05-12T10:36:57.641+02:00,2022-05-11T22:15:20.957+02:00,633,0.8772626,0.6313528,2.236902,487.2902,0,0,2022-05-12T10:37:00.200+02:00,674037420.1998624,0,0.4399986,100.9019,1,0.95
2022-05-12T10:37:00.993+02:00,1652344619.99987,53.22896503848325,10.39844155312553,36.42404,0.17,0.73,-1,-1,4,10,-9999,3109.676610666667,0.1207275390625,-0.6111602783203125,-0.79510498046875,3109.671613666667,0.05788811532074568,0.1498925340821943,0.6603754000306441,-0.001398788299411535,-0.003722039982676506,-0.01141707040369511,0.009947188198566437,0.01166814565658569,-0.01859331130981445,XArbitraryZVertical,0.3211251595558283,0.08015836683873853,0.05156607823741657,0.942228362732496,0.1179366409778595,-0.613413393497467,-0.7809065580368042,0,0,0,-1,-1,3106.325342125,walking,2,2022-05-12T10:36:57.641+02:00,2022-05-11T22:15:20.957+02:00,633,0.8772626,0.6313528,2.236902,487.2902,0,0,2022-05-12T10:37:00.200+02:00,674037420.1998624,0,0.4399986,100.9019,1,0.95
2022-05-12T10:37:01.003+02:00,1652344619.99987,53.22896503848325,10.39844155312553,36.42404,0.17,0.73,-1,-1,4,10,-9999,3109.686605666667,0.1190032958984375,-0.609527587890625,-0.7927703857421875,3109.681608666667,0.05769797274423177,0.1500994899244787,0.6603160309108331,-0.009390134364366531,0.00904062669724226,-0.0106570040807128,0.002623759210109711,0.002206623554229736,-0.01418721675872803,XArbitraryZVertical,0.3210994372996792,0.08022524958930041,0.05150790062019297,0.9422346237019007,0.1181036978960037,-0.6133664846420288,-0.7809181213378906,0,0,0,-1,-1,3106.325342125,walking,2,2022-05-12T10:36:57.641+02:00,2022-05-11T22:15:20.957+02:00,633,0.8772626,0.6313528,2.236902,487.2902,0,0,2022-05-12T10:37:00.200+02:00,674037420.1998624,0,0.4399986,100.9019,1,0.95
2022-05-12T10:37:01.014+02:00,1652344619.99987,53.22896503848325,10.39844155312553,36.42404,0.17,0.73,-1,-1,4,10,-9999,3109.696600666667,0.125030517578125,-0.604400634765625,-0.7869415283203125,3109.691603666667,0.05756388781866829,0.1504049665272795,0.66022242939816,-0.01216871105134487,0.02441086247563362,-0.007948635146021843,0.0006523504853248596,0.003765344619750977,-0.01183193922042847,XArbitraryZVertical,0.3210527616430975,0.08034749672567107,0.05149087627905655,0.9422411213328378,0.1183508560061455,-0.6132925748825073,-0.7809388041496277,0,0,0,-1,-1,3106.325342125,walking,2,2022-05-12T10:36:57.641+02:00,2022-05-11T22:15:20.957+02:00,633,0.8772626,0.6313528,2.236902,487.2902,0,0,2022-05-12T10:37:00.200+02:00,674037420.1998624,0,0.4399986,100.9019,1,0.95
2022-05-12T10:37:01.023+02:00,1652344619.99987,53.22896503848325,10.39844155312553,36.42404,0.17,0.73,-1,-1,4,10,-9999,3109.706595666667,0.13018798828125,-0.6056365966796875,-0.7819976806640625,3109.701597666667,0.05745981297234429,0.1507455858653001,0.6600512077323476,-0.01107361912727356,0.02397064119577408,-0.007380050607025623,0.006397813558578491,0.008757114410400391,-0.005939662456512451,XArbitraryZVertical,0.3209674314584602,0.0804910434279525,0.05149123456840473,0.9422578106074444,0.1186326071619987,-0.613157331943512,-0.7810022234916687,0,0,0,-1,-1,3106.325342125,walking,2,2022-05-12T10:36:57.641+02:00,2022-05-11T22:15:20.957+02:00,633,0.8772626,0.6313528,2.236902,487.2902,0,0,2022-05-12T10:37:00.200+02:00,674037420.1998624,0,0.4399986,100.9019,1,0.95
2022-05-12T10:37:01.033+02:00,1652344619.99987,53.22896503848325,10.39844155312553,36.42404,0.17,0.73,-1,-1,4,10,-9999,3109.716590666667,0.1243133544921875,-0.6018829345703125,-0.7854766845703125,3109.711592666667,0.05731330847723556,0.1510821746495235,0.6598499877220796,-0.002754203975200653,0.01799683831632137,-0.01396305207163095,0.01127385348081589,0.007362186908721924,-0.0009137988090515137,XArbitraryZVertical,0.3208697336824652,0.0806258500639073,0.05146998271340449,0.9422806996831403,0.1189140453934669,-0.6129983067512512,-0.7810841798782349,0,0,0,-1,-1,3106.325342125,walking,2,2022-05-12T10:36:57.641+02:00,2022-05-11T22:15:20.957+02:00,633,0.8772626,0.6313528,2.236902,487.2902,0,0,2022-05-12T10:37:00.200+02:00,674037420.1998624,0,0.4399986,100.9019,1,0.95
2022-05-12T10:37:01.043+02:00,1652344619.99987,53.22896503848325,10.39844155312553,36.42404,0.17,0.73,-1,-1,4,10,-9999,3109.726585666667,0.116363525390625,-0.594482421875,-0.7808074951171875,3109.721587666667,0.05706517423768036,0.1514858004630892,0.6597184843212714,0.0107477568089962,0.02635996229946613,-0.01895967498421669,0.00507180392742157,0.01101189851760864,-0.004361152648925781,XArbitraryZVertical,0.3208072616043697,0.08077602874241582,0.05141371637091557,0.9422923249863676,0.11924147605896,-0.6128944158554077,-0.7811158895492554,0,0,0,-1,-1,3106.325342125,walking,2,2022-05-12T10:36:57.641+02:00,2022-05-11T22:15:20.957+02:00,633,0.8772626,0.6313528,2.236902,487.2902,0,0,2022-05-12T10:37:00.200+02:00,674037420.1998624,0,0.4399986,100.9019,1,0.95
2022-05-12T10:37:01.053+02:00,1652344619.99987,53.22896503848325,10.39844155312553,36.42404,0.17,0.73,-1,-1,4,10,-9999,3109.736580666667,0.1282196044921875,-0.6015472412109375,-0.772735595703125,3109.731582666667,0.05684579807462493,0.1519455705689695,0.6596550884069418,0.01170822512358427,0.04058923199772835,-0.0166027769446373,-0.003243044018745422,0.01836234331130981,0.0002914667129516602,XArbitraryZVertical,0.3207744117077957,0.08095738937534226,0.05138212573594114,0.9422896441327679,0.1196064800024033,-0.6128443479537964,-0.7810993790626526,0,0,0,-1,-1,3106.325342125,walking,2,2022-05-12T10:36:57.641+02:00,2022-05-11T22:15:20.957+02:00,633,0.8772626,0.6313528,2.236902,487.2902,0,0,2022-05-12T10:37:00.200+02:00,674037420.1998624,0,0.4399986,100.9019,1,0.95
2022-05-12T10:37:01.063+02:00,1652344619.99987,53.22896503848325,10.39844155312553,36.42404,0.17,0.73,-1,-1,4,10,-9999,3109.746575666667,0.146942138671875,-0.6088409423828125,-0.7653045654296875,3109.741577666667,0.05666657605211663,0.1524014465261427,0.6595997539616321,0.01112099830061197,0.02531600371003151,-0.008768822997808456,0.008251823484897614,0.01125377416610718,0.008342325687408447,XArbitraryZVertical,0.3207438563919498,0.08114336947214103,0.05136906460073464,0.9422847571175978,0.1199676990509033,-0.6128005981445312,-0.7810782790184021,0,0,0,-1,-1,3106.325342125,walking,2,2022-05-12T10:36:57.641+02:00,2022-05-11T22:15:20.957+02:00,633,0.8772626,0.6313528,2.236902,487.2902,0,0,2022-05-12T10:37:00.200+02:00,674037420.1998624,0,0.4399986,100.9019,1,0.95
2022-05-12T10:37:01.073+02:00,1652344619.99987,53.22896503848325,10.39844155312553,36.42404,0.17,0.73,-1,-1,4,10,-9999,3109.756570666667,0.145599365234375,-0.60693359375,-0.768707275390625,3109.751572666667,0.05652319293908115,0.1526420047284925,0.6595205498223053,0.007978268899023533,-0.0003708512522280216,-0.008802245371043682,0.02677908539772034,0.003897488117218018,0.01579242944717407,XArbitraryZVertical,0.3207061227987918,0.08123363164134512,0.05133759360603433,0.94229155338786,0.1201629713177681,-0.6127380132675171,-0.7810973525047302,0,0,0,-1,-1,3106.325342125,walking,2,2022-05-12T10:36:57.641+02:00,2022-05-11T22:15:20.957+02:00,633,0.8772626,0.6313528,2.236902,487.2902,0,0,2022-05-12T10:37:00.200+02:00,674037420.1998624,0,0.4399986,100.9019,1,0.95
2022-05-12T10:37:01.083+02:00,1652344619.99987,53.22896503848325,10.39844155312553,36.42404,0.17,0.73,-1,-1,4,10,-9999,3109.766565666667,0.1296539306640625,-0.606842041015625,-0.770599365234375,3109.761567666667,0.05642217998479605,0.1526228592862521,0.6594672731881839,-0.003907418809831142,-0.01354071497917175,-0.01059987954795361,0.02544631063938141,0.005762696266174316,0.0124242901802063,XArbitraryZVertical,0.3206855900770134,0.08120836582816307,0.05128525751634959,0.9423035361470002,0.120152972638607,-0.6126959323883057,-0.7811319231987,0,0,0,-1,-1,3106.325342125,walking,2,2022-05-12T10:36:57.641+02:00,2022-05-11T22:15:20.957+02:00,633,0.8772626,0.6313528,2.236902,487.2902,0,0,2022-05-12T10:37:00.200+02:00,674037420.1998624,0,0.4399986,100.9019,1,0.95
2022-05-12T10:37:01.093+02:00,1652344619.99987,53.22896503848325,10.39844155312553,36.42404,0.17,0.73,-1,-1,4,10,-9999,3109.776560666667,0.127105712890625,-0.605010986328125,-0.777496337890625,3109.771562666667,0.05639008327695557,0.1524926400511402,0.659286950792756,-0.01094861794263124,-0.01512889191508293,-0.003876862581819296,0.009585805237293243,0.005711793899536133,0.01065701246261597,XArbitraryZVertical,0.3206051564425497,0.08114169458091847,0.05124358421174866,0.9423388834515783,0.1200680360198021,-0.6125534176826477,-0.7812567353248596,0,0,0,-1,-1,3106.325342125,walking,2,2022-05-12T10:36:57.641+02:00,2022-05-11T22:15:20.957+02:00,633,0.8772626,0.6313528,2.236902,487.2902,0,0,2022-05-12T10:37:00.200+02:00,674037420.1998624,0,0.4399986,100.9019,1,0.95
2022-05-12T10:37:01.103+02:00,1652344619.99987,53.22896503848325,10.39844155312553,36.42404,0.17,0.73,-1,-1,4,10,-9999,3109.786554666667,0.1279144287109375,-0.5873565673828125,-0.7749786376953125,3109.781557666667,0.05628422185305525,0.1523819013442569,0.6591290158669992,-0.004311753436923027,-0.02744521200656891,-0.01117818523198366,0.00710943341255188,0.007417976856231689,0.003868937492370605,XArbitraryZVertical,0.3205377763416738,0.0810724012772432,0.05117099088851243,0.9423716690793362,0.1199961975216866,-0.6124285459518433,-0.7813655734062195,0,0,0,-1,-1,3106.325342125,walking,2,2022-05-12T10:36:57.641+02:00,2022-05-11T22:15:20.957+02:00,633,0.8772626,0.6313528,2.236902,487.2902,0,0,2022-05-12T10:37:00.200+02:00,674037420.1998624,0,0.4399986,100.9019,1,0.95
2022-05-12T10:37:01.113+02:00,1652344619.99987,53.22896503848325,10.39844155312553,36.42404,0.17,0.73,-1,-1,4,10,-9999,3109.796549666667,0.124542236328125,-0.5960540771484375,-0.7746734619140625,3109.791552666667,0.05611187793087349,0.1522624520176695,0.6590418726352655,-0.001382809597998857,-0.02828863635659218,-0.008124072104692459,0.008003376424312592,0.02500355243682861,0.00645369291305542,XArbitraryZVertical,0.3205066961042572,0.08098841696860129,0.05106790194305396,0.9423950384833495,0.1199109554290771,-0.6123596429824829,-0.7814326882362366,0,0,0,-1,-1,3106.325342125,walking,2,2022-05-12T10:36:57.641+02:00,2022-05-11T22:15:20.957+02:00,633,0.8772626,0.6313528,2.236902,487.2902,0,0,2022-05-12T10:37:00.200+02:00,674037420.1998624,0,0.4399986,100.9019,1,0.95
2022-05-12T10:37:01.123+02:00,1652344619.99987,53.22896503848325,10.39844155312553,36.42404,0.17,0.73,-1,-1,4,10,-9999,3109.806544666667,0.121673583984375,-0.6070709228515625,-0.7757568359375,3109.801547666667,0.05598075165453775,0.152050528891069,0.6589250411101398,-0.006516051944345236,-0.03210840746760368,-0.01005086861550808,0.004785962402820587,0.01621365547180176,0.006855010986328125,XArbitraryZVertical,0.3204622361998787,0.08086742505331568,0.05096847156815442,0.9424260371187398,0.1197561919689178,-0.6122673153877258,-0.7815288305282593,0,0,0,-1,-1,3106.325342125,walking,2,2022-05-12T10:36:57.641+02:00,2022-05-11T22:15:20.957+02:00,633,0.8772626,0.6313528,2.236902,487.2902,0,0,2022-05-12T10:37:00.200+02:00,674037420.1998624,0,0.4399986,100.9019,1,0.95
2022-05-12T10:37:01.133+02:00,1652344619.99987,53.22896503848325,10.39844155312553,36.42404,0.17,0.73,-1,-1,4,10,-9999,3109.816539666667,0.1208038330078125,-0.609893798828125,-0.7738800048828125,3109.811542666667,0.05591709134906021,0.1517477694147724,0.6586756241670533,-0.02270001545548439,-0.03117962926626205,-0.007456017658114433,0.002130851149559021,0.004999518394470215,0.005958795547485352,XArbitraryZVertical,0.3203548351484547,0.08071433335069747,0.05088215148607052,0.9424802809858138,0.1195426508784294,-0.6120700836181641,-0.7817159295082092,0,0,0,-1,-1,3106.325342125,walking,2,2022-05-12T10:36:57.641+02:00,2022-05-11T22:15:20.957+02:00,633,0.8772626,0.6313528,2.236902,487.2902,0,0,2022-05-12T10:37:00.200+02:00,674037420.1998624,0,0.4399986,100.9019,1,0.95
2022-05-12T10:37:01.143+02:00,1652344619.99987,53.22896503848325,10.39844155312553,36.42404,0.17,0.73,-1,-1,4,10,-9999,3109.826534666667,0.127166748046875,-0.6100006103515625,-0.773895263671875,3109.821537666667,0.05583190970879801,0.1515579788276794,0.6583608250697877,-0.03276543319225311,-0.02933619171380997,-0.002863130532205105,0.001380376517772675,0.001927733421325684,0.008048713207244873,XArbitraryZVertical,0.320214530207079,0.08061095797243642,0.05080175488035,0.9425411407110587,0.1194233670830727,-0.6118211150169373,-0.781929075717926,0,0,0,-1,-1,3106.325342125,walking,2,2022-05-12T10:36:57.641+02:00,2022-05-11T22:15:20.957+02:00,633,0.8772626,0.6313528,2.236902,487.2902,0,0,2022-05-12T10:37:00.200+02:00,674037420.1998624,0,0.4399986,100.9019,1,0.95
2022-05-12T10:37:01.153+02:00,1652344619.99987,53.22896503848325,10.39844155312553,36.42404,0.17,0.73,-1,-1,4,10,-9999,3109.836529666667,0.131927490234375,-0.59674072265625,-0.7718505859375,3109.831532666667,0.05565191972755521,0.1515126712496172,0.6580368323408023,-0.03549650311470032,-0.03422388806939125,-0.01004700735211372,0.007748804986476898,0.001564562320709229,0.008234739303588867,XArbitraryZVertical,0.320070020882685,0.08056049643506695,0.05069953169745866,0.9426000344180947,0.1194178536534309,-0.6115647554397583,-0.7821303606033325,0,0,0,-1,-1,3106.325342125,walking,2,2022-05-12T10:36:57.641+02:00,2022-05-11T22:15:20.957+02:00,633,0.8772626,0.6313528,2.236902,487.2902,0,0,2022-05-12T10:37:00.200+02:00,674037420.1998624,0,0.4399986,100.9019,1,0.95
2022-05-12T10:37:01.163+02:00,1652344619.99987,53.22896503848325,10.39844155312553,36.42404,0.17,0.73,-1,-1,4,10,-9999,3109.846524666667,0.1341094970703125,-0.5900115966796875,-0.7718658447265625,3109.841527666667,0.05542615957860888,0.1514359268982592,0.6576735126057416,-0.0376022644340992,-0.04154198989272118,-0.0145898275077343,0.01253605633974075,0.01453703641891479,0.01050823926925659,XArbitraryZVertical,0.319909568260154,0.08048788363081041,0.05056946979748373,0.9426676911895512,0.1193913370370865,-0.6112772822380066,-0.7823591232299805,0,0,0,-1,-1,3106.325342125,walking,2,2022-05-12T10:36:57.641+02:00,2022-05-11T22:15:20.957+02:00,633,0.8772626,0.6313528,2.236902,487.2902,0,0,2022-05-12T10:37:00.200+02:00,674037420.1998624,0,0.4399986,100.9019,1,0.95
2022-05-12T10:37:01.173+02:00,1652344619.99987,53.22896503848325,10.39844155312553,36.42404,0.17,0.73,-1,-1,4,10,-9999,3109.856519666667,0.1345672607421875,-0.59576416015625,-0.77703857421875,3109.851522666667,0.0552581679242146,0.1511774514908974,0.6573257231371336,-0.03796914964914322,-0.04540177807211876,-0.0139338243752718,0.01488828659057617,0.02099084854125977,0.01073390245437622,XArbitraryZVertical,0.3197586854422986,0.08033888787732338,0.05043806695638863,0.9427386262694555,0.1192211285233498,-0.6110020279884338,-0.7826001048088074,0,0,0,-1,-1,3106.325342125,walking,2,2022-05-12T10:36:57.641+02:00,2022-05-11T22:15:20.957+02:00,633,0.8772626,0.6313528,2.236902,487.2902,0,0,2022-05-12T10:37:00.200+02:00,674037420.1998624,0,0.4399986,100.9019,1,0.95
2022-05-12T10:37:01.183+02:00,1652344619.99987,53.22896503848325,10.39844155312553,36.42404,0.17,0.73,-1,-1,4,10,-9999,3109.866514291667,0.1304779052734375,-0.5988006591796875,-0.7858428955078125,3109.861517666667,0.05508573120621525,0.1508689773228659,0.6568853209713851,-0.04214205592870712,-0.04497300833463669,-0.01790140196681023,0.01554703712463379,0.01488953828811646,0.00586390495300293,XArbitraryZVertical,0.3195654545573413,0.08016553436182133,0.05029370828805084,0.9428266684214166,0.1190201416611671,-0.610653281211853,-0.7829028367996216,0,0,0,-1,-1,3106.325342125,walking,2,2022-05-12T10:36:57.641+02:00,2022-05-11T22:15:20.957+02:00,633,0.8772626,0.6313528,2.236902,487.2902,0,0,2022-05-12T10:37:00.200+02:00,674037420.1998624,0,0.4399986,100.9019,1,0.95
2022-05-12T10:37:01.193+02:00,1652344619.99987,53.22896503848325,10.39844155312553,36.42404,0.17,0.73,-1,-1,4,10,-9999,3109.876509291667,0.12799072265625,-0.605072021484375,-0.797882080078125,3109.871511291667,0.05496800524646073,0.1505717128727622,0.6563628810327786,-0.03568974882364273,-0.03764532133936882,-0.004833802580833435,0.01164256781339645,0.01143920421600342,-0.002589762210845947,XArbitraryZVertical,0.3193309766542268,0.08000614148144573,0.05017442502537087,0.9429260343756278,0.1188352480530739,-0.6102395057678223,-0.7832534909248352,0,0,0,-1,-1,3106.325342125,walking,2,2022-05-12T10:36:57.641+02:00,2022-05-11T22:15:20.957+02:00,633,0.8772626,0.6313528,2.236902,487.2902,0,0,2022-05-12T10:37:00.200+02:00,674037420.1998624,0,0.4399986,100.9019,1,0.95
2022-05-12T10:37:01.203+02:00,1652344619.99987,53.22896503848325,10.39844155312553,36.42404,0.17,0.73,-1,-1,4,10,-9999,3109.886504291667,0.1240081787109375,-0.6006622314453125,-0.80377197265625,3109.881506291667,0.05498021792463785,0.1502194777044266,0.655993478360659,-0.02944729849696159,-0.03795717656612396,0.00190692488104105,0.009397551417350769,0.004875242710113525,-0.01436430215835571,XArbitraryZVertical,0.3191648953030902,0.07984169259466467,0.05011245426142887,0.9429995294865858,0.1185930818319321,-0.6099468469619751,-0.7835181355476379,0,0,0,-1,-1,3106.325342125,walking,2,2022-05-12T10:36:57.641+02:00,2022-05-11T22:15:20.957+02:00,633,0.8772626,0.6313528,2.236902,487.2902,0,0,2022-05-12T10:37:00.200+02:00,674037420.1998624,0,0.4399986,100.9019,1,0.95
2022-05-12T10:37:01.217+02:00,1652344619.99987,53.22896503848325,10.39844155312553,36.42404,0.17,0.73,-1,-1,4,10,-9999,3109.896499291667,0.119415283203125,-0.6040802001953125,-0.8025054931640625,3109.891501291667,0.05512152204908388,0.149803859436719,0.6557162533757546,-0.03440427407622337,-0.03259736299514771,0.01320918090641499,0.005715429782867432,0.00906527042388916,-0.02003782987594604,XArbitraryZVertical,0.3190388090641161,0.07966802161267723,0.05010417544222272,0.9430572270855402,0.1182926520705223,-0.6097270846366882,-0.7837345004081726,0,0,0,-1,-1,3106.325342125,walking,2,2022-05-12T10:36:57.641+02:00,2022-05-11T22:15:20.957+02:00,633,0.8772626,0.6313528,2.236902,487.2902,0,0,2022-05-12T10:37:00.200+02:00,674037420.1998624,0,0.4399986,100.9019,1,0.95
2022-05-12T10:37:01.228+02:00,1652344619.99987,53.22896503848325,10.39844155312553,36.42404,0.17,0.73,-1,-1,4,10,-9999,3109.906494291667,0.119293212890625,-0.61566162109375,-0.799774169921875,3109.901496291667,0.05537916060781335,0.1493750536752634,0.6554265115338788,-0.0407005213201046,-0.02887745946645737,0.01931181363761425,0.001432329416275024,0.00541764497756958,-0.01854604482650757,XArbitraryZVertical,0.3189025000994393,0.07950662131703148,0.05014831889128905,0.9431145648177469,0.1179828569293022,-0.6094974279403687,-0.7839598059654236,0,0,0,-1,-1,3106.325342125,walking,2,2022-05-12T10:36:57.641+02:00,2022-05-11T22:15:20.957+02:00,633,0.8772626,0.6313528,2.236902,487.2902,0,0,2022-05-12T10:37:00.200+02:00,674037420.1998624,0,0.4399986,100.9019,1,0.95
2022-05-12T10:37:01.233+02:00,1652344619.99987,53.22896503848325,10.39844155312553,36.42404,0.17,0.73,-1,-1,4,10,-9999,3109.916489291667,0.119140625,-0.61553955078125,-0.7943878173828125,3109.911491291667,0.05564086907574229,0.1490084741402309,0.6550865936162595,-0.04335955530405045,-0.02702869474887848,0.02205939590930939,0.001566901803016663,-0.006433308124542236,-0.01556670665740967,XArbitraryZVertical,0.3187407684750441,0.07937508931849586,0.05020281887325204,0.9431774453356135,0.1177262142300606,-0.6092278957366943,-0.784207820892334,0,0,0,-1,-1,3106.325342125,walking,2,2022-05-12T10:36:57.641+02:00,2022-05-11T22:15:20.957+02:00,633,0.8772626,0.6313528,2.236902,487.2902,0,0,2022-05-12T10:37:00.200+02:00,674037420.1998624,0,0.4399986,100.9019,1,0.95
2022-05-12T10:37:01.243+02:00,1652344619.99987,53.22896503848325,10.39844155312553,36.42404,0.17,0.73,-1,-1,4,10,-9999,3109.926484291667,0.120574951171875,-0.618927001953125,-0.797332763671875,3109.921486291667,0.05595558082807259,0.1486519547902243,0.6547046661815099,-0.0356007032096386,-0.02455515041947365,0.02860491350293159,0.00165945291519165,-0.006614148616790771,-0.009908318519592285,XArbitraryZVertical,0.3185568335579101,0.07925661724811019,0.05028269574441982,0.9432453911603504,0.1174810826778412,-0.6089249849319458,-0.7844798564910889,0,0,0,-1,-1,3106.325342125,walking,2,2022-05-12T10:36:57.641+02:00,2022-05-11T22:15:20.957+02:00,633,0.8772626,0.6313528,2.236902,487.2902,0,0,2022-05-12T10:37:00.200+02:00,674037420.1998624,0,0.4399986,100.9019,1,0.95
2022-05-12T10:37:01.253+02:00,1652344619.99987,53.22896503848325,10.39844155312553,36.42404,0.17,0.73,-1,-1,4,10,-9999,3109.936479291667,0.1187286376953125,-0.615814208984375,-0.7991485595703125,3109.931481291667,0.05626895228273349,0.1483029561036944,0.6544123519890009,-0.0199708417057991,-0.02487359754741192,0.02986052632331848,0.00334128737449646,-0.01023346185684204,-0.01263636350631714,XArbitraryZVertical,0.3184151879978722,0.07914154444971995,0.0503659843437618,0.9432983164809815,0.117233581840992,-0.6086931228637695,-0.7846967577934265,0,0,0,-1,-1,3106.325342125,walking,2,2022-05-12T10:36:57.641+02:00,2022-05-11T22:15:20.957+02:00,633,0.8772626,0.6313528,2.236902,487.2902,0,0,2022-05-12T10:37:00.200+02:00,674037420.1998624,0,0.4399986,100.9019,1,0.95
2022-05-12T10:37:01.263+02:00,1652344619.99987,53.22896503848325,10.39844155312553,36.42404,0.17,0.73,-1,-1,4,10,-9999,3109.946474291667,0.1260223388671875,-0.6149139404296875,-0.797607421875,3109.941476291667,0.05654877925720494,0.1480337165678594,0.6543075417030075,-0.0008703833445906639,-0.01830570958554745,0.02946291863918304,0.00169682502746582,-0.007203876972198486,-0.01435750722885132,XArbitraryZVertical,0.3183613983128636,0.07905895248701623,0.05045190533857401,0.9433188167897273,0.1170317158102989,-0.6086099743843079,-0.7847914099693298,0,0,0,-1,-1,3106.325342125,walking,2,2022-05-12T10:36:57.641+02:00,2022-05-11T22:15:20.957+02:00,633,0.8772626,0.6313528,2.236902,487.2902,0,0,2022-05-12T10:37:00.200+02:00,674037420.1998624,0,0.4399986,100.9019,1,0.95
2022-05-12T10:37:01.273+02:00,1652344619.99987,53.22896503848325,10.39844155312553,36.42404,0.17,0.73,-1,-1,4,10,-9999,3109.956468291667,0.138275146484375,-0.614044189453125,-0.7967071533203125,3109.951471291667,0.05683333610597176,0.1476996281508363,0.6543511607934815,0.01350559294223785,-0.02912114001810551,0.02671140804886818,0.009256646037101746,-0.006268978118896484,-0.01280355453491211,XArbitraryZVertical,0.3183791950812541,0.07894674006984177,0.05053426405306099,0.9433177999908416,0.1167656108736992,-0.6086445450782776,-0.7848042249679565,0,0,0,-1,-1,3106.325342125,walking,2,2022-05-12T10:36:57.641+02:00,2022-05-11T22:15:20.957+02:00,633,0.8772626,0.6313528,2.236902,487.2902,0,0,2022-05-12T10:37:00.200+02:00,674037420.1998624,0,0.4399986,100.9019,1,0.95
2022-05-12T10:37:01.283+02:00,1652344619.99987,53.22896503848325,10.39844155312553,36.42404,0.17,0.73,-1,-1,4,10,-9999,3109.966463291667,0.1383209228515625,-0.62335205078125,-0.79791259765625,3109.961466291667,0.05704606391680826,0.1472327240934446,0.654455528264097,0.01866653375327587,-0.04565537720918655,0.02010969631373882,0.02188520878553391,-0.005316436290740967,-0.01191169023513794,XArbitraryZVertical,0.3184318935338631,0.07876055230727838,0.050563425527245,0.9433140436515052,0.1163898557424545,-0.6087273359298706,-0.7847958207130432,0,0,0,-1,-1,3106.325342125,walking,2,2022-05-12T10:36:57.641+02:00,2022-05-11T22:15:20.957+02:00,633,0.8772626,0.6313528,2.236902,487.2902,0,0,2022-05-12T10:37:00.200+02:00,674037420.1998624,0,0.4399986,100.9019,1,0.95
2022-05-12T10:37:01.293+02:00,1652344619.99987,53.22896503848325,10.39844155312553,36.42404,0.17,0.73,-1,-1,4,10,-9999,3109.976458291667,0.136932373046875,-0.6288604736328125,-0.7993011474609375,3109.971461291667,0.05722683506063717,0.1466896664170881,0.6544972555635261,0.00875477958470583,-0.04673075675964355,0.0221126601099968,0.02236089110374451,-0.01459115743637085,-0.01307916641235352,XArbitraryZVertical,0.3184582186820167,0.0785332660042922,0.05056347818110372,0.9433241168210004,0.1159599348902702,-0.6087604761123657,-0.7848337888717651,0,0,0,-1,-1,3106.325342125,walking,2,2022-05-12T10:36:57.641+02:00,2022-05-11T22:15:20.957+02:00,633,0.8772626,0.6313528,2.236902,487.2902,0,0,2022-05-12T10:37:00.200+02:00,674037420.1998624,0,0.4399986,100.9019,1,0.95
2022-05-12T10:37:01.303+02:00,1652344619.99987,53.22896503848325,10.39844155312553,36.42404,0.17,0.73,-1,-1,4,10,-9999,3109.986453291667,0.13848876953125,-0.62530517578125,-0.805145263671875,3109.981456291667,0.0575075483848605,0.1460148253971198,0.6544404560739414,-0.006891025695949793,-0.05376709997653961,0.02485464885830879,0.02149698138237,-0.02014464139938354,-0.01435542106628418,XArbitraryZVertical,0.3184374581311064,0.07825956057724773,0.05058672901423305,0.9433526068185261,0.1154353022575378,-0.6087154150009155,-0.7849460244178772,0,0,0,-1,-1,3106.325342125,walking,2,2022-05-12T10:36:57.641+02:00,2022-05-11T22:15:20.957+02:00,633,0.8772626,0.6313528,2.236902,487.2902,0,0,2022-05-12T10:37:00.200+02:00,674037420.1998624,0,0.4399986,100.9019,1,0.95
2022-05-12T10:37:01.313+02:00,1652344619.99987,53.22896503848325,10.39844155312553,36.42404,0.17,0.73,-1,-1,4,10,-9999,3109.996448291667,0.1352081298828125,-0.6139068603515625,-0.8065185546875,3109.991451291667,0.05784905766556241,0.1452408932778804,0.6542929122171953,-0.02215157076716423,-0.05686082690954208,0.02619468793272972,0.02364791184663773,-0.01670640707015991,-0.02002155780792236,XArbitraryZVertical,0.318373992434033,0.07794858552289041,0.05062019904858911,0.9433980240838897,0.1148407757282257,-0.6085983514785767,-0.7851240634918213,0,0,0,-1,-1,3106.325342125,walking,2,2022-05-12T10:36:57.641+02:00,2022-05-11T22:15:20.957+02:00,633,0.8772626,0.6313528,2.236902,487.2902,0,0,2022-05-12T10:37:00.200+02:00,674037420.1998624,0,0.4399986,100.9019,1,0.95
2022-05-12T10:37:01.323+02:00,1652344619.99987,53.22896503848325,10.39844155312553,36.42404,0.17,0.73,-1,-1,4,10,-9999,3110.006443291667,0.1290740966796875,-0.6127471923828125,-0.813812255859375,3110.001446291667,0.05817291494667425,0.1445090111151522,0.6541029216681118,-0.02473643608391285,-0.05199949070811272,0.02466842904686928,0.02092526108026505,-0.005458831787109375,-0.02119660377502441,XArbitraryZVertical,0.3182901710274594,0.07765450006577622,0.05065084926507493,0.9434489250928014,0.1142827719449997,-0.6084475517272949,-0.7853223085403442,0,0,0,-1,-1,3106.325342125,walking,2,2022-05-12T10:36:57.641+02:00,2022-05-11T22:15:20.957+02:00,633,0.8772626,0.6313528,2.236902,487.2902,0,0,2022-05-12T10:37:00.200+02:00,674037420.1998624,0,0.4399986,100.9019,1,0.95
2022-05-12T10:37:01.333+02:00,1652344619.99987,53.22896503848325,10.39844155312553,36.42404,0.17,0.73,-1,-1,4,10,-9999,3110.016438291667,0.128509521484375,-0.6047821044921875,-0.8194122314453125,3110.011441291667,0.05849898279104767,0.1438241294205059,0.6539285885793431,-0.01835546642541885,-0.05034986138343811,0.02456849440932274,0.01531390845775604,-0.004437565803527832,-0.02830731868743896,XArbitraryZVertical,0.318212547544321,0.07738292308161102,0.0506905629114511,0.9434952361610109,0.1137600913643837,-0.6083092093467712,-0.7855052947998047,0,0,0,-1,-1,3106.325342125,walking,2,2022-05-12T10:36:57.641+02:00,2022-05-11T22:15:20.957+02:00,633,0.8772626,0.6313528,2.236902,487.2902,0,0,2022-05-12T10:37:00.200+02:00,674037420.1998624,0,0.4399986,100.9019,1,0.95
2022-05-12T10:37:01.343+02:00,1652344619.99987,53.22896503848325,10.39844155312553,36.42404,0.17,0.73,-1,-1,4,10,-9999,3110.026433291667,0.1214447021484375,-0.6032562255859375,-0.814239501953125,3110.021436291667,0.05881557162232198,0.1431962056931476,0.6538125484998307,-0.009990477934479713,-0.04005993902683258,0.02004058659076691,0.01523252576589584,0.003435373306274414,-0.03376615047454834,XArbitraryZVertical,0.3181614172443593,0.07713679096521928,0.05073662396203565,0.9435301624808049,0.113276906311512,-0.6082171201705933,-0.7856464385986328,0,0,0,-1,-1,3106.325342125,walking,2,2022-05-12T10:36:57.641+02:00,2022-05-11T22:15:20.957+02:00,633,0.8772626,0.6313528,2.236902,487.2902,0,0,2022-05-12T10:37:00.200+02:00,674037420.1998624,0,0.4399986,100.9019,1,0.95
2022-05-12T10:37:01.353+02:00,1652344619.99987,53.22896503848325,10.39844155312553,36.42404,0.17,0.73,-1,-1,4,10,-9999,3110.036428291667,0.1141510009765625,-0.6021575927734375,-0.805694580078125,3110.031430291667,0.05905112345785364,0.1427453969412258,0.6537419329803164,-0.00835353322327137,-0.02507240325212479,0.0178492721170187,0.008515797555446625,0.004905223846435547,-0.02849996089935303,XArbitraryZVertical,0.3181304004988085,0.07696140297272999,0.05077397847328192,0.943552989441214,0.1129288300871849,-0.6081610321998596,-0.7857399582862854,0,0,0,-1,-1,3106.325342125,walking,2,2022-05-12T10:36:57.641+02:00,2022-05-11T22:15:20.957+02:00,633,0.8772626,0.6313528,2.236902,487.2902,0,0,2022-05-12T10:37:00.200+02:00,674037420.1998624,0,0.4399986,100.9019,1,0.95
2022-05-12T10:37:01.363+02:00,1652344619.99987,53.22896503848325,10.39844155312553,36.42404,0.17,0.73,-1,-1,4,10,-9999,3110.046423291667,0.112213134765625,-0.6005401611328125,-0.8015594482421875,3110.041425291667,0.05921711676029556,0.1425423708801224,0.6537016864899645,-0.001669531688094139,-0.005309883039444685,0.01794887520372868,0.001378126442432404,0.005971968173980713,-0.01990783214569092,XArbitraryZVertical,0.3181101974802519,0.07689193290530134,0.05081884259042106,0.9435629414904153,0.1127727702260017,-0.60812908411026,-0.785787045955658,0,0,0,-1,-1,3106.325342125,walking,2,2022-05-12T10:36:57.641+02:00,2022-05-11T22:15:20.957+02:00,633,0.8772626,0.6313528,2.236902,487.2902,0,0,2022-05-12T10:37:00.200+02:00,674037420.1998624,0,0.4399986,100.9019,1,0.95
2022-05-12T10:37:01.373+02:00,1652344619.99987,53.22896503848325,10.39844155312553,36.42404,0.17,0.73,-1,-1,4,10,-9999,3110.056418291667,0.11236572265625,-0.599212646484375,-0.801666259765625,3110.051420291667,0.05936456421809459,0.1425179448687071,0.6537356859148268,0.003598034381866455,0.006750441621989012,0.01541281212121248,-0.0005376115441322327,0.007616400718688965,-0.01579040288925171,XArbitraryZVertical,0.3181211940214376,0.07690394373175964,0.05088549886011508,0.9435547132089521,0.1127506494522095,-0.6081560850143433,-0.7857694029808044,0,0,0,-1,-1,3106.325342125,walking,2,2022-05-12T10:36:57.641+02:00,2022-05-11T22:15:20.957+02:00,633,0.8772626,0.6313528,2.236902,487.2902,0,0,2022-05-12T10:37:00.200+02:00,674037420.1998624,0,0.4399986,100.9019,1,0.95
2022-05-12T10:37:01.383+02:00,1652344619.99987,53.22896503848325,10.39844155312553,36.42404,0.17,0.73,-1,-1,4,10,-9999,3110.066413291667,0.1149444580078125,-0.597564697265625,-0.7989349365234375,3110.061415291667,0.05948257904474395,0.1426739249835564,0.6538508498255448,0.01219392009079456,0.02850606851279736,0.01456379611045122,-0.0004976242780685425,0.009035289287567139,-0.0159841775894165,XArbitraryZVertical,0.3181670856469435,0.07699660114346023,0.05096932042381587,0.943527172306962,0.1128632500767708,-0.6082475185394287,-0.7856824398040771,0,0,0,-1,-1,3106.325342125,walking,2,2022-05-12T10:36:57.641+02:00,2022-05-11T22:15:20.957+02:00,633,0.8772626,0.6313528,2.236902,487.2902,0,0,2022-05-12T10:37:00.200+02:00,674037420.1998624,0,0.4399986,100.9019,1,0.95
2022-05-12T10:37:01.393+02:00,1652344619.99987,53.22896503848325,10.39844155312553,36.42404,0.17,0.73,-1,-1,4,10,-9999,3110.076408291667,0.1203460693359375,-0.59637451171875,-0.7943572998046875,3110.071410291667,0.05956485680531991,0.1430054635479396,0.6540103433884845,0.01661430113017559,0.03333371877670288,0.01002377271652222,0.001834467053413391,0.01080977916717529,-0.0133863091468811,XArbitraryZVertical,0.3182307957686033,0.07716650694471765,0.05106550565103884,0.9434866370766803,0.1131099015474319,-0.6083741188049316,-0.785548985004425,0,0,0,-1,-1,3106.325342125,walking,2,2022-05-12T10:36:57.641+02:00,2022-05-11T22:15:20.957+02:00,633,0.8772626,0.6313528,2.236902,487.2902,0,0,2022-05-12T10:37:00.200+02:00,674037420.1998624,0,0.4399986,100.9019,1,0.95
2022-05-12T10:37:01.403+02:00,1652344619.99987,53.22896503848325,10.39844155312553,36.42404,0.17,0.73,-1,-1,4,10,-9999,3110.086403291667,0.123077392578125,-0.59228515625,-0.7883758544921875,3110.081405291667,0.05955192306951407,0.1434142992212368,0.6541949820353746,0.02266979590058327,0.03735215961933136,0.004089185036718845,0.006930992007255554,0.01214653253555298,-0.008966147899627686,XArbitraryZVertical,0.3183080650403173,0.07735778158201016,0.05112983199032453,0.9434414540493844,0.113415002822876,-0.6085206270217896,-0.7853915095329285,0,0,0,-1,-1,3106.325342125,walking,2,2022-05-12T10:36:57.641+02:00,2022-05-11T22:15:20.957+02:00,633,0.8772626,0.6313528,2.236902,487.2902,0,0,2022-05-12T10:37:00.200+02:00,674037420.1998624,0,0.4399986,100.9019,1,0.95
2022-05-12T10:37:01.413+02:00,1652344619.99987,53.22896503848325,10.39844155312553,36.42404,0.17,0.73,-1,-1,4,10,-9999,3110.096398291667,0.1240692138671875,-0.5955963134765625,-0.7843170166015625,3110.091400291667,0.05946256567592473,0.1438628501620006,0.6543453886997465,0.01896960102021694,0.03514040261507034,-0.00352772232145071,0.009323149919509888,0.01635521650314331,-0.003126323223114014,XArbitraryZVertical,0.3183711481303643,0.07755553760980517,0.05116348080310748,0.943401994373829,0.1137541458010674,-0.6086399555206299,-0.7852498888969421,0,0,0,-1,-1,3106.325342125,walking,2,2022-05-12T10:36:57.641+02:00,2022-05-11T22:15:20.957+02:00,633,0.8772626,0.6313528,2.236902,487.2902,0,0,2022-05-12T10:37:00.200+02:00,674037420.1998624,0,0.4399986,100.9019,1,0.95
2022-05-12T10:37:01.423+02:00,1652344619.99987,53.22896503848325,10.39844155312553,36.42404,0.17,0.73,-1,-1,4,10,-9999,3110.106393291667,0.122283935546875,-0.6064453125,-0.7845458984375,3110.101395291667,0.05931520413178357,0.1443254220356269,0.6543404186817137,0.002811936195939779,0.03236405551433563,-0.01010040380060673,0.009951323270797729,0.01304012537002563,0.0008828639984130859,XArbitraryZVertical,0.3183626759646507,0.07775025818637678,0.05116745505976796,0.9433886427790306,0.1141178086400032,-0.6086360216140747,-0.7852001786231995,0,0,0,-1,-1,3106.325342125,walking,2,2022-05-12T10:36:57.641+02:00,2022-05-11T22:15:20.957+02:00,633,0.8772626,0.6313528,2.236902,487.2902,0,0,2022-05-12T10:37:00.200+02:00,674037420.1998624,0,0.4399986,100.9019,1,0.95
2022-05-12T10:37:01.433+02:00,1652344619.99987,53.22896503848325,10.39844155312553,36.42404,0.17,0.73,-1,-1,4,10,-9999,3110.116388291667,0.11639404296875,-0.6049041748046875,-0.7809600830078125,3110.111390291667,0.05911416300049982,0.1447997411694374,0.6541386014662386,-0.01659794896841049,0.03527416288852692,-0.01667980849742889,0.007775895297527313,0.00203096866607666,0.000721275806427002,XArbitraryZVertical,0.3182630386300701,0.07794151779131191,0.05114217599108919,0.9434078365431793,0.1145079508423805,-0.6084758639335632,-0.7852675318717957,0,0,0,-1,-1,3106.325342125,walking,2,2022-05-12T10:36:57.641+02:00,2022-05-11T22:15:20.957+02:00,633,0.8772626,0.6313528,2.236902,487.2902,0,0,2022-05-12T10:37:00.200+02:00,674037420.1998624,0,0.4399986,100.9019,1,0.95
2022-05-12T10:37:01.443+02:00,1652344619.99987,53.22896503848325,10.39844155312553,36.42404,0.17,0.73,-1,-1,4,10,-9999,3110.126382291667,0.1177215576171875,-0.5985260009765625,-0.78076171875,3110.121385291667,0.05890742710791705,0.1453135659722286,0.6537509575652602,-0.03114440105855465,0.05163103342056274,-0.02125751599669456,0.001448377966880798,0.003264427185058594,0.004481494426727295,XArbitraryZVertical,0.3180748280400509,0.07815011111539052,0.05111492744847744,0.9434555809933114,0.114945575594902,-0.6081682443618774,-0.7854419350624084,0,0,0,-1,-1,3106.325342125,walking,2,2022-05-12T10:36:57.641+02:00,2022-05-11T22:15:20.957+02:00,633,0.8772626,0.6313528,2.236902,487.2902,0,0,2022-05-12T10:37:00.200+02:00,674037420.1998624,0,0.4399986,100.9019,1,0.95
2022-05-12T10:37:01.453+02:00,1652344619.99987,53.22896503848325,10.39844155312553,36.42404,0.17,0.73,-1,-1,4,10,-9999,3110.136377291667,0.125274658203125,-0.5917816162109375,-0.774749755859375,3110.131380291667,0.05880454272623035,0.1458591128062957,0.6533257631148787,-0.03211672231554985,0.04978519305586815,-0.01678713411092758,0.002309843897819519,0.009305059909820557,0.004872798919677734,XArbitraryZVertical,0.3178640259403863,0.07839015984408569,0.05114048869922116,0.9435053497442507,0.1154116243124008,-0.6078306436538696,-0.7856348752975464,0,0,0,-1,-1,3106.325342125,walking,2,2022-05-12T10:36:57.641+02:00,2022-05-11T22:15:20.957+02:00,633,0.8772626,0.6313528,2.236902,487.2902,0,0,2022-05-12T10:37:00.200+02:00,674037420.1998624,0,0.4399986,100.9019,1,0.95
2022-05-12T10:37:01.463+02:00,1652344619.99987,53.22896503848325,10.39844155312553,36.42404,0.17,0.73,-1,-1,4,10,-9999,3110.146372291667,0.12738037109375,-0.594879150390625,-0.7694549560546875,3110.141375291667,0.05867105357510829,0.1463945073308754,0.6528828836584859,-0.03361821174621582,0.04555875808000565,-0.01449628360569477,0.009403087198734283,0.0156976580619812,0.01108908653259277,XArbitraryZVertical,0.3176463399153782,0.07862057467241,0.0511493533653993,0.9435589935068606,0.1158714890480042,-0.60747891664505,-0.7858392000198364,0,0,0,-1,-1,3106.325342125,walking,2,2022-05-12T10:36:57.641+02:00,2022-05-11T22:15:20.957+02:00,633,0.8772626,0.6313528,2.236902,487.2902,0,0,2022-05-12T10:37:00.200+02:00,674037420.1998624,0,0.4399986,100.9019,1,0.95
2022-05-12T10:37:01.473+02:00,1652344619.99987,53.22896503848325,10.39844155312553,36.42404,0.17,0.73,-1,-1,4,10,-9999,3110.156367291667,0.1253662109375,-0.6058807373046875,-0.765289306640625,3110.151370291667,0.0586039729668326,0.1468499548866898,0.6524144076258416,-0.04076636582612991,0.03858213871717453,-0.01270271092653275,0.01110927015542984,0.01222801208496094,0.0166124701499939,XArbitraryZVertical,0.3174160188608482,0.0788238241478279,0.05117597672723953,0.9436180009236791,0.116271011531353,-0.6071066856384277,-0.7860677242279053,0,0,0,-1,-1,3106.325342125,walking,2,2022-05-12T10:36:57.641+02:00,2022-05-11T22:15:20.957+02:00,633,0.8772626,0.6313528,2.236902,487.2902,0,0,2022-05-12T10:37:00.200+02:00,674037420.1998624,0,0.4399986,100.9019,1,0.95
2022-05-12T10:37:01.483+02:00,1652344619.99987,53.22896503848325,10.39844155312553,36.42404,0.17,0.73,-1,-1,4,10,-9999,3110.166362291667,0.1162567138671875,-0.6139373779296875,-0.757110595703125,3110.161365291667,0.05850395671640075,0.1472955673316722,0.6518440723844664,-0.05651736259460449,0.02594623900949955,-0.02295215427875519,0.008694037795066833,0.0007730722427368164,0.02106857299804688,XArbitraryZVertical,0.3171390575943274,0.07901702824203462,0.05118230173246525,0.9436946521678038,0.116672083735466,-0.6066533923149109,-0.7863582372665405,0,0,0,-1,-1,3106.325342125,walking,2,2022-05-12T10:36:57.641+02:00,2022-05-11T22:15:20.957+02:00,633,0.8772626,0.6313528,2.236902,487.2902,0,0,2022-05-12T10:37:00.200+02:00,674037420.1998624,0,0.4399986,100.9019,1,0.95
2022-05-12T10:37:01.493+02:00,1652344619.99987,53.22896503848325,10.39844155312553,36.42404,0.17,0.73,-1,-1,4,10,-9999,3110.176357291667,0.129638671875,-0.613037109375,-0.75738525390625,3110.171360291667,0.05832222060772559,0.147783780757988,0.6510403732246806,-0.07503945380449295,0.03697079420089722,-0.006360526662319899,-0.0008710995316505432,-0.007922649383544922,0.02967226505279541,XArbitraryZVertical,0.3167539433976865,0.07921698538291624,0.05114960591725225,0.9438090347880206,0.1171277314424515,-0.6060143113136292,-0.7867832183837891,0,0,0,-1,-1,3106.325342125,walking,2,2022-05-12T10:36:57.641+02:00,2022-05-11T22:15:20.957+02:00,633,0.8772626,0.6313528,2.236902,487.2902,0,0,2022-05-12T10:37:00.200+02:00,674037420.1998624,0,0.4399986,100.9019,1,0.95
2022-05-12T10:37:01.503+02:00,1652344619.99987,53.22896503848325,10.39844155312553,36.42404,0.17,0.73,-1,-1,4,10,-9999,3110.186352291667,0.1243743896484375,-0.62030029296875,-0.75933837890625,3110.181355291667,0.05837118309445119,0.1479894513475186,0.6502282164669332,-0.08597040176391602,0.003218157682567835,-0.01574763655662537,0.01227649301290512,-0.007668614387512207,0.02986007928848267,XArbitraryZVertical,0.3163628728572527,0.07932018159185915,0.05118062032583313,0.9439299115852494,0.1173620894551277,-0.6053680777549744,-0.7872456908226013,0,0,0,-1,-1,3106.325342125,walking,2,2022-05-12T10:36:57.641+02:00,2022-05-11T22:15:20.957+02:00,633,0.8772626,0.6313528,2.236902,487.2902,0,0,2022-05-12T10:37:00.200+02:00,674037420.1998624,0,0.4399986,100.9019,1,0.95
2022-05-12T10:37:01.513+02:00,1652344619.99987,53.22896503848325,10.39844155312553,36.42404,0.17,0.73,-1,-1,4,10,-9999,3110.196347291667,0.108734130859375,-0.62420654296875,-0.759552001953125,3110.191350291667,0.0583295459494328,0.1480448307062584,0.6493131091864622,-0.09736376255750656,-0.001889452338218689,-0.00997903011739254,0.006886973977088928,-0.01566040515899658,0.02844798564910889,XArbitraryZVertical,0.3159305893480325,0.07933793275569584,0.0511419356105622,0.9440751696375387,0.1174873411655426,-0.6046394109725952,-0.7877867221832275,0,0,0,-1,-1,3106.325342125,walking,2,2022-05-12T10:36:57.641+02:00,2022-05-11T22:15:20.957+02:00,633,0.8772626,0.6313528,2.236902,487.2902,0,0,2022-05-12T10:37:00.200+02:00,674037420.1998624,0,0.4399986,100.9019,1,0.95
2022-05-12T10:37:01.523+02:00,1652344619.99987,53.22896503848325,10.39844155312553,36.42404,0.17,0.73,-1,-1,4,10,-9999,3110.206342291667,0.102752685546875,-0.6328277587890625,-0.759429931640625,3110.201345291667,0.05840715513656496,0.1479655008731868,0.6482617495668624,-0.118083693087101,-0.003596538444980979,-0.01106746401637793,-0.008784450590610504,-0.0204043984413147,0.02887201309204102,XArbitraryZVertical,0.3154325042199556,0.07931062000431301,0.05113410850622316,0.9442443874178852,0.1175184994935989,-0.6038017272949219,-0.7884243130683899,0,0,0,-1,-1,3106.325342125,walking,2,2022-05-12T10:36:57.641+02:00,2022-05-11T22:15:20.957+02:00,633,0.8772626,0.6313528,2.236902,487.2902,0,0,2022-05-12T10:37:00.200+02:00,674037420.1998624,0,0.4399986,100.9019,1,0.95
2022-05-12T10:37:01.533+02:00,1652344619.99987,53.22896503848325,10.39844155312553,36.42404,0.17,0.73,-1,-1,4,10,-9999,3110.216337291667,0.0929412841796875,-0.63433837890625,-0.76129150390625,3110.211339291667,0.05839423330976617,0.1478683971372279,0.6469458720732683,-0.1427334100008011,-0.01378932222723961,-0.03036466240882874,-0.01480630040168762,-0.03007513284683228,0.02979063987731934,XArbitraryZVertical,0.3148132438269198,0.07926002644669916,0.05107272481836944,0.9444586685596279,0.1175588965415955,-0.6027522683143616,-0.789220929145813,0,0,0,-1,-1,3106.325342125,walking,2,2022-05-12T10:36:57.641+02:00,2022-05-11T22:15:20.957+02:00,633,0.8772626,0.6313528,2.236902,487.2902,0,0,2022-05-12T10:37:00.200+02:00,674037420.1998624,0,0.4399986,100.9019,1,0.95
2022-05-12T10:37:01.543+02:00,1652344619.99987,53.22896503848325,10.39844155312553,36.42404,0.17,0.73,-1,-1,4,10,-9999,3110.226332291667,0.0772247314453125,-0.6332855224609375,-0.759765625,3110.221334291667,0.05815924812298642,0.1478668802814421,0.6453621055440452,-0.1648411154747009,-0.02103684842586517,-0.04548262804746628,-0.02475699782371521,-0.03285020589828491,0.02887248992919922,XArbitraryZVertical,0.3140734922206827,0.07921910601892872,0.05091336040464077,0.9447170016827783,0.1176982000470161,-0.6014877557754517,-0.7901643514633179,0,0,0,-1,-1,3106.325342125,walking,2,2022-05-12T10:36:57.641+02:00,2022-05-11T22:15:20.957+02:00,633,0.8772626,0.6313528,2.236902,487.2902,0,0,2022-05-12T10:37:00.200+02:00,674037420.1998624,0,0.4399986,100.9019,1,0.95
2022-05-12T10:37:01.553+02:00,1652344619.99987,53.22896503848325,10.39844155312553,36.42404,0.17,0.73,-1,-1,4,10,-9999,3110.236327291667,0.0655975341796875,-0.6437835693359375,-0.7548980712890625,3110.231329291667,0.05771804800953493,0.1479944341566568,0.64354182303782,-0.1982834935188293,-0.01920698955655098,-0.06826969981193542,-0.04073558747768402,-0.0332525372505188,0.03146493434906006,XArbitraryZVertical,0.3132265404418826,0.07920653044893926,0.05066948560859603,0.945012293265087,0.11796023696661,-0.6000325679779053,-0.7912309169769287,0,0,0,-1,-1,3106.325342125,walking,2,2022-05-12T10:36:57.641+02:00,2022-05-11T22:15:20.957+02:00,633,0.8772626,0.6313528,2.236902,487.2902,0,0,2022-05-12T10:37:00.200+02:00,674037420.1998624,0,0.4399986,100.9019,1,0.95
2022-05-12T10:37:01.563+02:00,1652344619.99987,53.22896503848325,10.39844155312553,36.42404,0.17,0.73,-1,-1,4,10,-9999,3110.246322291667,0.0505828857421875,-0.6628570556640625,-0.7484588623046875,3110.241324291667,0.0569785095016191,0.1482724991346909,0.6413911258471749,-0.2378170490264893,-0.02253860421478748,-0.1073840782046318,-0.05277316272258759,-0.04547244310379028,0.0375741720199585,XArbitraryZVertical,0.312230963432309,0.07921824483852305,0.05029769775188288,0.9453605787963931,0.1183706149458885,-0.5983107089996338,-0.7924726009368896,0,0,0,-1,-1,3106.325342125,walking,2,2022-05-12T10:36:57.641+02:00,2022-05-11T22:15:20.957+02:00,633,0.8772626,0.6313528,2.236902,487.2902,0,0,2022-05-12T10:37:00.200+02:00,674037420.1998624,0,0.4399986,100.9019,1,0.95
2022-05-12T10:37:01.573+02:00,1652344619.99987,53.22896503848325,10.39844155312553,36.42404,0.17,0.73,-1,-1,4,10,-9999,3110.256317291667,0.0265960693359375,-0.6918487548828125,-0.7293243408203125,3110.251319291667,0.05583608547277773,0.1487097337771817,0.6386792978572113,-0.3167261183261871,-0.03167857229709625,-0.1606574356555939,-0.06837426871061325,-0.06672102212905884,0.04556328058242798,XArbitraryZVertical,0.3109813806731098,0.07924240569739684,0.04974225692109328,0.9457997095745838,0.118957057595253,-0.5961356163024902,-0.7940224409103394,0,0,0,-1,-1,3106.325342125,walking,2,2022-05-12T10:36:57.641+02:00,2022-05-11T22:15:20.957+02:00,633,0.8772626,0.6313528,2.236902,487.2902,0,0,2022-05-12T10:37:00.200+02:00,674037420.1998624,0,0.4399986,100.9019,1,0.95
2022-05-12T10:37:01.583+02:00,1652344619.99987,53.22896503848325,10.39844155312553,36.42404,0.17,0.73,-1,-1,4,10,-9999,3110.266312291667,-0.0099639892578125,-0.716156005859375,-0.7161865234375,3110.261314291667,0.05414351035059759,0.149469951566386,0.6349199471070194,-0.4114209413528442,-0.02361665293574333,-0.2170077860355377,-0.09329754859209061,-0.0987352728843689,0.06681758165359497,XArbitraryZVertical,0.3092489675379744,0.07933445046039214,0.04894269350193024,0.9464015117187273,0.1198935359716415,-0.5931130647659302,-0.7961422204971313,0,0,0,-1,-1,3106.325342125,walking,2,2022-05-12T10:36:57.641+02:00,2022-05-11T22:15:20.957+02:00,633,0.8772626,0.6313528,2.236902,487.2902,0,0,2022-05-12T10:37:00.200+02:00,674037420.1998624,0,0.4399986,100.9019,1,0.95
2022-05-12T10:37:01.593+02:00,1652344619.99987,53.22896503848325,10.39844155312553,36.42404,0.17,0.73,-1,-1,4,10,-9999,3110.276307291667,-0.0549468994140625,-0.73870849609375,-0.6957244873046875,3110.271309291667,0.05192932661787054,0.1505957210951846,0.6299047416250974,-0.5450260639190674,-0.01438520383089781,-0.2848210632801056,-0.1311985552310944,-0.1270877718925476,0.08275079727172852,XArbitraryZVertical,0.3069323353451051,0.07952170353300146,0.0479099795890518,0.9471925088016612,0.1212344765663147,-0.5890677571296692,-0.7989376783370972,0,0,0,-1,-1,3106.325342125,walking,2,2022-05-12T10:36:57.641+02:00,2022-05-11T22:15:20.957+02:00,633,0.8772626,0.6313528,2.236902,487.2902,0,0,2022-05-12T10:37:00.200+02:00,674037420.1998624,0,0.4399986,100.9019,1,0.95
2022-05-12T10:37:01.603+02:00,1652344620.999695,53.22896503848325,10.39844155312553,36.15152,0,0.84,-1,-1,4,5,-9999,3110.286302291667,-0.089691162109375,-0.8016357421875,-0.7080078125,3110.281304291667,0.04909507773124421,0.1523266317647968,0.6230620682169212,-0.7452377080917358,0.04587627202272415,-0.3763866424560547,-0.1781729161739349,-0.1551834940910339,0.1069672107696533,XArbitraryZVertical,0.3037578943520146,0.07990697869267982,0.04661157418510418,0.9482476251836129,0.1232259348034859,-0.5835245847702026,-0.8026920557022095,0,0,0,-1,-1,3106.325342125,walking,2,2022-05-12T10:36:57.641+02:00,2022-05-11T22:15:20.957+02:00,633,0.8772626,0.6313528,2.236902,487.2902,0,0,2022-05-12T10:37:00.200+02:00,674037420.1998624,0,0.4399986,100.9019,1,0.95
2022-05-12T10:37:01.613+02:00,1652344620.999695,53.22896503848325,10.39844155312553,36.15152,0,0.84,-1,-1,4,5,-9999,3110.296296291667,-0.077850341796875,-0.80401611328125,-0.7222747802734375,3110.291299291667,0.04580406324122901,0.155135683719426,0.6142286741118649,-0.9339537620544434,0.1294394135475159,-0.4322121739387512,-0.2159630507230759,-0.2253069281578064,0.09939581155776978,XArbitraryZVertical,0.2996296999113063,0.08074701145846526,0.04518271977779426,0.9495580932061073,0.1262717843055725,-0.5763283371925354,-0.8074039220809937,0,0,0,-1,-1,3106.325342125,walking,2,2022-05-12T10:36:57.641+02:00,2022-05-11T22:15:20.957+02:00,633,0.8772626,0.6313528,2.236902,487.2902,0,0,2022-05-12T10:37:00.200+02:00,674037420.1998624,0,0.4399986,100.9019,1,0.95
2022-05-12T10:37:01.623+02:00,1652344620.999695,53.22896503848325,10.39844155312553,36.15152,0,0.84,-1,-1,4,5,-9999,3110.306291291667,-0.0858917236328125,-0.8009796142578125,-0.7561492919921875,3110.301294291667,0.04203950482006071,0.1587460398291984,0.6031584873244891,-1.145185947418213,0.1573464125394821,-0.527059018611908,-0.2080370336771011,-0.2367692589759827,0.09091794490814209,XArbitraryZVertical,0.2944366542437546,0.0819178715507972,0.04355253670483142,0.9511570560334924,0.130186602473259,-0.5672464370727539,-0.8131930232048035,0,0,0,-1,-1,3106.325342125,walking,2,2022-05-12T10:36:57.641+02:00,2022-05-11T22:15:20.957+02:00,633,0.8772626,0.6313528,2.236902,487.2902,0,0,2022-05-12T10:37:00.200+02:00,674037420.1998624,0,0.4399986,100.9019,1,0.95
