loggingTime(txt),locationTimestamp_since1970(s),locationLatitude(WGS84),locationLongitude(WGS84),locationAltitude(m),locationSpeed(m/s),locationSpeedAccuracy(m/s),locationCourse(°),locationCourseAccuracy(°),locationVerticalAccuracy(m),locationHorizontalAccuracy(m),locationFloor(Z),accelerometerTimestamp_sinceReboot(s),accelerometerAccelerationX(G),accelerometerAccelerationY(G),accelerometerAccelerationZ(G),motionTimestamp_sinceReboot(s),motionYaw(rad),motionRoll(rad),motionPitch(rad),motionRotationRateX(rad/s),motionRotationRateY(rad/s),motionRotationRateZ(rad/s),motionUserAccelerationX(G),motionUserAccelerationY(G),motionUserAccelerationZ(G),motionAttitudeReferenceFrame(txt),motionQuaternionX(R),motionQuaternionY(R),motionQuaternionZ(R),motionQuaternionW(R),motionGravityX(G),motionGravityY(G),motionGravityZ(G),motionMagneticFieldX(µT),motionMagneticFieldY(µT),motionMagneticFieldZ(µT),motionHeading(°),motionMagneticFieldCalibrationAccuracy(Z),activityTimestamp_sinceReboot(s),activity(txt),activityActivityConfidence(Z),activityActivityStartDate(txt),pedometerStartDate(txt),pedometerNumberofSteps(N),pedometerAverageActivePace(s/m),pedometerCurrentPace(s/m),pedometerCurrentCadence(steps/s),pedometerDistance(m),pedometerFloorAscended(N),pedometerFloorDescended(N),pedometerEndDate(txt),altimeterTimestamp_sinceReboot(s),altimeterReset(bool),altimeterRelativeAltitude(m),altimeterPressure(kPa),batteryState(N),batteryLevel(R)
2022-05-12T10:37:58.322+02:00,1652344675.999774,53.22891956665854,10.39914135822132,53.45095,0.46,1.18,231.6796875,71.65328794093435,48,30,-9999,3146.790646875,-0.0264434814453125,-0.473388671875,-0.873291015625,3146.785648875,0.1621840403148908,-0.01086141715817755,0.4819583146948178,-0.005732217337936163,-0.04599159955978394,-0.02115372009575367,-0.01620923355221748,-0.01266524195671082,0.01773500442504883,XArbitraryZVertical,0.2382930202716529,0.01407498028994496,0.07736961003033307,0.9680043338322005,-0.009623992256820202,-0.4635153114795685,-0.8860366344451904,0,0,0,-1,-1,3144.928530125,walking,2,2022-05-12T10:37:56.400+02:00,2022-05-11T22:15:20.957+02:00,696,0.8808199,0.7833496,1.809453,531.7367,0,0,2022-05-12T10:37:56.400+02:00,674037476.4002585,0,-0.4500008,100.9113,1,0.95
2022-05-12T10:37:58.329+02:00,1652344675.999774,53.22891956665854,10.39914135822132,53.45095,0.46,1.18,231.6796875,71.65328794093435,48,30,-9999,3146.800641875,-0.0259552001953125,-0.4683074951171875,-0.8822479248046875,3146.795643875,0.1620647157037997,-0.01139175987804312,0.4819195031242465,-0.01686689257621765,-0.0561896413564682,-0.0121849924325943,-0.01634948141872883,-0.009907275438308716,0.01275813579559326,XArbitraryZVertical,0.2382955800044001,0.01380252472053183,0.07724914966666623,0.9680172135514173,-0.01009409874677658,-0.4634809195995331,-0.8860493898391724,0,0,0,-1,-1,3144.928530125,walking,2,2022-05-12T10:37:56.400+02:00,2022-05-11T22:15:20.957+02:00,696,0.8808199,0.7833496,1.809453,531.7367,0,0,2022-05-12T10:37:56.400+02:00,674037476.4002585,0,-0.4500008,100.9113,1,0.95
2022-05-12T10:37:58.332+02:00,1652344675.999774,53.22891956665854,10.39914135822132,53.45095,0.46,1.18,231.6796875,71.65328794093435,48,30,-9999,3146.810636875,-0.0245513916015625,-0.4706268310546875,-0.8954315185546875,3146.805638875,0.1619951222977863,-0.01199547680503699,0.4818333251259403,-0.02618582546710968,-0.0510510727763176,-0.014058792963624,-0.01532579585909843,-0.004902452230453491,0.003834903240203857,XArbitraryZVertical,0.2382776519802671,0.01349857933170992,0.07714461138010238,0.9680342649075067,-0.01062949933111668,-0.4634045362472534,-0.8860831260681152,0,0,0,-1,-1,3144.928530125,walking,2,2022-05-12T10:37:56.400+02:00,2022-05-11T22:15:20.957+02:00,696,0.8808199,0.7833496,1.809453,531.7367,0,0,2022-05-12T10:37:56.400+02:00,674037476.4002585,0,-0.4500008,100.9113,1,0.95
2022-05-12T10:37:58.344+02:00,1652344675.999774,53.22891956665854,10.39914135822132,53.45095,0.46,1.18,231.6796875,71.65328794093435,48,30,-9999,3146.820630875,-0.0255889892578125,-0.4705047607421875,-0.9024200439453125,3146.815633875,0.1618411807235764,-0.01254401528660419,0.481688242012636,-0.02908733859658241,-0.05153629928827286,-0.0210874080657959,-0.01343509554862976,-0.007350355386734009,-0.009287416934967041,XArbitraryZVertical,0.2382296080977299,0.01320893124325019,0.0770065831418167,0.9680610928474573,-0.01111639104783535,-0.4632759690284729,-0.8861443400382996,0,0,0,-1,-1,3144.928530125,walking,2,2022-05-12T10:37:56.400+02:00,2022-05-11T22:15:20.957+02:00,696,0.8808199,0.7833496,1.809453,531.7367,0,0,2022-05-12T10:37:56.400+02:00,674037476.4002585,0,-0.4500008,100.9113,1,0.95
2022-05-12T10:37:58.346+02:00,1652344675.999774,53.22891956665854,10.39914135822132,53.45095,0.46,1.18,231.6796875,71.65328794093435,48,30,-9999,3146.830625875,-0.0200958251953125,-0.4793243408203125,-0.9064178466796875,3146.825628875,0.161630465342941,-0.01299883333172378,0.4815934857412735,-0.01694615557789803,-0.05468262359499931,-0.02398592606186867,-0.0140690915286541,-0.007312268018722534,-0.01623719930648804,XArbitraryZVertical,0.2382026178271839,0.01295989437191963,0.07685161953203769,0.9680834511715698,-0.01151999551802874,-0.4631920158863068,-0.8861830830574036,0,0,0,-1,-1,3144.928530125,walking,2,2022-05-12T10:37:56.400+02:00,2022-05-11T22:15:20.957+02:00,696,0.8808199,0.7833496,1.809453,531.7367,0,0,2022-05-12T10:37:56.400+02:00,674037476.4002585,0,-0.4500008,100.9113,1,0.95
2022-05-12T10:37:58.347+02:00,1652344675.999774,53.22891956665854,10.39914135822132,53.45095,0.46,1.18,231.6796875,71.65328794093435,48,30,-9999,3146.840620875,-0.0176544189453125,-0.4814453125,-0.905517578125,3146.835623875,0.1613382441741765,-0.01345148072988781,0.4816566433786847,-0.004566451068967581,-0.05321122705936432,-0.03550329804420471,-0.008175194263458252,-0.01607587933540344,-0.02026957273483276,XArbitraryZVertical,0.2382524282548666,0.01270850917750075,0.07665544609509695,0.9680900756496049,-0.01192072872072458,-0.4632479846477509,-0.8861485719680786,0,0,0,-1,-1,3144.928530125,walking,2,2022-05-12T10:37:56.400+02:00,2022-05-11T22:15:20.957+02:00,696,0.8808199,0.7833496,1.809453,531.7367,0,0,2022-05-12T10:37:56.400+02:00,674037476.4002585,0,-0.4500008,100.9113,1,0.95
2022-05-12T10:37:58.349+02:00,1652344675.999774,53.22891956665854,10.39914135822132,53.45095,0.46,1.18,231.6796875,71.65328794093435,48,30,-9999,3146.850615875,-0.021514892578125,-0.4761505126953125,-0.9070281982421875,3146.845618875,0.1609330041681301,-0.01386106447991561,0.4818716851542806,0.01003722473978996,-0.05812828987836838,-0.03670511394739151,-0.005372216925024986,-0.01800629496574402,-0.01947391033172607,XArbitraryZVertical,0.2383747173713588,0.01247054462711773,0.07640771404006708,0.9680826356535456,-0.01228229887783527,-0.4634385406970978,-0.8860439658164978,0,0,0,-1,-1,3144.928530125,walking,2,2022-05-12T10:37:56.400+02:00,2022-05-11T22:15:20.957+02:00,696,0.8808199,0.7833496,1.809453,531.7367,0,0,2022-05-12T10:37:56.400+02:00,674037476.4002585,0,-0.4500008,100.9113,1,0.95
2022-05-12T10:37:58.351+02:00,1652344675.999774,53.22891956665854,10.39914135822132,53.45095,0.46,1.18,231.6796875,71.65328794093435,48,30,-9999,3146.860610875,-0.0206298828125,-0.4859161376953125,-0.8998260498046875,3146.855612875,0.1604909980110117,-0.01426803981335986,0.4821583060231523,0.01137013733386993,-0.0513974204659462,-0.04912583529949188,-0.00887399073690176,-0.01245748996734619,-0.02112239599227905,XArbitraryZVertical,0.2385316517071659,0.012232262106676,0.07614151914341344,0.9680680438977877,-0.01264100056141615,-0.4636925160884857,-0.8859060406684875,0,0,0,-1,-1,3144.928530125,walking,2,2022-05-12T10:37:56.400+02:00,2022-05-11T22:15:20.957+02:00,696,0.8808199,0.7833496,1.809453,531.7367,0,0,2022-05-12T10:37:56.400+02:00,674037476.4002585,0,-0.4500008,100.9113,1,0.95
2022-05-12T10:37:58.354+02:00,1652344675.999774,53.22891956665854,10.39914135822132,53.45095,0.46,1.18,231.6796875,71.65328794093435,48,30,-9999,3146.870605875,-0.0195159912109375,-0.4789276123046875,-0.88897705078125,3146.865607875,0.1599106879265683,-0.01463156675449963,0.4823690071632617,0.001218034420162439,-0.05618924275040627,-0.06066504120826721,-0.007668359205126762,-0.02203646302223206,-0.01402264833450317,XArbitraryZVertical,0.2386509605478064,0.01199544665710011,0.07581452063593268,0.9680671637947779,-0.012961620464921,-0.4638791680335999,-0.8858036398887634,0,0,0,-1,-1,3144.928530125,walking,2,2022-05-12T10:37:56.400+02:00,2022-05-11T22:15:20.957+02:00,696,0.8808199,0.7833496,1.809453,531.7367,0,0,2022-05-12T10:37:56.400+02:00,674037476.4002585,0,-0.4500008,100.9113,1,0.95
2022-05-12T10:37:58.356+02:00,1652344675.999774,53.22891956665854,10.39914135822132,53.45095,0.46,1.18,231.6796875,71.65328794093435,48,30,-9999,3146.880599875,-0.0258941650390625,-0.4722900390625,-0.88983154296875,3146.875602875,0.1592227373148814,-0.01500438669140179,0.4824389021907738,-0.007786912377923727,-0.06594200432300568,-0.06899061799049377,-0.006224712356925011,-0.01498603820800781,-0.003210961818695068,XArbitraryZVertical,0.2387029469174122,0.01173565165683677,0.07543611400995033,0.9680871474902518,-0.01329137850552797,-0.4639410972595215,-0.885766327381134,0,0,0,-1,-1,3144.928530125,walking,2,2022-05-12T10:37:56.400+02:00,2022-05-11T22:15:20.957+02:00,696,0.8808199,0.7833496,1.809453,531.7367,0,0,2022-05-12T10:37:56.400+02:00,674037476.4002585,0,-0.4500008,100.9113,1,0.95
2022-05-12T10:37:58.364+02:00,1652344675.999774,53.22891956665854,10.39914135822132,53.45095,0.46,1.18,231.6796875,71.65328794093435,48,30,-9999,3146.890594875,-0.0205841064453125,-0.4765625,-0.8885040283203125,3146.885597875,0.1584655948900831,-0.01528164138602865,0.4823868993999034,-0.009417666122317314,-0.04527101293206215,-0.07120776176452637,-0.01235693506896496,-0.008394509553909302,-0.004045069217681885,XArbitraryZVertical,0.2386926152085761,0.01150903235839265,0.07503721151413921,0.968123404114012,-0.01353732962161303,-0.4638950228691101,-0.885786771774292,0,0,0,-1,-1,3144.928530125,walking,2,2022-05-12T10:37:56.400+02:00,2022-05-11T22:15:20.957+02:00,696,0.8808199,0.7833496,1.809453,531.7367,0,0,2022-05-12T10:37:56.400+02:00,674037476.4002585,0,-0.4500008,100.9113,1,0.95
2022-05-12T10:37:58.375+02:00,1652344675.999774,53.22891956665854,10.39914135822132,53.45095,0.46,1.18,231.6796875,71.65328794093435,48,30,-9999,3146.900589875,-0.0167083740234375,-0.4838104248046875,-0.894195556640625,3146.895592875,0.1576680643507832,-0.01546280998906823,0.4822667497156357,-0.01814484409987926,-0.04302650317549706,-0.07839351147413254,-0.00688554160296917,-0.01277342438697815,-0.002664268016815186,XArbitraryZVertical,0.2386457888863295,0.01132144229977525,0.07463110467293617,0.9681686017353445,-0.01369866821914911,-0.4637885689735413,-0.8858399987220764,0,0,0,-1,-1,3144.928530125,walking,2,2022-05-12T10:37:56.400+02:00,2022-05-11T22:15:20.957+02:00,696,0.8808199,0.7833496,1.809453,531.7367,0,0,2022-05-12T10:37:56.400+02:00,674037476.4002585,0,-0.4500008,100.9113,1,0.95
2022-05-12T10:37:58.383+02:00,1652344675.999774,53.22891956665854,10.39914135822132,53.45095,0.46,1.18,231.6796875,71.65328794093435,48,30,-9999,3146.910583041667,-0.0208892822265625,-0.477508544921875,-0.8917236328125,3146.905587875,0.1568101296393055,-0.01543821894890921,0.4820657788296791,-0.02360302582383156,-0.02067625522613525,-0.08059000968933105,-0.00303015299141407,-0.02019941806793213,-0.008262276649475098,XArbitraryZVertical,0.2385524671250122,0.01122315105678742,0.07422135490925119,0.9682241707156547,-0.01367832254618406,-0.4636105298995972,-0.885933518409729,0,0,0,-1,-1,3144.928530125,walking,2,2022-05-12T10:37:56.400+02:00,2022-05-11T22:15:20.957+02:00,696,0.8808199,0.7833496,1.809453,531.7367,0,0,2022-05-12T10:37:56.400+02:00,674037476.4002585,0,-0.4500008,100.9113,1,0.95
2022-05-12T10:37:58.393+02:00,1652344675.999774,53.22891956665854,10.39914135822132,53.45095,0.46,1.18,231.6796875,71.65328794093435,48,30,-9999,3146.920578041667,-0.02142333984375,-0.48095703125,-0.892242431640625,3146.915580041667,0.1558751444789015,-0.01519130965439488,0.4818162160075411,-0.03344340994954109,-0.00645284540951252,-0.08976434171199799,-0.00742805190384388,-0.01411867141723633,-0.005671381950378418,XArbitraryZVertical,0.2384277742923634,0.01122150088946316,0.07380139068015755,0.9682870715034869,-0.01346133463084698,-0.4633893966674805,-0.8860525488853455,0,0,0,-1,-1,3144.928530125,walking,2,2022-05-12T10:37:56.400+02:00,2022-05-11T22:15:20.957+02:00,696,0.8808199,0.7833496,1.809453,531.7367,0,0,2022-05-12T10:37:56.400+02:00,674037476.4002585,0,-0.4500008,100.9113,1,0.95
2022-05-12T10:37:58.403+02:00,1652344675.999774,53.22891956665854,10.39914135822132,53.45095,0.46,1.18,231.6796875,71.65328794093435,48,30,-9999,3146.930573041667,-0.014068603515625,-0.4744415283203125,-0.8942413330078125,3146.925575041667,0.1548246622344319,-0.01472932029569041,0.4815219082078506,-0.03914583474397659,0.006328064016997814,-0.09472648054361343,-0.008369449526071548,-0.01782798767089844,-0.006047725677490234,XArbitraryZVertical,0.2382742588238694,0.011308638988258,0.07335163933983266,0.9683579605851967,-0.01305399369448423,-0.4631285667419434,-0.8861950039863586,0,0,0,-1,-1,3144.928530125,walking,2,2022-05-12T10:37:56.400+02:00,2022-05-11T22:15:20.957+02:00,696,0.8808199,0.7833496,1.809453,531.7367,0,0,2022-05-12T10:37:56.400+02:00,674037476.4002585,0,-0.4500008,100.9113,1,0.95
2022-05-12T10:37:58.413+02:00,1652344675.999774,53.22891956665854,10.39914135822132,53.45095,0.46,1.18,231.6796875,71.65328794093435,48,30,-9999,3146.940568041667,-0.0084991455078125,-0.467132568359375,-0.89697265625,3146.935570041667,0.1538235512692115,-0.01422496059581888,0.4811744826790888,-0.03271350264549255,0.01016434747725725,-0.08770958334207535,-0.001459386199712753,-0.01162043213844299,-0.007879316806793213,XArbitraryZVertical,0.2380933241657648,0.01142032093330435,0.07293137756229952,0.9684329015188022,-0.01260931883007288,-0.4628206193447113,-0.8863623142242432,0,0,0,-1,-1,3144.928530125,walking,2,2022-05-12T10:37:56.400+02:00,2022-05-11T22:15:20.957+02:00,696,0.8808199,0.7833496,1.809453,531.7367,0,0,2022-05-12T10:37:56.400+02:00,674037476.4002585,0,-0.4500008,100.9113,1,0.95
2022-05-12T10:37:58.423+02:00,1652344675.999774,53.22891956665854,10.39914135822132,53.45095,0.46,1.18,231.6796875,71.65328794093435,48,30,-9999,3146.950562041667,-0.0087127685546875,-0.4614410400390625,-0.8995208740234375,3146.945565041667,0.1528729843375749,-0.013688744079884,0.4810351581841234,-0.01228549052029848,0.01473373360931873,-0.08400692045688629,0.003635669127106667,-0.004434973001480103,-0.01053953170776367,XArbitraryZVertical,0.2380118237078907,0.01156152912767318,0.0725366477795646,0.9684809596987902,-0.01213491801172495,-0.4626971185207367,-0.8864334225654602,0,0,0,-1,-1,3144.928530125,walking,2,2022-05-12T10:37:56.400+02:00,2022-05-11T22:15:20.957+02:00,696,0.8808199,0.7833496,1.809453,531.7367,0,0,2022-05-12T10:37:56.400+02:00,674037476.4002585,0,-0.4500008,100.9113,1,0.95
2022-05-12T10:37:58.433+02:00,1652344675.999774,53.22891956665854,10.39914135822132,53.45095,0.46,1.18,231.6796875,71.65328794093435,48,30,-9999,3146.960557041667,-0.00567626953125,-0.4622344970703125,-0.89996337890625,3146.955560041667,0.1519920334438874,-0.01318346296895128,0.4810481860993109,0.0007059415802359581,0.01041381899267435,-0.07761826366186142,0.002974068745970726,0.001268118619918823,-0.01308774948120117,XArbitraryZVertical,0.2380049781127447,0.01170186600611447,0.07217002071326555,0.9685083338886452,-0.01168693881481886,-0.4627086520195007,-0.8864334225654602,0,0,0,-1,-1,3144.928530125,walking,2,2022-05-12T10:37:56.400+02:00,2022-05-11T22:15:20.957+02:00,696,0.8808199,0.7833496,1.809453,531.7367,0,0,2022-05-12T10:37:56.400+02:00,674037476.4002585,0,-0.4500008,100.9113,1,0.95
2022-05-12T10:37:58.443+02:00,1652344675.999774,53.22891956665854,10.39914135822132,53.45095,0.46,1.18,231.6796875,71.65328794093435,48,30,-9999,3146.970552041667,-0.0030364990234375,-0.4664154052734375,-0.8963165283203125,3146.965555041667,0.1511240145153993,-0.01273803802285323,0.481178806947155,0.01557087432593107,0.00859268382191658,-0.08081106096506119,0.005614953115582466,0.0005904436111450195,-0.01358556747436523,XArbitraryZVertical,0.2380573060198398,0.01181916448843837,0.07180110572062436,0.9685214030758859,-0.0112913278862834,-0.4628244638442993,-0.8863780498504639,0,0,0,-1,-1,3144.928530125,walking,2,2022-05-12T10:37:56.400+02:00,2022-05-11T22:15:20.957+02:00,696,0.8808199,0.7833496,1.809453,531.7367,0,0,2022-05-12T10:37:56.400+02:00,674037476.4002585,0,-0.4500008,100.9113,1,0.95
2022-05-12T10:37:58.453+02:00,1652344675.999774,53.22891956665854,10.39914135822132,53.45095,0.46,1.18,231.6796875,71.65328794093435,48,30,-9999,3146.980547041667,-0.009124755859375,-0.4719696044921875,-0.89447021484375,3146.975550041667,0.1502283148958561,-0.01229164759110536,0.4813760440025344,0.01337403245270252,0.007600123528391123,-0.08285211026668549,0.007857931777834892,-0.003415614366531372,-0.01002508401870728,XArbitraryZVertical,0.2381421184811732,0.01193605364017185,0.07141812373662064,0.9685274991291409,-0.01089453417807817,-0.4629992842674255,-0.8862917423248291,0,0,0,-1,-1,3144.928530125,walking,2,2022-05-12T10:37:56.400+02:00,2022-05-11T22:15:20.957+02:00,696,0.8808199,0.7833496,1.809453,531.7367,0,0,2022-05-12T10:37:56.400+02:00,674037476.4002585,0,-0.4500008,100.9113,1,0.95
2022-05-12T10:37:58.463+02:00,1652344675.999774,53.22891956665854,10.39914135822132,53.45095,0.46,1.18,231.6796875,71.65328794093435,48,30,-9999,3146.990542041667,-0.007720947265625,-0.4713287353515625,-0.8943939208984375,3146.985544041667,0.1492207428312847,-0.01180768022171829,0.481572681679198,0.009517276659607887,0.0003233682364225388,-0.0942707434296608,0.001339660957455635,-0.008795559406280518,-0.008264660835266113,XArbitraryZVertical,0.2382261558821424,0.01205771484093535,0.07098550612780791,0.9685370543703058,-0.01046452112495899,-0.4631735682487488,-0.886205792427063,0,0,0,-1,-1,3144.928530125,walking,2,2022-05-12T10:37:56.400+02:00,2022-05-11T22:15:20.957+02:00,696,0.8808199,0.7833496,1.809453,531.7367,0,0,2022-05-12T10:37:56.400+02:00,674037476.4002585,0,-0.4500008,100.9113,1,0.95
2022-05-12T10:37:58.473+02:00,1652344675.999774,53.22891956665854,10.39914135822132,53.45095,0.46,1.18,231.6796875,71.65328794093435,48,30,-9999,3147.000537041667,-0.007781982421875,-0.4739227294921875,-0.8921966552734375,3146.995539041667,0.1482007373290064,-0.01139965852458304,0.4816798190508438,-0.001907684840261936,-0.005513748154044151,-0.09155964851379395,0.002381311729550362,-0.00805974006652832,-0.008233785629272461,XArbitraryZVertical,0.2382697533039222,0.01213773860125233,0.0705388968221231,0.9685579946804078,-0.01010236330330372,-0.463268518447876,-0.8861603736877441,0,0,0,-1,-1,3144.928530125,walking,2,2022-05-12T10:37:56.400+02:00,2022-05-11T22:15:20.957+02:00,696,0.8808199,0.7833496,1.809453,531.7367,0,0,2022-05-12T10:37:56.400+02:00,674037476.4002585,0,-0.4500008,100.9113,1,0.95
2022-05-12T10:37:58.483+02:00,1652344675.999774,53.22891956665854,10.39914135822132,53.45095,0.46,1.18,231.6796875,71.65328794093435,48,30,-9999,3147.010532041667,-0.005828857421875,-0.481842041015625,-0.888641357421875,3147.005534041667,0.1472049620445108,-0.01106210463044442,0.4816800932086215,-0.01205865573137999,-0.009931799024343491,-0.09292571246623993,0.002021146006882191,-0.01065346598625183,-0.006033241748809814,XArbitraryZVertical,0.2382640591784344,0.01218258885923059,0.07009686269271768,0.968590974916272,-0.009803234599530697,-0.4632687568664551,-0.8861636519432068,0,0,0,-1,-1,3144.928530125,walking,2,2022-05-12T10:37:56.400+02:00,2022-05-11T22:15:20.957+02:00,696,0.8808199,0.7833496,1.809453,531.7367,0,0,2022-05-12T10:37:56.400+02:00,674037476.4002585,0,-0.4500008,100.9113,1,0.95
2022-05-12T10:37:58.493+02:00,1652344675.999774,53.22891956665854,10.39914135822132,53.45095,0.46,1.18,231.6796875,71.65328794093435,48,30,-9999,3147.020526041667,0.0089874267578125,-0.486602783203125,-0.881683349609375,3147.015529041667,0.1461489195636198,-0.01074494777261116,0.4815491630812272,-0.01907315477728844,-0.02061693370342255,-0.09582402557134628,0.003693869337439537,-0.01868882775306702,-0.002414286136627197,XArbitraryZVertical,0.2381960344189996,0.01220565932971707,0.06962468425821958,0.9686414205798766,-0.009522832930088043,-0.4631527066230774,-0.8862273693084717,0,0,0,-1,-1,3144.928530125,walking,2,2022-05-12T10:37:56.400+02:00,2022-05-11T22:15:20.957+02:00,696,0.8808199,0.7833496,1.809453,531.7367,0,0,2022-05-12T10:37:56.400+02:00,674037476.4002585,0,-0.4500008,100.9113,1,0.95
2022-05-12T10:37:58.503+02:00,1652344675.999774,53.22891956665854,10.39914135822132,53.45095,0.46,1.18,231.6796875,71.65328794093435,48,30,-9999,3147.030521041667,0.014434814453125,-0.4828033447265625,-0.874114990234375,3147.025524041667,0.1450841852209067,-0.01050071932368071,0.4812776275822604,-0.03469106554985046,-0.02998393774032593,-0.09132661670446396,0.01829502917826176,-0.02369025349617004,0.004671752452850342,XArbitraryZVertical,0.2380625804157566,0.01218741632522445,0.06914112952503378,0.9687090328443211,-0.009307710453867912,-0.4629120528697968,-0.8863553404808044,0,0,0,-1,-1,3144.928530125,walking,2,2022-05-12T10:37:56.400+02:00,2022-05-11T22:15:20.957+02:00,696,0.8808199,0.7833496,1.809453,531.7367,0,0,2022-05-12T10:37:56.400+02:00,674037476.4002585,0,-0.4500008,100.9113,1,0.95
2022-05-12T10:37:58.513+02:00,1652344676.999735,53.22902559773366,10.39862922393754,35.8442,0.46,1.29,266.484375,83.82759470248349,4,30,-9999,3147.040516041667,0.01904296875,-0.483734130859375,-0.868011474609375,3147.035519041667,0.144085500362897,-0.01042254470967996,0.4808303724541089,-0.04648753628134727,-0.04791606590151787,-0.08415897935628891,0.02367528341710567,-0.02028730511665344,0.0124477744102478,XArbitraryZVertical,0.2378493489409625,0.01209049550819961,0.06867167213354024,0.9687960159867542,-0.00924057699739933,-0.4625155627727509,-0.8865630030632019,0,0,0,-1,-1,3144.928530125,walking,2,2022-05-12T10:37:56.400+02:00,2022-05-11T22:15:20.957+02:00,696,0.8808199,0.7833496,1.809453,531.7367,0,0,2022-05-12T10:37:56.400+02:00,674037476.4002585,0,-0.4500008,100.9113,1,0.95
2022-05-12T10:37:58.527+02:00,1652344676.999735,53.22902559773366,10.39862922393754,35.8442,0.46,1.29,266.484375,83.82759470248349,4,30,-9999,3147.050511041667,0.0203399658203125,-0.485504150390625,-0.8712158203125,3147.045513041667,0.1430937545472631,-0.01050852148958242,0.4802914942666324,-0.05379904434084892,-0.06845716387033463,-0.08840020000934601,0.02836228162050247,-0.02169591188430786,0.01879960298538208,XArbitraryZVertical,0.237597243819385,0.01191185877911427,0.0681869937088011,0.9688943246425833,-0.009319419041275978,-0.4620377123355865,-0.8868113160133362,0,0,0,-1,-1,3144.928530125,walking,2,2022-05-12T10:37:56.400+02:00,2022-05-11T22:15:20.957+02:00,696,0.8808199,0.7833496,1.809453,531.7367,0,0,2022-05-12T10:37:56.400+02:00,674037476.4002585,0,-0.4500008,100.9113,1,0.95
2022-05-12T10:37:58.537+02:00,1652344676.999735,53.22902559773366,10.39862922393754,35.8442,0.46,1.29,266.484375,83.82759470248349,4,30,-9999,3147.060506041667,0.0056915283203125,-0.47760009765625,-0.8892059326171875,3147.055508041667,0.1420766653519248,-0.01092751388135298,0.4797735463589649,-0.05227917805314064,-0.1088698282837868,-0.08908596634864807,0.03003345429897308,-0.0239253044128418,0.01583045721054077,XArbitraryZVertical,0.2373665586441469,0.01156985126404198,0.06765022087199166,0.9689926355122135,-0.009693599306046963,-0.4615783095359802,-0.8870465159416199,0,0,0,-1,-1,3144.928530125,walking,2,2022-05-12T10:37:56.400+02:00,2022-05-11T22:15:20.957+02:00,696,0.8808199,0.7833496,1.809453,531.7367,0,0,2022-05-12T10:37:56.400+02:00,674037476.4002585,0,-0.4500008,100.9113,1,0.95
2022-05-12T10:37:58.543+02:00,1652344676.999735,53.22902559773366,10.39862922393754,35.8442,0.46,1.29,266.484375,83.82759470248349,4,30,-9999,3147.070501041667,-0.0092926025390625,-0.470916748046875,-0.9054412841796875,3147.065503041667,0.1410413915356603,-0.01160332079437639,0.4793923530121425,-0.02607057988643646,-0.1261800527572632,-0.09071987867355347,0.01598652824759483,-0.01635950803756714,-0.001990556716918945,XArbitraryZVertical,0.2372105185874977,0.01110623202044981,0.06707267043031359,0.9690764642029411,-0.01029510982334614,-0.4612401127815247,-0.8872156143188477,0,0,0,-1,-1,3144.928530125,walking,2,2022-05-12T10:37:56.400+02:00,2022-05-11T22:15:20.957+02:00,696,0.8808199,0.7833496,1.809453,531.7367,0,0,2022-05-12T10:37:56.400+02:00,674037476.4002585,0,-0.4500008,100.9113,1,0.95
2022-05-12T10:37:58.553+02:00,1652344676.999735,53.22902559773366,10.39862922393754,35.8442,0.46,1.29,266.484375,83.82759470248349,4,30,-9999,3147.080495041667,-0.0179443359375,-0.463287353515625,-0.917510986328125,3147.075498041667,0.1399429210250223,-0.01234124946101657,0.4793284748896176,0.002164521254599094,-0.1262253224849701,-0.1019379124045372,0.001657459884881973,-0.009732812643051147,-0.01820427179336548,XArbitraryZVertical,0.2372101521146321,0.01061615774100305,0.06645359640729802,0.9691247703388269,-0.01095017232000828,-0.4611834287643433,-0.8872373104095459,0,0,0,-1,-1,3144.928530125,walking,2,2022-05-12T10:37:56.400+02:00,2022-05-11T22:15:20.957+02:00,696,0.8808199,0.7833496,1.809453,531.7367,0,0,2022-05-12T10:37:56.400+02:00,674037476.4002585,0,-0.4500008,100.9113,1,0.95
2022-05-12T10:37:58.563+02:00,1652344676.999735,53.22902559773366,10.39862922393754,35.8442,0.46,1.29,266.484375,83.82759470248349,4,30,-9999,3147.090490041667,-0.0276641845703125,-0.4591217041015625,-0.919647216796875,3147.085493041667,0.1387504738296704,-0.01297707786936413,0.4795840777516004,0.04181306436657906,-0.1151922419667244,-0.1047958880662918,-0.00643167644739151,-0.001876652240753174,-0.03039902448654175,XArbitraryZVertical,0.2373612091599072,0.01017541741873877,0.06579744676421287,0.9691372557127789,-0.01151277124881744,-0.4614102244377136,-0.8871122598648071,0,0,0,-1,-1,3144.928530125,walking,2,2022-05-12T10:37:56.400+02:00,2022-05-11T22:15:20.957+02:00,696,0.8808199,0.7833496,1.809453,531.7367,0,0,2022-05-12T10:37:56.400+02:00,674037476.4002585,0,-0.4500008,100.9113,1,0.95
2022-05-12T10:37:58.573+02:00,1652344676.999735,53.22902559773366,10.39862922393754,35.8442,0.46,1.29,266.484375,83.82759470248349,4,30,-9999,3147.100485041667,-0.0284271240234375,-0.4620819091796875,-0.9150543212890625,3147.095488041667,0.137523397628577,-0.01342377053711135,0.4802688704896643,0.066954106092453,-0.09143923968076706,-0.110807441174984,-0.01575950533151627,0.002896428108215332,-0.03285664319992065,XArbitraryZVertical,0.237713740478433,0.009836722337739183,0.06514200273038467,0.9690985407331645,-0.01190479192882776,-0.4620176553726196,-0.8867908120155334,0,0,0,-1,-1,3144.928530125,walking,2,2022-05-12T10:37:56.400+02:00,2022-05-11T22:15:20.957+02:00,696,0.8808199,0.7833496,1.809453,531.7367,0,0,2022-05-12T10:37:56.400+02:00,674037476.4002585,0,-0.4500008,100.9113,1,0.95
2022-05-12T10:37:58.583+02:00,1652344676.999735,53.22902559773366,10.39862922393754,35.8442,0.46,1.29,266.484375,83.82759470248349,4,30,-9999,3147.110480041667,-0.029022216796875,-0.4735107421875,-0.911773681640625,3147.105483041667,0.1361279849039432,-0.01359725170540747,0.4811505657392133,0.07685770094394684,-0.08972369879484177,-0.1298164874315262,-0.0163741447031498,0.0007180273532867432,-0.02867347002029419,XArbitraryZVertical,0.2381532597307899,0.00961663302976094,0.0644351786209547,0.9690400988445628,-0.01205308921635151,-0.4627994298934937,-0.8863810896873474,0,0,0,-1,-1,3144.928530125,walking,2,2022-05-12T10:37:56.400+02:00,2022-05-11T22:15:20.957+02:00,696,0.8808199,0.7833496,1.809453,531.7367,0,0,2022-05-12T10:37:56.400+02:00,674037476.4002585,0,-0.4500008,100.9113,1,0.95
2022-05-12T10:37:58.593+02:00,1652344676.999735,53.22902559773366,10.39862922393754,35.8442,0.46,1.29,266.484375,83.82759470248349,4,30,-9999,3147.120475041667,-0.024200439453125,-0.480682373046875,-0.9049530029296875,3147.115477041667,0.1344219465855681,-0.01354239376617192,0.4820299858115254,0.0705164447426796,-0.08358191698789597,-0.1602934300899506,-0.01702338270843029,-0.009931445121765137,-0.02579951286315918,XArbitraryZVertical,0.2385856382246955,0.009469449177903709,0.06360515203734092,0.9689900068689233,-0.01199894864112139,-0.4635788202285767,-0.8859744668006897,0,0,0,-1,-1,3144.928530125,walking,2,2022-05-12T10:37:56.400+02:00,2022-05-11T22:15:20.957+02:00,696,0.8808199,0.7833496,1.809453,531.7367,0,0,2022-05-12T10:37:56.400+02:00,674037476.4002585,0,-0.4500008,100.9113,1,0.95
2022-05-12T10:37:58.603+02:00,1652344676.999735,53.22902559773366,10.39862922393754,35.8442,0.46,1.29,266.484375,83.82759470248349,4,30,-9999,3147.130470041667,-0.020111083984375,-0.4861602783203125,-0.904022216796875,3147.125472041667,0.1323852933519799,-0.01341217083605635,0.4828750766569168,0.06300493329763412,-0.09743821620941162,-0.1908623874187469,-0.01232223957777023,-0.01635444164276123,-0.01936930418014526,XArbitraryZVertical,0.2390004335655135,0.00931739650638006,0.06262448272024573,0.9689531535478547,-0.01187831535935402,-0.4643274545669556,-0.8855839371681213,0,0,0,-1,-1,3144.928530125,walking,2,2022-05-12T10:37:56.400+02:00,2022-05-11T22:15:20.957+02:00,696,0.8808199,0.7833496,1.809453,531.7367,0,0,2022-05-12T10:37:56.400+02:00,674037476.4002585,0,-0.4500008,100.9113,1,0.95
2022-05-12T10:37:58.613+02:00,1652344676.999735,53.22902559773366,10.39862922393754,35.8442,0.46,1.29,266.484375,83.82759470248349,4,30,-9999,3147.140464041667,-0.02471923828125,-0.4823760986328125,-0.8980865478515625,3147.135467041667,0.1300851723690081,-0.01328658339459141,0.4835915287492867,0.05314857512712479,-0.1123476549983025,-0.2032684534788132,-0.008348526433110237,-0.02119794487953186,-0.01876986026763916,XArbitraryZVertical,0.2393541507039372,0.009126546013291983,0.06151721408973972,0.9689386573504272,-0.01176267489790916,-0.4649618566036224,-0.8852525949478149,0,0,0,-1,-1,3144.928530125,walking,2,2022-05-12T10:37:56.400+02:00,2022-05-11T22:15:20.957+02:00,696,0.8808199,0.7833496,1.809453,531.7367,0,0,2022-05-12T10:37:56.400+02:00,674037476.4002585,0,-0.4500008,100.9113,1,0.95
2022-05-12T10:37:58.623+02:00,1652344676.999735,53.22902559773366,10.39862922393754,35.8442,0.46,1.29,266.484375,83.82759470248349,4,30,-9999,3147.150459041667,-0.0576171875,-0.4988250732421875,-0.9049835205078125,3147.145462041667,0.1264296531293107,-0.01251984385865275,0.4833417644283571,-0.204377070069313,0.02921140752732754,-0.4748590290546417,-0.01363399066030979,-0.01763489842414856,-0.01270937919616699,XArbitraryZVertical,0.2392265106193517,0.009052705729170135,0.0598405337458168,0.9690758791496907,-0.01108536683022976,-0.4647407233715057,-0.8853774666786194,0,0,0,-1,-1,3144.928530125,walking,2,2022-05-12T10:37:56.400+02:00,2022-05-11T22:15:20.957+02:00,696,0.8808199,0.7833496,1.809453,531.7367,0,0,2022-05-12T10:37:56.400+02:00,674037476.4002585,0,-0.4500008,100.9113,1,0.95
2022-05-12T10:37:58.633+02:00,1652344676.999735,53.22902559773366,10.39862922393754,35.8442,0.46,1.29,266.484375,83.82759470248349,4,30,-9999,3147.160454041667,0.026885986328125,-0.4277801513671875,-0.8974151611328125,3147.155457041667,0.1223599545108858,-0.01101487813131988,0.4824486122263383,-0.02438333258032799,-0.1446772962808609,-0.2961324155330658,-0.04785984754562378,-0.03487485647201538,-0.0191759467124939,XArbitraryZVertical,0.2387680821818658,0.009268103335379786,0.05805741778885774,0.9692952406256891,-0.009757460094988346,-0.4639497101306915,-0.8858078122138977,0,0,0,-1,-1,3144.928530125,walking,2,2022-05-12T10:37:56.400+02:00,2022-05-11T22:15:20.957+02:00,696,0.8808199,0.7833496,1.809453,531.7367,0,0,2022-05-12T10:37:56.400+02:00,674037476.4002585,0,-0.4500008,100.9113,1,0.95
2022-05-12T10:37:58.643+02:00,1652344676.999735,53.22902559773366,10.39862922393754,35.8442,0.46,1.29,266.484375,83.82759470248349,4,30,-9999,3147.170449041667,-0.029998779296875,-0.432769775390625,-0.911651611328125,3147.165452041667,0.1188426708942446,-0.01041516522369896,0.4819539818691704,-0.05692373216152191,-0.09954264760017395,-0.2800125181674957,0.03611448034644127,0.03573179244995117,-0.01137256622314453,XArbitraryZVertical,0.238527375054839,0.009124289832252193,0.05642903668327957,0.9694520702530037,-0.009228616952896118,-0.4635114669799805,-0.8860428929328918,0,0,0,-1,-1,3144.928530125,walking,2,2022-05-12T10:37:56.400+02:00,2022-05-11T22:15:20.957+02:00,696,0.8808199,0.7833496,1.809453,531.7367,0,0,2022-05-12T10:37:56.400+02:00,674037476.4002585,0,-0.4500008,100.9113,1,0.95
2022-05-12T10:37:58.653+02:00,1652344676.999735,53.22902559773366,10.39862922393754,35.8442,0.46,1.29,266.484375,83.82759470248349,4,30,-9999,3147.180444041667,-0.02569580078125,-0.433380126953125,-0.9264373779296875,3147.175447041667,0.1160654622899895,-0.01004133879510859,0.4815957308900686,-0.003594464156776667,-0.08043445646762848,-0.2255817651748657,-0.02109984681010246,0.03042468428611755,-0.02543962001800537,XArbitraryZVertical,0.2383558696086876,0.008963975415395006,0.05513073331485215,0.9695704408158136,-0.008899056352674961,-0.4631939828395844,-0.8862122297286987,0,0,0,-1,-1,3144.928530125,walking,2,2022-05-12T10:37:56.400+02:00,2022-05-11T22:15:20.957+02:00,696,0.8808199,0.7833496,1.809453,531.7367,0,0,2022-05-12T10:37:56.400+02:00,674037476.4002585,0,-0.4500008,100.9113,1,0.95
2022-05-12T10:37:58.663+02:00,1652344676.999735,53.22902559773366,10.39862922393754,35.8442,0.46,1.29,266.484375,83.82759470248349,4,30,-9999,3147.190439041667,-0.0123291015625,-0.439422607421875,-0.9046630859375,3147.185441041667,0.1136865075790458,-0.009602815472564386,0.4817014438450906,0.0276868250221014,-0.07264856994152069,-0.1989050060510635,-0.01718596369028091,0.02990806102752686,-0.04027050733566284,XArbitraryZVertical,0.2384057616887727,0.008896029776146187,0.05402871259784557,0.9696208537780791,-0.00850996095687151,-0.4632876813411713,-0.8861671090126038,0,0,0,-1,-1,3144.928530125,walking,2,2022-05-12T10:37:56.400+02:00,2022-05-11T22:15:20.957+02:00,696,0.8808199,0.7833496,1.809453,531.7367,0,0,2022-05-12T10:37:56.400+02:00,674037476.4002585,0,-0.4500008,100.9113,1,0.95
2022-05-12T10:37:58.673+02:00,1652344676.999735,53.22902559773366,10.39862922393754,35.8442,0.46,1.29,266.484375,83.82759470248349,4,30,-9999,3147.200434041667,-0.0193939208984375,-0.4434967041015625,-0.8959197998046875,3147.195436041667,0.1116457813171702,-0.009402088124497025,0.4820370117883355,0.03883934766054153,-0.05847762897610664,-0.172181248664856,-0.003998609259724617,0.02416291832923889,-0.01865005493164062,XArbitraryZVertical,0.2385720645777329,0.008759364056662933,0.0530602494662122,0.969634663814994,-0.00833062082529068,-0.4635850489139557,-0.8860132694244385,0,0,0,-1,-1,3144.928530125,walking,2,2022-05-12T10:37:56.400+02:00,2022-05-11T22:15:20.957+02:00,696,0.8808199,0.7833496,1.809453,531.7367,0,0,2022-05-12T10:37:56.400+02:00,674037476.4002585,0,-0.4500008,100.9113,1,0.95
2022-05-12T10:37:58.683+02:00,1652344676.999735,53.22902559773366,10.39862922393754,35.8442,0.46,1.29,266.484375,83.82759470248349,4,30,-9999,3147.210428041667,-0.033782958984375,-0.4765167236328125,-0.8754425048828125,3147.205431041667,0.1095925142587042,-0.008930671884595389,0.4823599044696541,0.01773149706423283,-0.03719611093401909,-0.197297990322113,-0.01148244738578796,0.02037489414215088,-0.01005268096923828,XArbitraryZVertical,0.2387251893297808,0.008751755816266867,0.05211818741366183,0.9696481151057963,-0.007911601103842258,-0.4638711214065552,-0.8858673572540283,0,0,0,-1,-1,3144.928530125,walking,2,2022-05-12T10:37:56.400+02:00,2022-05-11T22:15:20.957+02:00,696,0.8808199,0.7833496,1.809453,531.7367,0,0,2022-05-12T10:37:56.400+02:00,674037476.4002585,0,-0.4500008,100.9113,1,0.95
2022-05-12T10:37:58.693+02:00,1652344676.999735,53.22902559773366,10.39862922393754,35.8442,0.46,1.29,266.484375,83.82759470248349,4,30,-9999,3147.220423041667,0.0043792724609375,-0.45611572265625,-0.8756866455078125,3147.215426041667,0.1071594578529016,-0.008030785938458579,0.4823953151266368,-0.0003889175131917,0.006523672956973314,-0.1866679787635803,-0.02666880190372467,-0.01261374354362488,0.01041495800018311,XArbitraryZVertical,0.2387298919173277,0.008898586156853789,0.05104566365443743,0.9697026395371326,-0.007114286534488201,-0.463902473449707,-0.8858577013015747,0,0,0,-1,-1,3144.928530125,walking,2,2022-05-12T10:37:56.400+02:00,2022-05-11T22:15:20.957+02:00,696,0.8808199,0.7833496,1.809453,531.7367,0,0,2022-05-12T10:37:56.400+02:00,674037476.4002585,0,-0.4500008,100.9113,1,0.95
2022-05-12T10:37:58.703+02:00,1652344676.999735,53.22902559773366,10.39862922393754,35.8442,0.46,1.29,266.484375,83.82759470248349,4,30,-9999,3147.230418041667,-0.0071868896484375,-0.4673004150390625,-0.87762451171875,3147.225421041667,0.1050097305185818,-0.00721603663571947,0.4823994173205834,-0.02569187618792057,0.01630280166864395,-0.2132266163825989,0.01077166013419628,0.007790893316268921,0.01017439365386963,XArbitraryZVertical,0.2387209006793647,0.009037136493109126,0.05010055210202227,0.9697529265965765,-0.006392518524080515,-0.4639061093330383,-0.885861337184906,0,0,0,-1,-1,3144.928530125,walking,2,2022-05-12T10:37:56.400+02:00,2022-05-11T22:15:20.957+02:00,696,0.8808199,0.7833496,1.809453,531.7367,0,0,2022-05-12T10:37:56.400+02:00,674037476.4002585,0,-0.4500008,100.9113,1,0.95
2022-05-12T10:37:58.713+02:00,1652344676.999735,53.22902559773366,10.39862922393754,35.8442,0.46,1.29,266.484375,83.82759470248349,4,30,-9999,3147.240413041667,-0.0218353271484375,-0.4724884033203125,-0.8757476806640625,3147.235416041667,0.1028475720152648,-0.006427347912225121,0.4822061783212667,-0.04641712829470634,0.0009629931300878525,-0.2139997333288193,-0.001492597162723541,-0.003565013408660889,0.008330941200256348,XArbitraryZVertical,0.2386174666847364,0.009156594406157506,0.04914776742196759,0.9698260425339394,-0.005694424267858267,-0.4637349247932434,-0.8859557509422302,0,0,0,-1,-1,3144.928530125,walking,2,2022-05-12T10:37:56.400+02:00,2022-05-11T22:15:20.957+02:00,696,0.8808199,0.7833496,1.809453,531.7367,0,0,2022-05-12T10:37:56.400+02:00,674037476.4002585,0,-0.4500008,100.9113,1,0.95
2022-05-12T10:37:58.723+02:00,1652344676.999735,53.22902559773366,10.39862922393754,35.8442,0.46,1.29,266.484375,83.82759470248349,4,30,-9999,3147.250408041667,-0.0046234130859375,-0.4669647216796875,-0.8831939697265625,3147.245410041667,0.1003618858317093,-0.005075407584709919,0.4814093977610035,-0.06677147001028061,-0.005846843123435974,-0.1981159746646881,-0.01733692549169064,-0.009459048509597778,0.01058387756347656,XArbitraryZVertical,0.2382098309674555,0.009495990702575037,0.04810943458628648,0.9699749791652774,-0.00449853390455246,-0.4630288481712341,-0.8863317966461182,0,0,0,-1,-1,3144.928530125,walking,2,2022-05-12T10:37:56.400+02:00,2022-05-11T22:15:20.957+02:00,696,0.8808199,0.7833496,1.809453,531.7367,0,0,2022-05-12T10:37:56.400+02:00,674037476.4002585,0,-0.4500008,100.9113,1,0.95
2022-05-12T10:37:58.733+02:00,1652344676.999735,53.22902559773366,10.39862922393754,35.8442,0.46,1.29,266.484375,83.82759470248349,4,30,-9999,3147.260403041667,-0.01513671875,-0.472747802734375,-0.882720947265625,3147.255405041667,0.09813701888010243,-0.004341815227952046,0.4804092591782102,-0.0918898731470108,-0.02614066191017628,-0.2158979028463364,-0.0007732119411230087,-0.004822075366973877,0.003603279590606689,XArbitraryZVertical,0.2377178811987661,0.009562711706597535,0.04712463880520917,0.9701434041810875,-0.003850335255265236,-0.462142139673233,-0.8867975473403931,0,0,0,-1,-1,3144.928530125,walking,2,2022-05-12T10:37:56.400+02:00,2022-05-11T22:15:20.957+02:00,696,0.8808199,0.7833496,1.809453,531.7367,0,0,2022-05-12T10:37:56.400+02:00,674037476.4002585,0,-0.4500008,100.9113,1,0.95
2022-05-12T10:37:58.743+02:00,1652344676.999735,53.22902559773366,10.39862922393754,35.8442,0.46,1.29,266.484375,83.82759470248349,4,30,-9999,3147.270398041667,-0.0348663330078125,-0.468658447265625,-0.875457763671875,3147.265400041667,0.09572684637209171,-0.00370059659110621,0.4791234749521014,-0.1138554885983467,-0.04639453440904617,-0.2203624248504639,-0.01185295358300209,-0.01174581050872803,0.004672110080718994,XArbitraryZVertical,0.2370907213691925,0.009557126469269725,0.04604017447207372,0.9703490267035924,-0.003283899510279298,-0.4610015153884888,-0.8873932957649231,0,0,0,-1,-1,3144.928530125,walking,2,2022-05-12T10:37:56.400+02:00,2022-05-11T22:15:20.957+02:00,696,0.8808199,0.7833496,1.809453,531.7367,0,0,2022-05-12T10:37:56.400+02:00,674037476.4002585,0,-0.4500008,100.9113,1,0.95
2022-05-12T10:37:58.753+02:00,1652344676.999735,53.22902559773366,10.39862922393754,35.8442,0.46,1.29,266.484375,83.82759470248349,4,30,-9999,3147.280392041667,-0.0643768310546875,-0.4830322265625,-0.8656005859375,3147.275395041667,0.09384051076435944,-0.002979512217523604,0.477965063344467,-0.1027482450008392,0.02304712310433388,-0.1692507714033127,-0.03222086280584335,-0.008684724569320679,0.01247084140777588,XArbitraryZVertical,0.2365212841345253,0.009656777644961461,0.04521771228184898,0.9705256106091825,-0.002645602682605386,-0.4599732458591461,-0.88792884349823,0,0,0,-1,-1,3144.928530125,walking,2,2022-05-12T10:37:56.400+02:00,2022-05-11T22:15:20.957+02:00,696,0.8808199,0.7833496,1.809453,531.7367,0,0,2022-05-12T10:37:56.400+02:00,674037476.4002585,0,-0.4500008,100.9113,1,0.95
2022-05-12T10:37:58.763+02:00,1652344676.999735,53.22902559773366,10.39862922393754,35.8442,0.46,1.29,266.484375,83.82759470248349,4,30,-9999,3147.290387041667,-0.028839111328125,-0.48382568359375,-0.851593017578125,3147.285390041667,0.09183646748553347,-0.001904767846466448,0.4764419520581409,-0.1554257273674011,0.008109918795526028,-0.1869663149118423,-0.0626843273639679,-0.02441143989562988,0.02302992343902588,XArbitraryZVertical,0.2357678409055214,0.00990719184979956,0.04438126711499111,0.9707449912087548,-0.001692637335509062,-0.4586202800273895,-0.888630747795105,0,0,0,-1,-1,3144.928530125,walking,2,2022-05-12T10:37:56.400+02:00,2022-05-11T22:15:20.957+02:00,696,0.8808199,0.7833496,1.809453,531.7367,0,0,2022-05-12T10:37:56.400+02:00,674037476.4002585,0,-0.4500008,100.9113,1,0.95
2022-05-12T10:37:58.773+02:00,1652344676.999735,53.22902559773366,10.39862922393754,35.8442,0.46,1.29,266.484375,83.82759470248349,4,30,-9999,3147.300382041667,-0.047088623046875,-0.49725341796875,-0.8425140380859375,3147.295385041667,0.08963328548274901,-0.001060550622219093,0.4748652801449209,-0.1954455971717834,-0.01320868544280529,-0.2263331711292267,-0.02789604291319847,-0.02660655975341797,0.03776055574417114,XArbitraryZVertical,0.2349949276180841,0.01002282138071996,0.04342012205154398,0.9709746887151487,-0.0009432051447220147,-0.4572186470031738,-0.88935387134552,0,0,0,-1,-1,3144.928530125,walking,2,2022-05-12T10:37:56.400+02:00,2022-05-11T22:15:20.957+02:00,696,0.8808199,0.7833496,1.809453,531.7367,0,0,2022-05-12T10:37:56.400+02:00,674037476.4002585,0,-0.4500008,100.9113,1,0.95
2022-05-12T10:37:58.783+02:00,1652344676.999735,53.22902559773366,10.39862922393754,35.8442,0.46,1.29,266.484375,83.82759470248349,4,30,-9999,3147.310377041667,-0.08154296875,-0.5079193115234375,-0.826446533203125,3147.305379041667,0.08680323879856847,0.0002209042774977949,0.4728211264468535,-0.2212406396865845,0.01286912057548761,-0.2862898707389832,-0.04728543013334274,-0.04185321927070618,0.04777276515960693,XArbitraryZVertical,0.2339893122014878,0.01026937648077614,0.04220699728042314,0.9712683527052921,0.0001966682320926338,-0.4553996920585632,-0.8902871012687683,0,0,0,-1,-1,3144.928530125,walking,2,2022-05-12T10:37:56.400+02:00,2022-05-11T22:15:20.957+02:00,696,0.8808199,0.7833496,1.809453,531.7367,0,0,2022-05-12T10:37:56.400+02:00,674037476.4002585,0,-0.4500008,100.9113,1,0.95
2022-05-12T10:37:58.793+02:00,1652344676.999735,53.22902559773366,10.39862922393754,35.8442,0.46,1.29,266.484375,83.82759470248349,4,30,-9999,3147.320372041667,-0.096710205078125,-0.5035552978515625,-0.78076171875,3147.315374041667,0.08327406427854937,0.001937717482094624,0.4700068489213309,-0.3661083281040192,0.01334369648247957,-0.3422503173351288,-0.08327071368694305,-0.05502641201019287,0.0651167631149292,XArbitraryZVertical,0.2326051724407816,0.01063363451401189,0.04070625815052133,0.9716608533745794,0.001727600349113345,-0.452892392873764,-0.8915635347366333,0,0,0,-1,-1,3144.928530125,walking,2,2022-05-12T10:37:56.400+02:00,2022-05-11T22:15:20.957+02:00,696,0.8808199,0.7833496,1.809453,531.7367,0,0,2022-05-12T10:37:56.400+02:00,674037476.4002585,0,-0.4500008,100.9113,1,0.95
2022-05-12T10:37:58.803+02:00,1652344676.999735,53.22902559773366,10.39862922393754,35.8442,0.46,1.29,266.484375,83.82759470248349,4,30,-9999,3147.330367041667,-0.1195068359375,-0.5529327392578125,-0.7543792724609375,3147.325369041667,0.07917832261186684,0.003861751685102926,0.4654829131714317,-0.5570638179779053,0.004862526431679726,-0.3984373807907104,-0.1001612171530724,-0.05470043420791626,0.1128363013267517,XArbitraryZVertical,0.2303903968184517,0.01100601632630275,0.03895661112267293,0.9722559606195447,0.003450871678069234,-0.448854386806488,-0.8935982584953308,0,0,0,-1,-1,3144.928530125,walking,2,2022-05-12T10:37:56.400+02:00,2022-05-11T22:15:20.957+02:00,696,0.8808199,0.7833496,1.809453,531.7367,0,0,2022-05-12T10:37:56.400+02:00,674037476.4002585,0,-0.4500008,100.9113,1,0.95
2022-05-12T10:37:58.813+02:00,1652344676.999735,53.22902559773366,10.39862922393754,35.8442,0.46,1.29,266.484375,83.82759470248349,4,30,-9999,3147.340361041667,-0.194305419921875,-0.6717681884765625,-0.685394287109375,3147.335364041667,0.07390631632731312,0.00592184261611474,0.4581225097332616,-0.9657226800918579,-0.0716618075966835,-0.5772143006324768,-0.1248181611299515,-0.1106672585010529,0.1424891948699951,XArbitraryZVertical,0.22680084454472,0.01127037104402436,0.03665144806734603,0.9731860692754707,0.0053111775778234,-0.4422650039196014,-0.8968687057495117,0,0,0,-1,-1,3144.928530125,walking,2,2022-05-12T10:37:56.400+02:00,2022-05-11T22:15:20.957+02:00,696,0.8808199,0.7833496,1.809453,531.7367,0,0,2022-05-12T10:37:56.400+02:00,674037476.4002585,0,-0.4500008,100.9113,1,0.95
2022-05-12T10:37:58.823+02:00,1652344676.999735,53.22902559773366,10.39862922393754,35.8442,0.46,1.29,266.484375,83.82759470248349,4,30,-9999,3147.350356041667,-0.22003173828125,-0.7696380615234375,-0.669677734375,3147.345359041667,0.06728349395852307,0.008581336266909064,0.4457274535814072,-1.47702431678772,0.01545518264174461,-0.5994516015052795,-0.2020483911037445,-0.2406533360481262,0.2168695330619812,XArbitraryZVertical,0.2207555622659542,0.0116163135667284,0.03375104074032847,0.97467589025936,0.007742821704596281,-0.4311143755912781,-0.9022640585899353,0,0,0,-1,-1,3144.928530125,walking,2,2022-05-12T10:37:56.400+02:00,2022-05-11T22:15:20.957+02:00,696,0.8808199,0.7833496,1.809453,531.7367,0,0,2022-05-12T10:37:56.400+02:00,674037476.4002585,0,-0.4500008,100.9113,1,0.95
2022-05-12T10:37:58.833+02:00,1652344676.999735,53.22902559773366,10.39862922393754,35.8442,0.46,1.29,266.484375,83.82759470248349,4,30,-9999,3147.360351041667,-0.3222503662109375,-0.8127899169921875,-0.6425628662109375,3147.355354041667,0.06009477713358508,0.01181497881014597,0.4276960509423219,-2.173905611038208,0.03309835866093636,-0.7721392512321472,-0.2307823747396469,-0.3548620641231537,0.2401823401451111,XArbitraryZVertical,0.2119488780541069,0.01214592440555799,0.03061114503112182,0.9767258255417595,0.01075047999620438,-0.4147754907608032,-0.9098603129386902,0,0,0,-1,-1,3144.928530125,walking,2,2022-05-12T10:37:56.400+02:00,2022-05-11T22:15:20.957+02:00,696,0.8808199,0.7833496,1.809453,531.7367,0,0,2022-05-12T10:37:56.400+02:00,674037476.4002585,0,-0.4500008,100.9113,1,0.95
2022-05-12T10:37:58.843+02:00,1652344676.999735,53.22902559773366,10.39862922393754,35.8442,0.46,1.29,266.484375,83.82759470248349,4,30,-9999,3147.370346041667,-0.35943603515625,-0.781036376953125,-0.6530609130859375,3147.365349041667,0.05196885289554593,0.01627742626283251,0.4030058287986304,-2.750070571899414,0.1919734179973602,-0.7688837647438049,-0.33722323179245,-0.4206042587757111,0.2772013545036316,XArbitraryZVertical,0.1998606833466503,0.01317107940607286,0.02708330161115118,0.9793614517273426,0.01497272029519081,-0.3921851217746735,-0.9197644591331482,0,0,0,-1,-1,3144.928530125,walking,2,2022-05-12T10:37:56.400+02:00,2022-05-11T22:15:20.957+02:00,696,0.8808199,0.7833496,1.809453,531.7367,0,0,2022-05-12T10:37:56.400+02:00,674037476.4002585,0,-0.4500008,100.9113,1,0.95
2022-05-12T10:37:58.853+02:00,1652344676.999735,53.22902559773366,10.39862922393754,35.8442,0.46,1.29,266.484375,83.82759470248349,4,30,-9999,3147.380341041667,-0.4033966064453125,-0.782684326171875,-0.6517181396484375,3147.375343041667,0.04371146238777909,0.0221715858999019,0.3714970632891213,-3.53196120262146,0.3672365844249725,-0.8980705142021179,-0.3800936341285706,-0.4180250763893127,0.2784948348999023,XArbitraryZVertical,0.1843886864868486,0.01492806856726931,0.02352356277703193,0.9824584779227373,0.02065745741128922,-0.3630107939243317,-0.9315559267997742,0,0,0,-1,-1,3144.928530125,walking,2,2022-05-12T10:37:56.400+02:00,2022-05-11T22:15:20.957+02:00,696,0.8808199,0.7833496,1.809453,531.7367,0,0,2022-05-12T10:37:56.400+02:00,674037476.4002585,0,-0.4500008,100.9113,1,0.95
2022-05-12T10:37:58.863+02:00,1652344676.999735,53.22902559773366,10.39862922393754,35.8442,0.46,1.29,266.484375,83.82759470248349,4,30,-9999,3147.390336041667,-0.4398956298828125,-0.702545166015625,-0.724273681640625,3147.385338041667,0.03458722492967335,0.02978246198896404,0.332418397923182,-4.183896541595459,0.5323648452758789,-1.001791000366211,-0.4315446615219116,-0.4563538134098053,0.293118417263031,XArbitraryZVertical,0.1651479404006613,0.01754395618386436,0.01951576651445092,0.9859197066030372,0.02814788743853569,-0.3263299763202667,-0.9448367357254028,0,0,0,-1,-1,3144.928530125,walking,2,2022-05-12T10:37:56.400+02:00,2022-05-11T22:15:20.957+02:00,696,0.8808199,0.7833496,1.809453,531.7367,0,0,2022-05-12T10:37:56.400+02:00,674037476.4002585,0,-0.4500008,100.9113,1,0.95
2022-05-12T10:37:58.873+02:00,1652344676.999735,53.22902559773366,10.39862922393754,35.8442,0.46,1.29,266.484375,83.82759470248349,4,30,-9999,3147.400331041667,-0.443695068359375,-0.5169677734375,-0.7304229736328125,3147.395333041667,0.02496176111984712,0.0394944177711541,0.2898099623901005,-4.38810396194458,0.7638185620307922,-1.108105182647705,-0.4777333736419678,-0.4167745113372803,0.2332770824432373,XArbitraryZVertical,0.1441151452117755,0.02133927898317143,0.01519840493997229,0.9892141146630977,0.03783759102225304,-0.2857701182365417,-0.9575509428977966,0,0,0,-1,-1,3144.928530125,walking,2,2022-05-12T10:37:56.400+02:00,2022-05-11T22:15:20.957+02:00,696,0.8808199,0.7833496,1.809453,531.7367,0,0,2022-05-12T10:37:56.400+02:00,674037476.4002585,0,-0.4500008,100.9113,1,0.95
2022-05-12T10:37:58.883+02:00,1652344676.999735,53.22902559773366,10.39862922393754,35.8442,0.46,1.29,266.484375,83.82759470248349,4,30,-9999,3147.410325041667,-0.4276123046875,-0.6381072998046875,-0.799652099609375,3147.405328041667,0.01503394951388948,0.05026226786717312,0.2430363753140892,-4.82961893081665,0.8761976361274719,-1.244379162788391,-0.4924598336219788,-0.2763163447380066,0.2389628887176514,XArbitraryZVertical,0.1209901292466363,0.02585338358893116,0.0105050872671834,0.9922614769463483,0.04876460880041122,-0.2406508773565292,-0.9693859815597534,0,0,0,-1,-1,3144.928530125,walking,2,2022-05-12T10:37:56.400+02:00,2022-05-11T22:15:20.957+02:00,696,0.8808199,0.7833496,1.809453,531.7367,0,0,2022-05-12T10:37:56.400+02:00,674037476.4002585,0,-0.4500008,100.9113,1,0.95
2022-05-12T10:37:58.893+02:00,1652344676.999735,53.22902559773366,10.39862922393754,35.8442,0.46,1.29,266.484375,83.82759470248349,4,30,-9999,3147.420320041667,-0.496307373046875,-0.575164794921875,-0.824798583984375,3147.415323041667,0.00467057298768169,0.06230004706995241,0.1919192481307191,-5.281364440917969,1.099247217178345,-1.348705053329468,-0.4887291491031647,-0.4473634958267212,0.1800833344459534,XArbitraryZVertical,0.09569327717408324,0.03122525530720411,0.005307480823007858,0.994906886437568,0.06111666187644005,-0.1907432526350021,-0.9797355532646179,0,0,0,-1,-1,3144.928530125,walking,2,2022-05-12T10:37:56.400+02:00,2022-05-11T22:15:20.957+02:00,696,0.8808199,0.7833496,1.809453,531.7367,0,0,2022-05-12T10:37:56.400+02:00,674037476.4002585,0,-0.4500008,100.9113,1,0.95
2022-05-12T10:37:58.903+02:00,1652344676.999735,53.22902559773366,10.39862922393754,35.8442,0.46,1.29,266.484375,83.82759470248349,4,30,-9999,3147.430315041667,-0.491790771484375,-0.457122802734375,-0.858795166015625,3147.425318041667,-0.00592692226079252,0.07616120289695599,0.136540667601842,-5.599726676940918,1.28338634967804,-1.516724467277527,-0.5716869831085205,-0.4390474259853363,0.1630222201347351,XArbitraryZVertical,0.06828011178533416,0.03778052790725203,-0.0003572932693483669,0.9969506064234911,0.07537943124771118,-0.1361168026924133,-0.9878209233283997,0,0,0,-1,-1,3144.928530125,walking,2,2022-05-12T10:37:56.400+02:00,2022-05-11T22:15:20.957+02:00,696,0.8808199,0.7833496,1.809453,531.7367,0,0,2022-05-12T10:37:56.400+02:00,674037476.4002585,0,-0.4500008,100.9113,1,0.95
2022-05-12T10:37:58.913+02:00,1652344676.999735,53.22902559773366,10.39862922393754,35.8442,0.46,1.29,266.484375,83.82759470248349,4,30,-9999,3147.440310041667,-0.518341064453125,-0.3442535400390625,-0.9289703369140625,3147.435313041667,-0.01707254617080517,0.09043144000329635,0.07778283212952342,-5.842033386230469,1.34301483631134,-1.664427280426025,-0.5818261504173279,-0.3794177770614624,0.1341074705123901,XArbitraryZVertical,0.0392259983434598,0.04483292251372079,-0.006763599163412039,0.9982013177663589,0.09003518521785736,-0.07770442217588425,-0.9929026365280151,0,0,0,-1,-1,3144.928530125,walking,2,2022-05-12T10:37:56.400+02:00,2022-05-11T22:15:20.957+02:00,696,0.8808199,0.7833496,1.809453,531.7367,0,0,2022-05-12T10:37:56.400+02:00,674037476.4002585,0,-0.4500008,100.9113,1,0.95
2022-05-12T10:37:58.923+02:00,1652344676.999735,53.22902559773366,10.39862922393754,35.8442,0.46,1.29,266.484375,83.82759470248349,4,30,-9999,3147.450305041667,-0.545562744140625,-0.0859222412109375,-0.92138671875,3147.445307041667,-0.02866664935376529,0.1063928125574208,0.02137200629864416,-5.341545104980469,1.724398970603943,-1.700944542884827,-0.6245092153549194,-0.3228825628757477,0.06514817476272583,XArbitraryZVertical,0.01143163925564131,0.05300987955063215,-0.01374362133447909,0.9984340066778424,0.1061679571866989,-0.02137037925422192,-0.9941185116767883,0,0,0,-1,-1,3144.928530125,walking,2,2022-05-12T10:37:56.400+02:00,2022-05-11T22:15:20.957+02:00,696,0.8808199,0.7833496,1.809453,531.7367,0,0,2022-05-12T10:37:56.400+02:00,674037476.4002585,0,-0.4500008,100.9113,1,0.95
2022-05-12T10:37:58.933+02:00,1652344676.999735,53.22902559773366,10.39862922393754,35.8442,0.46,1.29,266.484375,83.82759470248349,4,30,-9999,3147.460300041667,-0.45916748046875,-0.1549072265625,-0.9591522216796875,3147.455302041667,-0.04103417017925027,0.1239031977437322,-0.03291756075793015,-5.104265689849854,1.806632041931152,-2.0357346534729,-0.6690824031829834,-0.1188332661986351,0.07040953636169434,XArbitraryZVertical,-0.01515301490535672,0.06222756288012512,-0.02149225037400947,0.9977154982624162,0.1235194653272629,0.03291161730885506,-0.9917962551116943,0,0,0,-1,-1,3144.928530125,walking,2,2022-05-12T10:37:56.400+02:00,2022-05-11T22:15:20.957+02:00,696,0.8808199,0.7833496,1.809453,531.7367,0,0,2022-05-12T10:37:56.400+02:00,674037476.4002585,0,-0.4500008,100.9113,1,0.95
2022-05-12T10:37:58.943+02:00,1652344676.999735,53.22902559773366,10.39862922393754,35.8442,0.46,1.29,266.484375,83.82759470248349,4,30,-9999,3147.470295041667,-0.5026702880859375,-0.1209716796875,-0.937774658203125,3147.465297041667,-0.05503458535975274,0.1409858983493465,-0.08544075199129433,-4.996947765350342,1.799847841262817,-2.13106107711792,-0.599174439907074,-0.2402434796094894,0.02731412649154663,XArbitraryZVertical,-0.04064902819930884,0.07151579724213476,-0.03042738154787741,0.996146303661596,0.1400067061185837,0.085336834192276,-0.9864662885665894,0,0,0,-1,-1,3144.928530125,walking,2,2022-05-12T10:37:56.400+02:00,2022-05-11T22:15:20.957+02:00,696,0.8808199,0.7833496,1.809453,531.7367,0,0,2022-05-12T10:37:56.400+02:00,674037476.4002585,0,-0.4500008,100.9113,1,0.95
2022-05-12T10:37:58.953+02:00,1652344676.999735,53.22902559773366,10.39862922393754,35.8442,0.46,1.29,266.484375,83.82759470248349,4,30,-9999,3147.480289041667,-0.4817047119140625,-0.116943359375,-0.963043212890625,3147.475292041667,-0.06942959547427729,0.1584773116692843,-0.1386781048613077,-5.102098941802979,1.968934059143066,-2.309464454650879,-0.6589702367782593,-0.2592051029205322,0.04021400213241577,XArbitraryZVertical,-0.06628377230474224,0.08131510563913534,-0.03999666278415319,0.9936773443572722,0.1562996953725815,0.1382340341806412,-0.977988600730896,0,0,0,-1,-1,3144.928530125,walking,2,2022-05-12T10:37:56.400+02:00,2022-05-11T22:15:20.957+02:00,696,0.8808199,0.7833496,1.809453,531.7367,0,0,2022-05-12T10:37:56.400+02:00,674037476.4002585,0,-0.4500008,100.9113,1,0.95
2022-05-12T10:37:58.963+02:00,1652344676.999735,53.22902559773366,10.39862922393754,35.8442,0.46,1.29,266.484375,83.82759470248349,4,30,-9999,3147.490284041667,-0.4098052978515625,0.1924591064453125,-1.062286376953125,3147.485287041667,-0.08520481946295219,0.1770099894992258,-0.1915756589231053,-4.658378601074219,2.30544376373291,-2.542398452758789,-0.6545705795288086,-0.307348757982254,0.003322780132293701,XArbitraryZVertical,-0.09143342250180773,0.09196184868482914,-0.05067437969307681,0.9902601226217773,0.1728656440973282,0.1904059648513794,-0.9663658738136292,0,0,0,-1,-1,3144.928530125,walking,2,2022-05-12T10:37:56.400+02:00,2022-05-11T22:15:20.957+02:00,696,0.8808199,0.7833496,1.809453,531.7367,0,0,2022-05-12T10:37:56.400+02:00,674037478.9586585,0,-0.2700005,100.911,1,0.95
2022-05-12T10:37:58.973+02:00,1652344676.999735,53.22902559773366,10.39862922393754,35.8442,0.46,1.29,266.484375,83.82759470248349,4,30,-9999,3147.500279041667,-0.2606048583984375,0.358856201171875,-1.063308715820312,3147.495282041667,-0.1027438753177436,0.1966381943090051,-0.2398332461337522,-4.253152847290039,2.350690364837646,-2.549062252044678,-0.5995869040489197,-0.04508097469806671,-0.1096281409263611,XArbitraryZVertical,-0.1138903337768177,0.1034404966950587,-0.0624618021895396,0.9861174413384526,0.1897813677787781,0.2375406473875046,-0.9526581168174744,0,0,0,-1,-1,3144.928530125,walking,2,2022-05-12T10:37:56.400+02:00,2022-05-11T22:15:20.957+02:00,696,0.8808199,0.7290554,1.809453,531.7367,0,0,2022-05-12T10:37:58.959+02:00,674037478.9586585,0,-0.2700005,100.911,1,0.95
2022-05-12T10:37:58.984+02:00,1652344676.999735,53.22902559773366,10.39862922393754,35.8442,0.46,1.29,266.484375,83.82759470248349,4,30,-9999,3147.510274041667,-0.280914306640625,0.25384521484375,-1.11944580078125,3147.505277041667,-0.1208044923312802,0.215322593334865,-0.2844486130700843,-3.783752202987671,2.376652956008911,-2.703626871109009,-0.4656819999217987,0.07822850346565247,-0.1256566047668457,XArbitraryZVertical,-0.1342466328037469,0.1146815011450194,-0.07461328560234602,0.9814575270525998,0.2050768733024597,0.2806282639503479,-0.9376519918441772,0,0,0,-1,-1,3144.928530125,walking,2,2022-05-12T10:37:56.400+02:00,2022-05-11T22:15:20.957+02:00,696,0.8808199,0.7290554,1.809453,531.7367,0,0,2022-05-12T10:37:58.959+02:00,674037478.9586585,0,-0.2700005,100.911,1,0.95
