loggingTime(txt),locationTimestamp_since1970(s),locationLatitude(WGS84),locationLongitude(WGS84),locationAltitude(m),locationSpeed(m/s),locationSpeedAccuracy(m/s),locationCourse(°),locationCourseAccuracy(°),locationVerticalAccuracy(m),locationHorizontalAccuracy(m),locationFloor(Z),accelerometerTimestamp_sinceReboot(s),accelerometerAccelerationX(G),accelerometerAccelerationY(G),accelerometerAccelerationZ(G),motionTimestamp_sinceReboot(s),motionYaw(rad),motionRoll(rad),motionPitch(rad),motionRotationRateX(rad/s),motionRotationRateY(rad/s),motionRotationRateZ(rad/s),motionUserAccelerationX(G),motionUserAccelerationY(G),motionUserAccelerationZ(G),motionAttitudeReferenceFrame(txt),motionQuaternionX(R),motionQuaternionY(R),motionQuaternionZ(R),motionQuaternionW(R),motionGravityX(G),motionGravityY(G),motionGravityZ(G),motionMagneticFieldX(µT),motionMagneticFieldY(µT),motionMagneticFieldZ(µT),motionHeading(°),motionMagneticFieldCalibrationAccuracy(Z),activityTimestamp_sinceReboot(s),activity(txt),activityActivityConfidence(Z),activityActivityStartDate(txt),pedometerStartDate(txt),pedometerNumberofSteps(N),pedometerAverageActivePace(s/m),pedometerCurrentPace(s/m),pedometerCurrentCadence(steps/s),pedometerDistance(m),pedometerFloorAscended(N),pedometerFloorDescended(N),pedometerEndDate(txt),altimeterTimestamp_sinceReboot(s),altimeterReset(bool),altimeterRelativeAltitude(m),altimeterPressure(kPa),batteryState(N),batteryLevel(R)
2022-05-12T10:38:37.030+02:00,1652344715.999944,53.22893825830261,10.39838983678296,39.0419,0,1,-1,-1,4,5,-9999,3183.39281575,0.045135498046875,-0.5530242919921875,-0.8080596923828125,3183.38282075,-2.69830323026942,0.08081920071982396,0.5973940983656659,0.01626715809106827,-0.04035621881484985,-0.006007124669849873,-0.002646863460540771,0.01495814323425293,0.01441347599029541,XArbitraryZVertical,-0.1023042807744835,0.2783542583925845,0.9289666291911622,-0.22152631646526,0.06674893945455551,-0.5624898076057434,-0.8241055011749268,0,0,0,-1,-1,3181.129808,walking,2,2022-05-12T10:38:34.749+02:00,2022-05-11T22:15:20.957+02:00,730,0.8999398,0.934817,1.179142,557.7667,0,0,2022-05-12T10:38:34.749+02:00,674037514.7488813,0,-0.9599991,100.9204,1,0.95
2022-05-12T10:38:37.034+02:00,1652344715.999944,53.22893825830261,10.39838983678296,39.0419,0,1,-1,-1,4,5,-9999,3183.40281075,0.049346923828125,-0.5585784912109375,-0.819610595703125,3183.39281575,-2.698199442396323,0.08016247312725595,0.5973578750394218,0.01175962388515472,-0.02261796779930592,-0.01113930251449347,-0.01216281205415726,0.02010089159011841,0.0211760401725769,XArbitraryZVertical,-0.102010089302705,0.2784047858900349,0.9289939895614197,-0.2214835810078157,0.0662093386054039,-0.5624598860740662,-0.8241694569587708,0,0,0,-1,-1,3181.129808,walking,2,2022-05-12T10:38:34.749+02:00,2022-05-11T22:15:20.957+02:00,730,0.8999398,0.934817,1.179142,557.7667,0,0,2022-05-12T10:38:34.749+02:00,674037514.7488813,0,-0.9599991,100.9204,1,0.95
2022-05-12T10:38:37.036+02:00,1652344715.999944,53.22893825830261,10.39838983678296,39.0419,0,1,-1,-1,4,5,-9999,3183.41280575,0.045623779296875,-0.563507080078125,-0.8394775390625,3183.40281075,-2.698416651627451,0.08015653383407401,0.5974096057406906,0.01329253986477852,-0.01720589026808739,-0.01371937245130539,-0.02106672525405884,0.009477734565734863,0.01608151197433472,XArbitraryZVertical,-0.1019822256927966,0.2784406690725864,0.9290107428292937,-0.2213811809251335,0.06620211899280548,-0.5625026226043701,-0.8241408467292786,0,0,0,-1,-1,3181.129808,walking,2,2022-05-12T10:38:34.749+02:00,2022-05-11T22:15:20.957+02:00,730,0.8999398,0.934817,1.179142,557.7667,0,0,2022-05-12T10:38:34.749+02:00,674037514.7488813,0,-0.9599991,100.9204,1,0.95
2022-05-12T10:38:37.043+02:00,1652344715.999944,53.22893825830261,10.39838983678296,39.0419,0,1,-1,-1,4,5,-9999,3183.42280075,0.0448760986328125,-0.5574951171875,-0.85076904296875,3183.41280575,-2.698558755366797,0.08005274415391669,0.5973483872941242,0.01196805015206337,-0.00418190099298954,-0.01795919239521027,-0.01677250862121582,0.003872931003570557,0.004571795463562012,XArbitraryZVertical,-0.1019081590722894,0.2784308076652253,0.9290407869800925,-0.221301550375933,0.06611933559179306,-0.5624520182609558,-0.8241820335388184,0,0,0,-1,-1,3181.129808,walking,2,2022-05-12T10:38:34.749+02:00,2022-05-11T22:15:20.957+02:00,730,0.8999398,0.934817,1.179142,557.7667,0,0,2022-05-12T10:38:34.749+02:00,674037514.7488813,0,-0.9599991,100.9204,1,0.95
2022-05-12T10:38:37.055+02:00,1652344715.999944,53.22893825830261,10.39838983678296,39.0419,0,1,-1,-1,4,5,-9999,3183.43279575,0.0579376220703125,-0.5635223388671875,-0.8563232421875,3183.42280075,-2.698681468651253,0.0800258488264068,0.5972934265652659,-0.00033522117882967,0.00768993841484189,-0.01227733865380287,-0.02047595381736755,-0.001101076602935791,-0.01526254415512085,XArbitraryZVertical,-0.1018731332088485,0.2784143582780504,0.929063856547203,-0.2212415592729585,0.06609963625669479,-0.562406599521637,-0.8242146372795105,0,0,0,-1,-1,3181.129808,walking,2,2022-05-12T10:38:34.749+02:00,2022-05-11T22:15:20.957+02:00,730,0.8999398,0.934817,1.179142,557.7667,0,0,2022-05-12T10:38:34.749+02:00,674037514.7488813,0,-0.9599991,100.9204,1,0.95
2022-05-12T10:38:37.063+02:00,1652344715.999944,53.22893825830261,10.39838983678296,39.0419,0,1,-1,-1,4,5,-9999,3183.44279075,0.0649871826171875,-0.56622314453125,-0.8516998291015625,3183.43279575,-2.698836776630318,0.080270569293706,0.5971400571300161,-0.003849295899271965,0.01587589457631111,-0.01445094309747219,-0.02143225818872452,0.004784047603607178,-0.02648431062698364,XArbitraryZVertical,-0.1019499969929297,0.2783235771232738,0.9290911570332577,-0.22120552945945,0.06630825251340866,-0.5622797608375549,-0.8242843747138977,0,0,0,-1,-1,3181.129808,walking,2,2022-05-12T10:38:34.749+02:00,2022-05-11T22:15:20.957+02:00,730,0.8999398,0.934817,1.179142,557.7667,0,0,2022-05-12T10:38:34.749+02:00,674037514.7488813,0,-0.9599991,100.9204,1,0.95
2022-05-12T10:38:37.073+02:00,1652344715.999944,53.22893825830261,10.39838983678296,39.0419,0,1,-1,-1,4,5,-9999,3183.45278475,0.0649871826171875,-0.5686492919921875,-0.841064453125,3183.44279075,-2.698982113752917,0.08046323779427095,0.5969876558648474,-0.004556897096335888,0.01933960244059563,-0.01737775653600693,-0.008536435663700104,-0.001369178295135498,-0.03196591138839722,XArbitraryZVertical,-0.1020041814521637,0.2782384891803766,0.929119888143255,-0.2211668770951904,0.06647395342588425,-0.562153697013855,-0.8243569731712341,0,0,0,-1,-1,3181.129808,walking,2,2022-05-12T10:38:34.749+02:00,2022-05-11T22:15:20.957+02:00,730,0.8999398,0.934817,1.179142,557.7667,0,0,2022-05-12T10:38:34.749+02:00,674037514.7488813,0,-0.9599991,100.9204,1,0.95
2022-05-12T10:38:37.083+02:00,1652344715.999944,53.22893825830261,10.39838983678296,39.0419,0,1,-1,-1,4,5,-9999,3183.46277975,0.0707855224609375,-0.5697784423828125,-0.8320465087890625,3183.45278475,-2.699178490460564,0.0806933720288934,0.5968890466678944,-0.009896301664412022,0.01269787922501564,-0.01946241408586502,-0.001681052148342133,-0.004151582717895508,-0.02730256319046021,XArbitraryZVertical,-0.1020740131440955,0.2781770040074382,0.9291443881362775,-0.2211089722513489,0.06666813045740128,-0.5620721578598022,-0.8243969082832336,0,0,0,-1,-1,3181.129808,walking,2,2022-05-12T10:38:34.749+02:00,2022-05-11T22:15:20.957+02:00,730,0.8999398,0.934817,1.179142,557.7667,0,0,2022-05-12T10:38:34.749+02:00,674037514.7488813,0,-0.9599991,100.9204,1,0.95
2022-05-12T10:38:37.093+02:00,1652344715.999944,53.22893825830261,10.39838983678296,39.0419,0,1,-1,-1,4,5,-9999,3183.47277475,0.0732421875,-0.567840576171875,-0.8244171142578125,3183.46277975,-2.699418586129292,0.08088542190282441,0.5967877009898711,-0.005755885504186153,-0.001380389323458076,-0.02501563727855682,-0.001843981444835663,-0.006661474704742432,-0.01662319898605347,XArbitraryZVertical,-0.1021198169404768,0.2781206756616228,0.929176101383017,-0.2210255122147059,0.06683105975389481,-0.561988353729248,-0.8244408369064331,0,0,0,-1,-1,3181.129808,walking,2,2022-05-12T10:38:34.749+02:00,2022-05-11T22:15:20.957+02:00,730,0.8999398,0.934817,1.179142,557.7667,0,0,2022-05-12T10:38:34.749+02:00,674037514.7488813,0,-0.9599991,100.9204,1,0.95
2022-05-12T10:38:37.103+02:00,1652344715.999944,53.22893825830261,10.39838983678296,39.0419,0,1,-1,-1,4,5,-9999,3183.48276975,0.072479248046875,-0.563323974609375,-0.8214569091796875,3183.47277475,-2.699711877322581,0.08095633903569369,0.596698350220854,-0.004994055721908808,-0.008909611031413078,-0.02960006892681122,0.003891840577125549,-0.007864594459533691,-0.00755995512008667,XArbitraryZVertical,-0.1021031485540818,0.2780860460727519,0.9292181280132203,-0.2209003442448613,0.06689358502626419,-0.5619144439697266,-0.8244861960411072,0,0,0,-1,-1,3181.129808,walking,2,2022-05-12T10:38:34.749+02:00,2022-05-11T22:15:20.957+02:00,730,0.8999398,0.934817,1.179142,557.7667,0,0,2022-05-12T10:38:34.749+02:00,674037514.7488813,0,-0.9599991,100.9204,1,0.95
2022-05-12T10:38:37.113+02:00,1652344715.999944,53.22893825830261,10.39838983678296,39.0419,0,1,-1,-1,4,5,-9999,3183.49276475,0.0749359130859375,-0.5610198974609375,-0.8250732421875,3183.48276975,-2.699940734989625,0.0808917626077244,0.5966492791907279,-0.004459558520466089,-0.008892567828297615,-0.02494699321687222,0.006399527192115784,-0.005967259407043457,0.0001012086868286133,XArbitraryZVertical,-0.1020364731676284,0.2780819659992189,0.9292538361006608,-0.220785621702269,0.06684257090091705,-0.5618738532066345,-0.8245179653167725,0,0,0,-1,-1,3181.129808,walking,2,2022-05-12T10:38:34.749+02:00,2022-05-11T22:15:20.957+02:00,730,0.8999398,0.934817,1.179142,557.7667,0,0,2022-05-12T10:38:34.749+02:00,674037514.7488813,0,-0.9599991,100.9204,1,0.95
2022-05-12T10:38:37.123+02:00,1652344715.999944,53.22893825830261,10.39838983678296,39.0419,0,1,-1,-1,4,5,-9999,3183.50275975,0.072509765625,-0.5568084716796875,-0.8270263671875,3183.49276475,-2.700188073658924,0.08084613075386514,0.5966041239875688,-0.006231892853975296,-0.009174862876534462,-0.03046799264848232,0.005672156810760498,-0.001488089561462402,0.003089785575866699,XArbitraryZVertical,-0.1019764213762362,0.2780785114914601,0.9292901404868441,-0.220664968524515,0.06680699437856674,-0.5618364810943604,-0.8245462775230408,0,0,0,-1,-1,3181.129808,walking,2,2022-05-12T10:38:34.749+02:00,2022-05-11T22:15:20.957+02:00,730,0.8999398,0.934817,1.179142,557.7667,0,0,2022-05-12T10:38:34.749+02:00,674037514.7488813,0,-0.9599991,100.9204,1,0.95
2022-05-12T10:38:37.133+02:00,1652344715.999944,53.22893825830261,10.39838983678296,39.0419,0,1,-1,-1,4,5,-9999,3183.51275475,0.07080078125,-0.5647430419921875,-0.8290252685546875,3183.50275975,-2.70042414951945,0.08067555060305234,0.5964465601584579,-0.01009826920926571,-0.01551877893507481,-0.03501800447702408,0.008262336254119873,0.0006856322288513184,-0.000426948070526123,XArbitraryZVertical,-0.1018487836908178,0.2780357208052641,0.9293481414371149,-0.2205336768265677,0.06667347252368927,-0.5617061257362366,-0.8246459364891052,0,0,0,-1,-1,3181.129808,walking,2,2022-05-12T10:38:34.749+02:00,2022-05-11T22:15:20.957+02:00,730,0.8999398,0.934817,1.179142,557.7667,0,0,2022-05-12T10:38:34.749+02:00,674037514.7488813,0,-0.9599991,100.9204,1,0.95
2022-05-12T10:38:37.151+02:00,1652344715.999944,53.22893825830261,10.39838983678296,39.0419,0,1,-1,-1,4,5,-9999,3183.52274975,0.0626068115234375,-0.5618896484375,-0.8352508544921875,3183.51275475,-2.700744140138973,0.08050932230203404,0.5961311365187497,-0.01304412540048361,-0.01435071602463722,-0.04238270968198776,0.005959019064903259,0.004636108875274658,-0.002192437648773193,XArbitraryZVertical,-0.1016959377162843,0.2779229255413692,0.9294383900742488,-0.2203660872730404,0.06655064225196838,-0.5614451169967651,-0.8248335719108582,0,0,0,-1,-1,3181.129808,walking,2,2022-05-12T10:38:34.749+02:00,2022-05-11T22:15:20.957+02:00,730,0.8999398,0.934817,1.179142,557.7667,0,0,2022-05-12T10:38:34.749+02:00,674037514.7488813,0,-0.9599991,100.9204,1,0.95
2022-05-12T10:38:37.153+02:00,1652344715.999944,53.22893825830261,10.39838983678296,39.0419,0,1,-1,-1,4,5,-9999,3183.53274475,0.0566864013671875,-0.5557861328125,-0.83721923828125,3183.52274975,-2.701183806992464,0.08054455930829425,0.5957689160290358,-0.02511836588382721,-0.01325349323451519,-0.04173529148101807,0.004204608500003815,-0.003598213195800781,-0.003991067409515381,XArbitraryZVertical,-0.1016155172274552,0.2777721292238617,0.9295383554281684,-0.2201714376488971,0.06659606099128723,-0.5611453652381897,-0.8250338435173035,0,0,0,-1,-1,3181.129808,walking,2,2022-05-12T10:38:34.749+02:00,2022-05-11T22:15:20.957+02:00,730,0.8999398,0.934817,1.179142,557.7667,0,0,2022-05-12T10:38:34.749+02:00,674037514.7488813,0,-0.9599991,100.9204,1,0.95
2022-05-12T10:38:37.163+02:00,1652344715.999944,53.22893825830261,10.39838983678296,39.0419,0,1,-1,-1,4,5,-9999,3183.54273975,0.0507354736328125,-0.561126708984375,-0.8408966064453125,3183.53274475,-2.701604843383509,0.08064144682017543,0.5953669722125237,-0.03075331449508667,-0.009574003517627716,-0.03904583305120468,-0.004087448120117188,-0.001077592372894287,-0.009998321533203125,XArbitraryZVertical,-0.1015624988462466,0.2775949864843383,0.9296389756817397,-0.2199945204462298,0.06669416278600693,-0.5608126521110535,-0.8252521753311157,0,0,0,-1,-1,3181.129808,walking,2,2022-05-12T10:38:34.749+02:00,2022-05-11T22:15:20.957+02:00,730,0.8999398,0.934817,1.179142,557.7667,0,0,2022-05-12T10:38:34.749+02:00,674037514.7488813,0,-0.9599991,100.9204,1,0.95
2022-05-12T10:38:37.173+02:00,1652344715.999944,53.22893825830261,10.39838983678296,39.0419,0,1,-1,-1,4,5,-9999,3183.55273475,0.0514678955078125,-0.5551910400390625,-0.8395233154296875,3183.54273975,-2.702002540795391,0.08076278602816568,0.5950023043919204,-0.03211339190602303,-0.007999809458851814,-0.03753902018070221,-0.01012449711561203,0.004723906517028809,-0.01177102327346802,XArbitraryZVertical,-0.1015278318185386,0.2774313732154232,0.9297302374154065,-0.2198312970163304,0.06681079417467117,-0.5605106353759766,-0.8254478573799133,0,0,0,-1,-1,3181.129808,walking,2,2022-05-12T10:38:34.749+02:00,2022-05-11T22:15:20.957+02:00,730,0.8999398,0.934817,1.179142,557.7667,0,0,2022-05-12T10:38:34.749+02:00,674037514.7488813,0,-0.9599991,100.9204,1,0.95
2022-05-12T10:38:37.183+02:00,1652344715.999944,53.22893825830261,10.39838983678296,39.0419,0,1,-1,-1,4,5,-9999,3183.56272975,0.0516815185546875,-0.5537872314453125,-0.8366241455078125,3183.55273475,-2.702437694487224,0.08096580346257173,0.5947170321040118,-0.02462787926197052,-0.004617793951183558,-0.03743468970060349,-0.0162559300661087,-0.0008528232574462891,-0.01530259847640991,XArbitraryZVertical,-0.101533816445153,0.2772978287526921,0.9298096381203091,-0.2196608311247114,0.06699129939079285,-0.5602744221687317,-0.8255935907363892,0,0,0,-1,-1,3181.129808,walking,2,2022-05-12T10:38:34.749+02:00,2022-05-11T22:15:20.957+02:00,730,0.8999398,0.934817,1.179142,557.7667,0,0,2022-05-12T10:38:34.749+02:00,674037514.7488813,0,-0.9599991,100.9204,1,0.95
2022-05-12T10:38:37.193+02:00,1652344715.999944,53.22893825830261,10.39838983678296,39.0419,0,1,-1,-1,4,5,-9999,3183.57272475,0.0518646240234375,-0.556182861328125,-0.833465576171875,3183.56272975,-2.702941062094087,0.08128891351403665,0.5945208407140189,-0.01656941883265972,0.003462236374616623,-0.04036629572510719,-0.01579918712377548,0.004920303821563721,-0.01384150981903076,XArbitraryZVertical,-0.1015949963405177,0.2771961704165266,0.9298774165946389,-0.2194741820884491,0.06726697832345963,-0.5601118803024292,-0.8256815075874329,0,0,0,-1,-1,3181.129808,walking,2,2022-05-12T10:38:34.749+02:00,2022-05-11T22:15:20.957+02:00,730,0.8999398,0.934817,1.179142,557.7667,0,0,2022-05-12T10:38:34.749+02:00,674037514.7488813,0,-0.9599991,100.9204,1,0.95
2022-05-12T10:38:37.203+02:00,1652344715.999944,53.22893825830261,10.39838983678296,39.0419,0,1,-1,-1,4,5,-9999,3183.58271975,0.0554351806640625,-0.5531463623046875,-0.833984375,3183.57272475,-2.703485826934744,0.08168416692393261,0.5944433957677452,9.30149108171463e-05,0.005124515388160944,-0.04490531980991364,-0.01591544598340988,0.006259918212890625,-0.01092571020126343,XArbitraryZVertical,-0.1016956813419573,0.2771442802699826,0.9299285062118403,-0.2192766843010088,0.06759686768054962,-0.5600477457046509,-0.8256980776786804,0,0,0,-1,-1,3181.129808,walking,2,2022-05-12T10:38:34.749+02:00,2022-05-11T22:15:20.957+02:00,730,0.8999398,0.934817,1.179142,557.7667,0,0,2022-05-12T10:38:34.749+02:00,674037514.7488813,0,-0.9599991,100.9204,1,0.95
2022-05-12T10:38:37.213+02:00,1652344715.999944,53.22893825830261,10.39838983678296,39.0419,0,1,-1,-1,4,5,-9999,3183.59271375,0.0582427978515625,-0.55950927734375,-0.836944580078125,3183.58271975,-2.704114192048819,0.08215290625172796,0.5944975425797892,0.01385223679244518,0.009254012256860733,-0.05007798224687576,-0.01611688733100891,0.003909170627593994,-0.007829129695892334,XArbitraryZVertical,-0.1018318559369993,0.2771502349131598,0.929965470806581,-0.219048727940521,0.06798140704631805,-0.560092568397522,-0.8256360292434692,0,0,0,-1,-1,3181.129808,walking,2,2022-05-12T10:38:34.749+02:00,2022-05-11T22:15:20.957+02:00,730,0.8999398,0.934817,1.179142,557.7667,0,0,2022-05-12T10:38:34.749+02:00,674037514.7488813,0,-0.9599991,100.9204,1,0.95
2022-05-12T10:38:37.223+02:00,1652344715.999944,53.22893825830261,10.39838983678296,39.0419,0,1,-1,-1,4,5,-9999,3183.60270875,0.0624847412109375,-0.5661773681640625,-0.83587646484375,3183.59271375,-2.704757227879871,0.08267004912503036,0.5945361164462509,0.007460915949195623,0.0160093866288662,-0.04798021167516708,-0.01297149807214737,0.006977558135986328,-0.008404731750488281,XArbitraryZVertical,-0.101986984307943,0.277144416829916,0.9300038659082092,-0.2188209206594421,0.06840658932924271,-0.5601245164871216,-0.8255792260169983,0,0,0,-1,-1,3181.129808,walking,2,2022-05-12T10:38:34.749+02:00,2022-05-11T22:15:20.957+02:00,730,0.8999398,0.934817,1.179142,557.7667,0,0,2022-05-12T10:38:34.749+02:00,674037514.7488813,0,-0.9599991,100.9204,1,0.95
2022-05-12T10:38:37.233+02:00,1652344715.999944,53.22893825830261,10.39838983678296,39.0419,0,1,-1,-1,4,5,-9999,3183.61270375,0.0660552978515625,-0.5673828125,-0.8366546630859375,3183.60270875,-2.705311336215026,0.08314558821461483,0.5945503853767776,-0.001089162658900023,0.01366580463945866,-0.04592105001211166,-0.01055581122636795,0.0006265640258789062,-0.01140552759170532,XArbitraryZVertical,-0.1021327244563039,0.2771273636732491,0.9300380871587811,-0.2186289653945345,0.06879851222038269,-0.5601363778114319,-0.8255386352539062,0,0,0,-1,-1,3181.129808,walking,2,2022-05-12T10:38:34.749+02:00,2022-05-11T22:15:20.957+02:00,730,0.8999398,0.934817,1.179142,557.7667,0,0,2022-05-12T10:38:34.749+02:00,674037514.7488813,0,-0.9599991,100.9204,1,0.95
2022-05-12T10:38:37.243+02:00,1652344715.999944,53.22893825830261,10.39838983678296,39.0419,0,1,-1,-1,4,5,-9999,3183.62269875,0.06591796875,-0.5605621337890625,-0.834197998046875,3183.61270375,-2.705806372721389,0.08351897493311369,0.594406101746152,-0.01253246609121561,0.01615459471940994,-0.04336528107523918,-0.006628856062889099,-0.006161093711853027,-0.01028263568878174,XArbitraryZVertical,-0.1022237298208843,0.2770443901191315,0.9300943019001093,-0.2184522251446799,0.06911349296569824,-0.5600168108940125,-0.8255934119224548,0,0,0,-1,-1,3181.129808,walking,2,2022-05-12T10:38:34.749+02:00,2022-05-11T22:15:20.957+02:00,730,0.8999398,0.934817,1.179142,557.7667,0,0,2022-05-12T10:38:34.749+02:00,674037514.7488813,0,-0.9599991,100.9204,1,0.95
2022-05-12T10:38:37.253+02:00,1652344715.999944,53.22893825830261,10.39838983678296,39.0419,0,1,-1,-1,4,5,-9999,3183.63269375,0.0716705322265625,-0.5606842041015625,-0.8329010009765625,3183.62269875,-2.706238764563456,0.08381288457115721,0.594118840264367,-0.0212085135281086,0.01186317764222622,-0.04146618396043777,-0.003314405679702759,-0.007604598999023438,-0.0109209418296814,XArbitraryZVertical,-0.1022726069763654,0.2769000255822301,0.9301688144430654,-0.2182953489180559,0.0693696066737175,-0.5597788095474243,-0.8257333636283875,0,0,0,-1,-1,3181.129808,walking,2,2022-05-12T10:38:34.749+02:00,2022-05-11T22:15:20.957+02:00,730,0.8999398,0.934817,1.179142,557.7667,0,0,2022-05-12T10:38:34.749+02:00,674037514.7488813,0,-0.9599991,100.9204,1,0.95
2022-05-12T10:38:37.263+02:00,1652344715.999944,53.22893825830261,10.39838983678296,39.0419,0,1,-1,-1,4,5,-9999,3183.64268875,0.069671630859375,-0.556365966796875,-0.8327484130859375,3183.63269375,-2.706612486477945,0.08395945274377059,0.5938229446995321,-0.0207323394715786,0.004084883257746696,-0.0408528558909893,-0.003586642444133759,-0.001029133796691895,-0.008309423923492432,XArbitraryZVertical,-0.1022603077957646,0.276764723563781,0.9302456512753972,-0.2181453869108123,0.069504514336586,-0.5595335960388184,-0.8258882164955139,0,0,0,-1,-1,3181.129808,walking,2,2022-05-12T10:38:34.749+02:00,2022-05-11T22:15:20.957+02:00,730,0.8999398,0.934817,1.179142,557.7667,0,0,2022-05-12T10:38:34.749+02:00,674037514.7488813,0,-0.9599991,100.9204,1,0.95
2022-05-12T10:38:37.273+02:00,1652344715.999944,53.22893825830261,10.39838983678296,39.0419,0,1,-1,-1,4,5,-9999,3183.65268375,0.0682525634765625,-0.551483154296875,-0.8314361572265625,3183.64268875,-2.706980584250363,0.08405698806830354,0.5935474271562113,-0.01119529362767935,0.001289895735681057,-0.04037801548838615,0.002072423696517944,-0.001379549503326416,-0.006865561008453369,XArbitraryZVertical,-0.1022280118800421,0.2766440255367144,0.9303212962037321,-0.2179909395955933,0.0695980116724968,-0.5593051910400391,-0.8260350227355957,0,0,0,-1,-1,3181.129808,walking,2,2022-05-12T10:38:34.749+02:00,2022-05-11T22:15:20.957+02:00,730,0.8999398,0.934817,1.179142,557.7667,0,0,2022-05-12T10:38:34.749+02:00,674037514.7488813,0,-0.9599991,100.9204,1,0.95
2022-05-12T10:38:37.283+02:00,1652344715.999944,53.22893825830261,10.39838983678296,39.0419,0,1,-1,-1,4,5,-9999,3183.66267875,0.070281982421875,-0.5506134033203125,-0.834014892578125,3183.65268375,-2.707337157924119,0.08409534942213236,0.5933671202684248,-0.0007213465869426727,-0.003101390320807695,-0.03649059683084488,3.33636999130249e-05,0.002789199352264404,-0.006615221500396729,XArbitraryZVertical,-0.1021790586156611,0.2765737239466347,0.9303846627315721,-0.2178324982352412,0.06963817030191422,-0.5591557621955872,-0.8261328339576721,0,0,0,-1,-1,3181.129808,walking,2,2022-05-12T10:38:34.749+02:00,2022-05-11T22:15:20.957+02:00,730,0.8999398,0.934817,1.179142,557.7667,0,0,2022-05-12T10:38:34.749+02:00,674037514.7488813,0,-0.9599991,100.9204,1,0.95
2022-05-12T10:38:37.292+02:00,1652344715.999944,53.22893825830261,10.39838983678296,39.0419,0,1,-1,-1,4,5,-9999,3183.67267375,0.073211669921875,-0.5538330078125,-0.832672119140625,3183.66267875,-2.707679192562094,0.08411510983809088,0.5933402580951266,0.006966666784137487,-0.009522005915641785,-0.03604558482766151,-0.001403287053108215,0.007649779319763184,-0.005289435386657715,XArbitraryZVertical,-0.1021383488093058,0.2765764972970151,0.9304247833242913,-0.2176763953608611,0.06965575367212296,-0.5591334700584412,-0.8261464238166809,0,0,0,-1,-1,3181.129808,walking,2,2022-05-12T10:38:34.749+02:00,2022-05-11T22:15:20.957+02:00,730,0.8999398,0.934817,1.179142,557.7667,0,0,2022-05-12T10:38:34.749+02:00,674037514.7488813,0,-0.9599991,100.9204,1,0.95
2022-05-12T10:38:37.302+02:00,1652344715.999944,53.22893825830261,10.39838983678296,39.0419,0,1,-1,-1,4,5,-9999,3183.68266875,0.072113037109375,-0.5617523193359375,-0.8291015625,3183.67267375,-2.708067790851626,0.08408745875410939,0.5933006460667293,0.008301709778606892,-0.01779831200838089,-0.03877319395542145,0.000647127628326416,0.008486688137054443,-0.007844150066375732,XArbitraryZVertical,-0.1020679112599759,0.2765808216369174,0.9304742630465037,-0.21749223398867,0.06963476538658142,-0.5591006278991699,-0.8261703848838806,0,0,0,-1,-1,3181.129808,walking,2,2022-05-12T10:38:34.749+02:00,2022-05-11T22:15:20.957+02:00,730,0.8999398,0.934817,1.179142,557.7667,0,0,2022-05-12T10:38:34.749+02:00,674037514.7488813,0,-0.9599991,100.9204,1,0.95
2022-05-12T10:38:37.313+02:00,1652344715.999944,53.22893825830261,10.39838983678296,39.0419,0,1,-1,-1,4,5,-9999,3183.69266375,0.069091796875,-0.5670013427734375,-0.8267974853515625,3183.68266875,-2.708512716441947,0.08402187218955326,0.5932839427673855,0.002643291372805834,-0.0262631680816412,-0.04446543380618095,0.003630205988883972,0.005253195762634277,-0.006487488746643066,XArbitraryZVertical,-0.1019742510135616,0.2766028197444136,0.9305284528853943,-0.2172763780371268,0.06958136707544327,-0.559086799621582,-0.8261842727661133,0,0,0,-1,-1,3181.129808,walking,2,2022-05-12T10:38:34.749+02:00,2022-05-11T22:15:20.957+02:00,730,0.8999398,0.934817,1.179142,557.7667,0,0,2022-05-12T10:38:37.308+02:00,674037517.3079062,0,-0.8899994,100.9185,1,0.95
2022-05-12T10:38:37.323+02:00,1652344715.999944,53.22893825830261,10.39838983678296,39.0419,0,1,-1,-1,4,5,-9999,3183.70265875,0.0675048828125,-0.5660552978515625,-0.8251800537109375,3183.69266375,-2.709003329449778,0.08397791768829183,0.5932210748953184,-0.009728523902595043,-0.02446333691477776,-0.04560719802975655,0.0025649294257164,-0.002718210220336914,-0.002878844738006592,XArbitraryZVertical,-0.1018798745943583,0.2766031813965508,0.9305931935114735,-0.2170427603524457,0.06954800337553024,-0.5590346455574036,-0.8262223601341248,0,0,0,-1,-1,3181.129808,walking,2,2022-05-12T10:38:34.749+02:00,2022-05-11T22:15:20.957+02:00,730,0.8999398,0.934817,1.179142,557.7667,0,0,2022-05-12T10:38:37.308+02:00,674037517.3079062,0,-0.8899994,100.9185,1,0.95
2022-05-12T10:38:37.333+02:00,1652344715.999944,53.22893825830261,10.39838983678296,39.0419,0,1,-1,-1,4,5,-9999,3183.71265375,0.06195068359375,-0.5641326904296875,-0.824737548828125,3183.70265875,-2.709465437242098,0.08393361352499461,0.5930198766430679,-0.02282275259494781,-0.03035265207290649,-0.04069313406944275,-0.0004291236400604248,-0.008134067058563232,-0.0004596114158630371,XArbitraryZVertical,-0.101775943702969,0.2765373525009089,0.9306751592681218,-0.216823984963718,0.06952082365751266,-0.5588678121566772,-0.8263375163078308,0,0,0,-1,-1,3181.129808,walking,2,2022-05-12T10:38:34.749+02:00,2022-05-11T22:15:20.957+02:00,730,0.8999398,0.934817,1.179142,557.7667,0,0,2022-05-12T10:38:37.308+02:00,674037517.3079062,0,-0.8899994,100.9185,1,0.95
2022-05-12T10:38:37.343+02:00,1652344715.999944,53.22893825830261,10.39838983678296,39.0419,0,1,-1,-1,4,5,-9999,3183.72264875,0.0543670654296875,-0.5656280517578125,-0.8279876708984375,3183.71265375,-2.709882057208495,0.08380664326799896,0.5926725969225235,-0.03078936785459518,-0.0328209362924099,-0.03828317299485207,-0.00192735344171524,-0.007476091384887695,0.001359999179840088,XArbitraryZVertical,-0.101625786770384,0.2764097751693422,0.9307777477693513,-0.2166166098361817,0.06943214684724808,-0.5585798025131226,-0.8265396952629089,0,0,0,-1,-1,3181.129808,walking,2,2022-05-12T10:38:34.749+02:00,2022-05-11T22:15:20.957+02:00,730,0.8999398,0.934817,1.179142,557.7667,0,0,2022-05-12T10:38:37.308+02:00,674037517.3079062,0,-0.8899994,100.9185,1,0.95
2022-05-12T10:38:37.353+02:00,1652344715.999944,53.22893825830261,10.39838983678296,39.0419,0,1,-1,-1,4,5,-9999,3183.73264275,0.0555877685546875,-0.55511474609375,-0.8229217529296875,3183.72264875,-2.710364287238887,0.08377592952862552,0.5923342725152539,-0.02685241401195526,-0.02895562350749969,-0.04371708631515503,-0.007471978664398193,-0.005834102630615234,0.001992940902709961,XArbitraryZVertical,-0.1015122791239484,0.2762792160400542,0.9308812310765811,-0.2163919196076349,0.06942257285118103,-0.5582991242408752,-0.8267301321029663,0,0,0,-1,-1,3181.129808,walking,2,2022-05-12T10:38:34.749+02:00,2022-05-11T22:15:20.957+02:00,730,0.8999398,0.934817,1.179142,557.7667,0,0,2022-05-12T10:38:37.308+02:00,674037517.3079062,0,-0.8899994,100.9185,1,0.95
2022-05-12T10:38:37.363+02:00,1652344715.999944,53.22893825830261,10.39838983678296,39.0419,0,1,-1,-1,4,5,-9999,3183.74263775,0.061370849609375,-0.552520751953125,-0.8241119384765625,3183.73264275,-2.710867828877255,0.08376163176481463,0.5920226129161551,-0.01895308122038841,-0.02884217351675034,-0.04844126477837563,-0.01505833864212036,-0.007588088512420654,-0.001082897186279297,XArbitraryZVertical,-0.1014060959044276,0.2761604583170241,0.9309820325163536,-0.2161591230335167,0.0694252997636795,-0.5580405592918396,-0.8269044160842896,0,0,0,-1,-1,3181.129808,walking,2,2022-05-12T10:38:34.749+02:00,2022-05-11T22:15:20.957+02:00,730,0.8999398,0.934817,1.179142,557.7667,0,0,2022-05-12T10:38:37.308+02:00,674037517.3079062,0,-0.8899994,100.9185,1,0.95
2022-05-12T10:38:37.373+02:00,1652344715.999944,53.22893825830261,10.39838983678296,39.0419,0,1,-1,-1,4,5,-9999,3183.75263275,0.061553955078125,-0.5481414794921875,-0.82452392578125,3183.74263775,-2.711409659390662,0.08374888010112591,0.5917820327891901,-0.006903875153511763,-0.03327074646949768,-0.04596878960728645,-0.01383832097053528,0.002725601196289062,0.004117727279663086,XArbitraryZVertical,-0.1013022387627964,0.2760766586173791,0.9310765166374815,-0.2159079381531607,0.06942598521709442,-0.557840883731842,-0.8270390629768372,0,0,0,-1,-1,3181.129808,walking,2,2022-05-12T10:38:34.749+02:00,2022-05-11T22:15:20.957+02:00,730,0.8999398,0.934817,1.179142,557.7667,0,0,2022-05-12T10:38:37.308+02:00,674037517.3079062,0,-0.8899994,100.9185,1,0.95
2022-05-12T10:38:37.383+02:00,1652344715.999944,53.22893825830261,10.39838983678296,39.0419,0,1,-1,-1,4,5,-9999,3183.76262775,0.0618438720703125,-0.55279541015625,-0.826568603515625,3183.75263275,-2.711985661310313,0.08370968080081538,0.5916251295543122,-8.921185508370399e-05,-0.03898635506629944,-0.04898115992546082,-0.008030131459236145,0.005189359188079834,0.003017425537109375,XArbitraryZVertical,-0.101189427893812,0.2760365793052602,0.9311636702522557,-0.215636189349485,0.06940088421106339,-0.5577106475830078,-0.8271290063858032,0,0,0,-1,-1,3181.129808,walking,2,2022-05-12T10:38:34.749+02:00,2022-05-11T22:15:20.957+02:00,730,0.8999398,0.934817,1.179142,557.7667,0,0,2022-05-12T10:38:37.308+02:00,674037517.3079062,0,-0.8899994,100.9185,1,0.95
2022-05-12T10:38:37.393+02:00,1652344715.999944,53.22893825830261,10.39838983678296,39.0419,0,1,-1,-1,4,5,-9999,3183.77262275,0.0588531494140625,-0.5605926513671875,-0.8314056396484375,3183.76262775,-2.712596602570379,0.08366287153939088,0.5915304706856358,-0.00394520303234458,-0.04211636632680893,-0.05193007737398148,-0.007812716066837311,0.009490013122558594,0.002661287784576416,XArbitraryZVertical,-0.1010742416474951,0.276028209764194,0.9312456986306804,-0.215346335411435,0.06936658173799515,-0.5576320886611938,-0.8271848559379578,0,0,0,-1,-1,3181.129808,walking,2,2022-05-12T10:38:34.749+02:00,2022-05-11T22:15:20.957+02:00,730,0.8999398,0.934817,1.179142,557.7667,0,0,2022-05-12T10:38:37.308+02:00,674037517.3079062,0,-0.8899994,100.9185,1,0.95
2022-05-12T10:38:37.403+02:00,1652344715.999944,53.22893825830261,10.39838983678296,39.0419,0,1,-1,-1,4,5,-9999,3183.78261775,0.0539703369140625,-0.566802978515625,-0.8341064453125,3183.77262275,-2.713222864349412,0.08356635498167325,0.5914463144211055,-0.00899016298353672,-0.04921448975801468,-0.05168772861361504,-0.007446885108947754,0.004766285419464111,0.0006700754165649414,XArbitraryZVertical,-0.1009348116842083,0.2760308383146889,0.9313302310074554,-0.2150423254680082,0.0692906528711319,-0.5575622320175171,-0.8272382616996765,0,0,0,-1,-1,3181.129808,walking,2,2022-05-12T10:38:34.749+02:00,2022-05-11T22:15:20.957+02:00,730,0.8999398,0.934817,1.179142,557.7667,0,0,2022-05-12T10:38:37.308+02:00,674037517.3079062,0,-0.8899994,100.9185,1,0.95
2022-05-12T10:38:37.413+02:00,1652344715.999944,53.22893825830261,10.39838983678296,39.0419,0,1,-1,-1,4,5,-9999,3183.79261275,0.0509033203125,-0.5634613037109375,-0.8267974853515625,3183.78261775,-2.713827724096811,0.0833988298358907,0.5913403049534136,-0.02018449455499649,-0.05148749798536301,-0.05013643577694893,-0.01030394434928894,-0.003118991851806641,-0.004096508026123047,XArbitraryZVertical,-0.10076318759906,0.2760296833451873,0.9314192337179625,-0.214738762741013,0.06915699690580368,-0.5574742555618286,-0.8273087739944458,0,0,0,-1,-1,3181.129808,walking,2,2022-05-12T10:38:34.749+02:00,2022-05-11T22:15:20.957+02:00,730,0.8999398,0.934817,1.179142,557.7667,0,0,2022-05-12T10:38:37.308+02:00,674037517.3079062,0,-0.8899994,100.9185,1,0.95
2022-05-12T10:38:37.423+02:00,1652344715.999944,53.22893825830261,10.39838983678296,39.0419,0,1,-1,-1,4,5,-9999,3183.80260775,0.04840087890625,-0.5657806396484375,-0.8162994384765625,3183.79261275,-2.714403278819715,0.08316279135776235,0.591139015922898,-0.02519503235816956,-0.05593697354197502,-0.04957570880651474,-0.01500079780817032,-0.009496390819549561,-0.006669163703918457,XArbitraryZVertical,-0.1005546144265582,0.275989727330977,0.9315223029185722,-0.2144404011125735,0.06897103786468506,-0.5573071241378784,-0.8274368643760681,0,0,0,-1,-1,3181.129808,walking,2,2022-05-12T10:38:34.749+02:00,2022-05-11T22:15:20.957+02:00,730,0.8999398,0.934817,1.179142,557.7667,0,0,2022-05-12T10:38:37.308+02:00,674037517.3079062,0,-0.8899994,100.9185,1,0.95
2022-05-12T10:38:37.433+02:00,1652344715.999944,53.22893825830261,10.39838983678296,39.0419,0,1,-1,-1,4,5,-9999,3183.81260275,0.0554046630859375,-0.561065673828125,-0.805450439453125,3183.80260775,-2.715007427776686,0.08290331243930769,0.5908469009907259,-0.03538268804550171,-0.05404426530003548,-0.06359325349330902,-0.0178665816783905,-0.006397366523742676,0.000819861888885498,XArbitraryZVertical,-0.1003225479250531,0.2759110293015724,0.9316428965595374,-0.2141265728224131,0.06876981258392334,-0.5570645332336426,-0.8276169896125793,0,0,0,-1,-1,3181.129808,walking,2,2022-05-12T10:38:34.749+02:00,2022-05-11T22:15:20.957+02:00,730,0.8999398,0.934817,1.179142,557.7667,0,0,2022-05-12T10:38:37.308+02:00,674037517.3079062,0,-0.8899994,100.9185,1,0.95
2022-05-12T10:38:37.443+02:00,1652344715.999944,53.22893825830261,10.39838983678296,39.0419,0,1,-1,-1,4,5,-9999,3183.82259775,0.0541839599609375,-0.5654144287109375,-0.8018035888671875,3183.81260275,-2.715749403278756,0.08268232573256615,0.5904884247717905,-0.03722716122865677,-0.0544106513261795,-0.07967695593833923,-0.02020261436700821,-0.009014427661895752,0.01153206825256348,XArbitraryZVertical,-0.100083133958076,0.2758039299718248,0.9317857848324272,-0.2137545266438492,0.06860340386629105,-0.5567668080329895,-0.8278310894966125,0,0,0,-1,-1,3181.129808,walking,2,2022-05-12T10:38:34.749+02:00,2022-05-11T22:15:20.957+02:00,730,0.8999398,0.934817,1.179142,557.7667,0,0,2022-05-12T10:38:37.308+02:00,674037517.3079062,0,-0.8899994,100.9185,1,0.95
2022-05-12T10:38:37.453+02:00,1652344715.999944,53.22893825830261,10.39838983678296,39.0419,0,1,-1,-1,4,5,-9999,3183.83259275,0.05194091796875,-0.56658935546875,-0.7967681884765625,3183.82259775,-2.716612785552535,0.08248050291699204,0.5899996240224278,-0.05752604082226753,-0.06589420139789581,-0.08213105797767639,-0.01305416971445084,-0.004705548286437988,0.02266597747802734,XArbitraryZVertical,-0.09982361590279375,0.2756396706463032,0.9319594313654116,-0.2133299253785955,0.06845874339342117,-0.5563607215881348,-0.8281160593032837,0,0,0,-1,-1,3181.129808,walking,2,2022-05-12T10:38:34.749+02:00,2022-05-11T22:15:20.957+02:00,730,0.8999398,0.934817,1.179142,557.7667,0,0,2022-05-12T10:38:37.308+02:00,674037517.3079062,0,-0.8899994,100.9185,1,0.95
2022-05-12T10:38:37.463+02:00,1652344715.999944,53.22893825830261,10.39838983678296,39.0419,0,1,-1,-1,4,5,-9999,3183.84258775,0.016876220703125,-0.59088134765625,-0.7890777587890625,3183.83259275,-2.717572343205927,0.08230274482817658,0.5892305573684763,-0.08045592159032822,-0.06742005795240402,-0.09821827709674835,-0.0141628235578537,-0.009693503379821777,0.02675116062164307,XArbitraryZVertical,-0.09953565347519079,0.275346040656441,0.9321829686642739,-0.2128670302596099,0.06834669411182404,-0.5557215213775635,-0.8285544514656067,0,0,0,-1,-1,3181.129808,walking,2,2022-05-12T10:38:34.749+02:00,2022-05-11T22:15:20.957+02:00,730,0.8999398,0.934817,1.179142,557.7667,0,0,2022-05-12T10:38:37.308+02:00,674037517.3079062,0,-0.8899994,100.9185,1,0.95
2022-05-12T10:38:37.474+02:00,1652344715.999944,53.22893825830261,10.39838983678296,39.0419,0,1,-1,-1,4,5,-9999,3183.85258275,0.03289794921875,-0.562042236328125,-0.782806396484375,3183.84258775,-2.719239693477636,0.0825093766500693,0.5881190033232536,-0.1326770484447479,-0.06021274626255035,-0.2735951542854309,-0.01662794500589371,-0.01179283857345581,0.03238755464553833,XArbitraryZVertical,-0.09929750607402898,0.2748860221701317,0.9325118987004787,-0.2121305543326009,0.06856876611709595,-0.5547970533370972,-0.8291553854942322,0,0,0,-1,-1,3181.129808,walking,2,2022-05-12T10:38:34.749+02:00,2022-05-11T22:15:20.957+02:00,730,0.8999398,0.934817,1.179142,557.7667,0,0,2022-05-12T10:38:37.308+02:00,674037517.3079062,0,-0.8899994,100.9185,1,0.95
2022-05-12T10:38:37.483+02:00,1652344715.999944,53.22893825830261,10.39838983678296,39.0419,0,1,-1,-1,4,5,-9999,3183.86257675,0.049285888671875,-0.58551025390625,-0.77978515625,3183.85258275,-2.721306910349516,0.0832153864835566,0.5864893506269062,-0.170517161488533,-0.0515914261341095,-0.1417512446641922,-0.05235306918621063,-0.03744149208068848,0.04092925786972046,XArbitraryZVertical,-0.09918962033674389,0.2741497603989088,0.9329329228089789,-0.2112811017894482,0.06922920048236847,-0.5534404516220093,-0.8300066590309143,0,0,0,-1,-1,3181.129808,walking,2,2022-05-12T10:38:34.749+02:00,2022-05-11T22:15:20.957+02:00,730,0.8999398,0.934817,1.179142,557.7667,0,0,2022-05-12T10:38:37.308+02:00,674037517.3079062,0,-0.8899994,100.9185,1,0.95
2022-05-12T10:38:37.493+02:00,1652344715.999944,53.22893825830261,10.39838983678296,39.0419,0,1,-1,-1,4,5,-9999,3183.87257175,0.013641357421875,-0.5857086181640625,-0.7708892822265625,3183.86257675,-2.72315518126676,0.08363059466796176,0.5846361189857039,-0.1851909160614014,-0.06222729384899139,-0.2003786116838455,-0.03676151484251022,-0.01014679670333862,0.04819238185882568,XArbitraryZVertical,-0.0989567772498393,0.2733282395230838,0.9333762363913112,-0.2104949652062213,0.06965937465429306,-0.5518959760665894,-0.8309984803199768,0,0,0,-1,-1,3181.129808,walking,2,2022-05-12T10:38:34.749+02:00,2022-05-11T22:15:20.957+02:00,730,0.8999398,0.934817,1.179142,557.7667,0,0,2022-05-12T10:38:37.308+02:00,674037517.3079062,0,-0.8899994,100.9185,1,0.95
2022-05-12T10:38:37.503+02:00,1652344715.999944,53.22893825830261,10.39838983678296,39.0419,0,1,-1,-1,4,5,-9999,3183.88256675,-0.03216552734375,-0.6070098876953125,-0.7509613037109375,3183.87257175,-2.725477188022637,0.0840773868677523,0.5824738717882519,-0.2346902042627335,-0.08287404477596283,-0.2290890067815781,-0.02084490656852722,-0.03541922569274902,0.05236965417861938,XArbitraryZVertical,-0.09864703888512787,0.2723812541503978,0.9339109331176894,-0.209493853446165,0.07013069838285446,-0.550091564655304,-0.8321544528007507,0,0,0,-1,-1,3181.129808,walking,2,2022-05-12T10:38:34.749+02:00,2022-05-11T22:15:20.957+02:00,730,0.8999398,0.934817,1.179142,557.7667,0,0,2022-05-12T10:38:37.308+02:00,674037517.3079062,0,-0.8899994,100.9185,1,0.95
2022-05-12T10:38:37.513+02:00,1652344715.999944,53.22893825830261,10.39838983678296,39.0419,0,1,-1,-1,4,5,-9999,3183.89256175,-0.0133514404296875,-0.601287841796875,-0.736053466796875,3183.88256675,-2.728367994886278,0.08453693170134201,0.5795229009718249,-0.3320330083370209,-0.09633100032806396,-0.2914490401744843,-0.05700859427452087,-0.03808438777923584,0.0628470778465271,XArbitraryZVertical,-0.09819562056030676,0.2710896705748892,0.9346157526430459,-0.2082345714020406,0.07064986228942871,-0.5476248264312744,-0.8337360024452209,0,0,0,-1,-1,3181.129808,walking,2,2022-05-12T10:38:34.749+02:00,2022-05-11T22:15:20.957+02:00,730,0.8999398,0.934817,1.179142,557.7667,0,0,2022-05-12T10:38:37.308+02:00,674037517.3079062,0,-0.8899994,100.9185,1,0.95
2022-05-12T10:38:37.522+02:00,1652344715.999944,53.22893825830261,10.39838983678296,39.0419,0,1,-1,-1,4,5,-9999,3183.90255675,-0.0626220703125,-0.56817626953125,-0.718841552734375,3183.89256175,-2.731320891622298,0.08493590816019668,0.5759020167917422,-0.3744850754737854,-0.1244925335049629,-0.2859640717506409,-0.1033158600330353,-0.06241893768310547,0.08471709489822388,XArbitraryZVertical,-0.09765001381075139,0.2694910973041095,0.9354221400363393,-0.2069413786484419,0.07115025073289871,-0.5445915460586548,-0.8356780409812927,0,0,0,-1,-1,3181.129808,walking,2,2022-05-12T10:38:34.749+02:00,2022-05-11T22:15:20.957+02:00,730,0.8999398,0.934817,1.179142,557.7667,0,0,2022-05-12T10:38:37.308+02:00,674037517.3079062,0,-0.8899994,100.9185,1,0.95
2022-05-12T10:38:37.533+02:00,1652344715.999944,53.22893825830261,10.39838983678296,39.0419,0,1,-1,-1,4,5,-9999,3183.91255175,-0.0802459716796875,-0.571075439453125,-0.703460693359375,3183.90255675,-2.734250528680244,0.08503822004161744,0.5720163523325026,-0.3966929018497467,-0.14385025203228,-0.2897606790065765,-0.08476646244525909,-0.05995988845825195,0.1017197370529175,XArbitraryZVertical,-0.0969493563384403,0.2677954048856711,0.9362733514455375,-0.2056182662373606,0.07141494750976562,-0.5413285493850708,-0.8377729058265686,0,0,0,-1,-1,3181.129808,walking,2,2022-05-12T10:38:34.749+02:00,2022-05-11T22:15:20.957+02:00,730,0.8999398,0.934817,1.179142,557.7667,0,0,2022-05-12T10:38:37.308+02:00,674037517.3079062,0,-0.8899994,100.9185,1,0.95
2022-05-12T10:38:37.543+02:00,1652344715.999944,53.22893825830261,10.39838983678296,39.0419,0,1,-1,-1,4,5,-9999,3183.92254675,-0.093536376953125,-0.583038330078125,-0.6810760498046875,3183.91255175,-2.737694074972914,0.08549824490649824,0.5678580350134979,-0.4069930911064148,-0.1399668157100677,-0.3551484644412994,-0.1346140801906586,-0.03034937381744385,0.1211342811584473,XArbitraryZVertical,-0.09632818309014986,0.2659570155490639,0.9371929973047494,-0.2041011436532742,0.0719919353723526,-0.5378274917602539,-0.8399754762649536,0,0,0,-1,-1,3181.129808,walking,2,2022-05-12T10:38:34.749+02:00,2022-05-11T22:15:20.957+02:00,730,0.8999398,0.934817,1.179142,557.7667,0,0,2022-05-12T10:38:37.308+02:00,674037517.3079062,0,-0.8899994,100.9185,1,0.95
2022-05-12T10:38:37.552+02:00,1652344715.999944,53.22893825830261,10.39838983678296,39.0419,0,1,-1,-1,4,5,-9999,3183.93254175,-0.1005706787109375,-0.586669921875,-0.6762237548828125,3183.92254675,-2.741709187913385,0.08620080537988098,0.5633732541838059,-0.4415406882762909,-0.1517907381057739,-0.4005899727344513,-0.153035044670105,-0.03703486919403076,0.1388590335845947,XArbitraryZVertical,-0.09572256762858893,0.2639649945701373,0.9381983052450185,-0.2023459935805814,0.07278898358345032,-0.534041166305542,-0.8423193693161011,0,0,0,-1,-1,3181.129808,walking,2,2022-05-12T10:38:34.749+02:00,2022-05-11T22:15:20.957+02:00,730,0.8999398,0.934817,1.179142,557.7667,0,0,2022-05-12T10:38:37.308+02:00,674037517.3079062,0,-0.8899994,100.9185,1,0.95
2022-05-12T10:38:37.562+02:00,1652344715.999944,53.22893825830261,10.39838983678296,39.0419,0,1,-1,-1,4,5,-9999,3183.94253675,-0.1047515869140625,-0.583282470703125,-0.669403076171875,3183.93254175,-2.746261479419867,0.08712683508542847,0.5584444710991914,-0.4747091233730316,-0.150587722659111,-0.4510247409343719,-0.167333573102951,-0.05317127704620361,0.1637877821922302,XArbitraryZVertical,-0.09512061645592775,0.2617638505333363,0.9393007188575373,-0.2003649758576329,0.07379711419343948,-0.5298676490783691,-0.8448635339736938,0,0,0,-1,-1,3181.129808,walking,2,2022-05-12T10:38:34.749+02:00,2022-05-11T22:15:20.957+02:00,730,0.8999398,0.934817,1.179142,557.7667,0,0,2022-05-12T10:38:37.308+02:00,674037517.3079062,0,-0.8899994,100.9185,1,0.95
2022-05-12T10:38:37.573+02:00,1652344715.999944,53.22893825830261,10.39838983678296,39.0419,0,1,-1,-1,4,5,-9999,3183.9525315,-0.1060943603515625,-0.61578369140625,-0.6712646484375,3183.94253675,-2.751379927263426,0.08821278105902887,0.552963485536947,-0.551896333694458,-0.1834873408079147,-0.5247961282730103,-0.175540030002594,-0.06145912408828735,0.1714396476745605,XArbitraryZVertical,-0.09448275766926806,0.2593096267021732,0.9405181801762733,-0.1981342344819951,0.07496927678585052,-0.5252113938331604,-0.8476630449295044,0,0,0,-1,-1,3181.129808,walking,2,2022-05-12T10:38:34.749+02:00,2022-05-11T22:15:20.957+02:00,730,0.8999398,0.934817,1.179142,557.7667,0,0,2022-05-12T10:38:37.308+02:00,674037517.3079062,0,-0.8899994,100.9185,1,0.95
2022-05-12T10:38:37.582+02:00,1652344715.999944,53.22893825830261,10.39838983678296,39.0419,0,1,-1,-1,4,5,-9999,3183.9625265,-0.0897064208984375,-0.596405029296875,-0.6862945556640625,3183.9525315,-2.757132409761214,0.08947061726896399,0.546572401855358,-0.616288423538208,-0.1694799810647964,-0.5569438934326172,-0.181085467338562,-0.06352096796035767,0.1814913153648376,XArbitraryZVertical,-0.09377945744874312,0.2564340306244234,0.941901891001235,-0.1956220321705856,0.07633380591869354,-0.5197620391845703,-0.8508939743041992,0,0,0,-1,-1,3181.129808,walking,2,2022-05-12T10:38:34.749+02:00,2022-05-11T22:15:20.957+02:00,730,0.8999398,0.934817,1.179142,557.7667,0,0,2022-05-12T10:38:37.308+02:00,674037517.3079062,0,-0.8899994,100.9185,1,0.95
2022-05-12T10:38:37.593+02:00,1652344715.999944,53.22893825830261,10.39838983678296,39.0419,0,1,-1,-1,4,5,-9999,3183.9725215,-0.0970306396484375,-0.5663604736328125,-0.7230072021484375,3183.9625265,-2.763360974269776,0.09086042109786738,0.5395841009963996,-0.6683268547058105,-0.2166094034910202,-0.6105344295501709,-0.1839384138584137,-0.1020050644874573,0.1831192374229431,XArbitraryZVertical,-0.09304497964936456,0.2532802013887016,0.9433899193451545,-0.1928919197334693,0.07784398645162582,-0.5137792229652405,-0.8543835282325745,0,0,0,-1,-1,3181.129808,walking,2,2022-05-12T10:38:34.749+02:00,2022-05-11T22:15:20.957+02:00,730,0.8999398,0.934817,1.179142,557.7667,0,0,2022-05-12T10:38:37.308+02:00,674037517.3079062,0,-0.8899994,100.9185,1,0.95
2022-05-12T10:38:37.603+02:00,1652344715.999944,53.22893825830261,10.39838983678296,39.0419,0,1,-1,-1,4,5,-9999,3183.9825165,-0.103485107421875,-0.5340576171875,-0.756561279296875,3183.9725215,-2.77004385844282,0.09210159967409869,0.5323689396054151,-0.6598394513130188,-0.2220704853534698,-0.6711463928222656,-0.1689497232437134,-0.08882975578308105,0.1716610789299011,XArbitraryZVertical,-0.09218531393971634,0.250048414609681,0.9449392914467498,-0.1899148231226376,0.0792432501912117,-0.5075758695602417,-0.8579553365707397,0,0,0,-1,-1,3181.129808,walking,2,2022-05-12T10:38:34.749+02:00,2022-05-11T22:15:20.957+02:00,730,0.8999398,0.934817,1.179142,557.7667,0,0,2022-05-12T10:38:37.308+02:00,674037517.3079062,0,-0.8899994,100.9185,1,0.95
2022-05-12T10:38:37.613+02:00,1652344715.999944,53.22893825830261,10.39838983678296,39.0419,0,1,-1,-1,4,5,-9999,3183.9925115,-0.1283416748046875,-0.55615234375,-0.8251800537109375,3183.9825165,-2.777551813119119,0.0933334621198196,0.5252383017416905,-0.6563853621482849,-0.2865328192710876,-0.7656049728393555,-0.177666038274765,-0.0649418830871582,0.1384319067001343,XArbitraryZVertical,-0.09124889556401376,0.2468891550363686,0.9465335035882702,-0.1865309415715901,0.08063533902168274,-0.5014191865921021,-0.8614387512207031,0,0,0,-1,-1,3181.129808,walking,2,2022-05-12T10:38:34.749+02:00,2022-05-11T22:15:20.957+02:00,730,0.8999398,0.934817,1.179142,557.7667,0,0,2022-05-12T10:38:37.308+02:00,674037517.3079062,0,-0.8899994,100.9185,1,0.95
2022-05-12T10:38:37.622+02:00,1652344715.999944,53.22893825830261,10.39838983678296,39.0419,0,1,-1,-1,4,5,-9999,3184.0025055,-0.141357421875,-0.522796630859375,-0.8452911376953125,3183.9925115,-2.786074287958027,0.09472224710519543,0.5183416240745673,-0.5694162249565125,-0.2870374917984009,-0.8175853490829468,-0.185641884803772,-0.03861793875694275,0.1081871390342712,XArbitraryZVertical,-0.09030679834903006,0.2438660326861626,0.9481593265363613,-0.1826694046039176,0.08215674012899399,-0.495440274477005,-0.8647480607032776,0,0,0,-1,-1,3181.129808,walking,2,2022-05-12T10:38:34.749+02:00,2022-05-11T22:15:20.957+02:00,730,0.8999398,0.934817,1.179142,557.7667,0,0,2022-05-12T10:38:37.308+02:00,674037517.3079062,0,-0.8899994,100.9185,1,0.95
2022-05-12T10:38:37.633+02:00,1652344715.999944,53.22893825830261,10.39838983678296,39.0419,0,1,-1,-1,4,5,-9999,3184.0125005,-0.1401519775390625,-0.540496826171875,-0.8717803955078125,3184.0025055,-2.795296648308841,0.0963067847874596,0.5119437616367061,-0.5642585158348083,-0.3254565298557281,-0.9203298091888428,-0.212171658873558,-0.06628018617630005,0.04257440567016602,XArbitraryZVertical,-0.08943947082233077,0.2410881504290598,0.9497480295980291,-0.1784823799674783,0.08382994681596756,-0.4898727238178253,-0.8677541613578796,0,0,0,-1,-1,3181.129808,walking,2,2022-05-12T10:38:34.749+02:00,2022-05-11T22:15:20.957+02:00,730,0.8999398,0.934817,1.179142,557.7667,0,0,2022-05-12T10:38:37.308+02:00,674037517.3079062,0,-0.8899994,100.9185,1,0.95
2022-05-12T10:38:37.644+02:00,1652344715.999944,53.22893825830261,10.39838983678296,39.0419,0,1,-1,-1,4,5,-9999,3184.0224955,-0.1731414794921875,-0.56170654296875,-0.9101104736328125,3184.0125005,-2.805705712480648,0.0978316940963259,0.5055976193747048,-0.5149335265159607,-0.3784158229827881,-1.01523220539093,-0.2268124967813492,-0.03846684098243713,0.02541095018386841,XArbitraryZVertical,-0.08843410985173361,0.2383873577387406,0.9514079257347022,-0.1737063451855231,0.0854550302028656,-0.4843303859233856,-0.8707017302513123,0,0,0,-1,-1,3181.129808,walking,2,2022-05-12T10:38:34.749+02:00,2022-05-11T22:15:20.957+02:00,730,0.8999398,0.934817,1.179142,557.7667,0,0,2022-05-12T10:38:37.308+02:00,674037517.3079062,0,-0.8899994,100.9185,1,0.95
2022-05-12T10:38:37.653+02:00,1652344715.999944,53.22893825830261,10.39838983678296,39.0419,0,1,-1,-1,4,5,-9999,3184.0324905,-0.1801300048828125,-0.5573272705078125,-0.9026641845703125,3184.0224955,-2.816927920761247,0.09973313316744273,0.4999757137092395,-0.3972057998180389,-0.2734878063201904,-1.031043171882629,-0.2275322079658508,-0.06109318137168884,0.001453220844268799,XArbitraryZVertical,-0.08759541825515692,0.2360305214051774,0.9529955962436084,-0.1685712042329336,0.08738020062446594,-0.4794042110443115,-0.8732332587242126,0,0,0,-1,-1,3181.129808,walking,2,2022-05-12T10:38:34.749+02:00,2022-05-11T22:15:20.957+02:00,730,0.8999398,0.934817,1.179142,557.7667,0,0,2022-05-12T10:38:37.308+02:00,674037517.3079062,0,-0.8899994,100.9185,1,0.95
2022-05-12T10:38:37.663+02:00,1652344715.999944,53.22893825830261,10.39838983678296,39.0419,0,1,-1,-1,4,5,-9999,3184.0424855,-0.1377716064453125,-0.551116943359375,-0.9082489013671875,3184.0324905,-2.82870859637505,0.1019755078771979,0.495147404466225,-0.3696276247501373,-0.4153230488300323,-1.150919675827026,-0.2627142071723938,-0.08654579520225525,-0.0347825288772583,XArbitraryZVertical,-0.08693897639450197,0.2340465788222026,0.9544796840482191,-0.1631946302505383,0.08957268297672272,-0.4751613438129425,-0.8753276467323303,0,0,0,-1,-1,3181.129808,walking,2,2022-05-12T10:38:34.749+02:00,2022-05-11T22:15:20.957+02:00,730,0.8999398,0.934817,1.179142,557.7667,0,0,2022-05-12T10:38:37.308+02:00,674037517.3079062,0,-0.8899994,100.9185,1,0.95
2022-05-12T10:38:37.673+02:00,1652344715.999944,53.22893825830261,10.39838983678296,39.0419,0,1,-1,-1,4,5,-9999,3184.0524805,-0.202667236328125,-0.549163818359375,-0.9072113037109375,3184.0424855,-2.841910649329669,0.103106145849399,0.4904300889615895,-0.3316658437252045,-0.5858226418495178,-1.252182364463806,-0.2709220051765442,-0.08632254600524902,-0.02521824836730957,XArbitraryZVertical,-0.08562061138436587,0.2322633979936758,0.9560734796408082,-0.1569924320460581,0.09079200029373169,-0.4710053205490112,-0.8774456381797791,0,0,0,-1,-1,3181.129808,walking,2,2022-05-12T10:38:34.749+02:00,2022-05-11T22:15:20.957+02:00,730,0.8999398,0.934817,1.179142,557.7667,0,0,2022-05-12T10:38:37.308+02:00,674037517.3079062,0,-0.8899994,100.9185,1,0.95
2022-05-12T10:38:37.683+02:00,1652344715.999944,53.22893825830261,10.39838983678296,39.0419,0,1,-1,-1,4,5,-9999,3184.0624755,-0.23651123046875,-0.5647735595703125,-0.9127655029296875,3184.0524805,-2.856052754478835,0.1034124318082235,0.4857736515803982,-0.3339747190475464,-0.6727575659751892,-1.330886721611023,-0.2290577590465546,-0.08422490954399109,-0.02865880727767944,XArbitraryZVertical,-0.0838304735268009,0.2306026205031524,0.9577195129002122,-0.1502281342825895,0.09128616005182266,-0.4668926596641541,-0.8795897364616394,0,0,0,-1,-1,3181.129808,walking,2,2022-05-12T10:38:34.749+02:00,2022-05-11T22:15:20.957+02:00,730,0.8999398,0.934817,1.179142,557.7667,0,0,2022-05-12T10:38:37.308+02:00,674037517.3079062,0,-0.8899994,100.9185,1,0.95
2022-05-12T10:38:37.693+02:00,1652344715.999944,53.22893825830261,10.39838983678296,39.0419,0,1,-1,-1,4,5,-9999,3184.0724705,-0.264556884765625,-0.5785675048828125,-0.923614501953125,3184.0624755,-2.871127090014308,0.1034010790359828,0.4808547591543375,-0.3768990337848663,-0.7212300300598145,-1.430026650428772,-0.2941793501377106,-0.08662721514701843,-0.02534651756286621,XArbitraryZVertical,-0.08179319662822382,0.2288616405725999,0.9594239802178036,-0.1429610439356212,0.09151211380958557,-0.4625371694564819,-0.8818644285202026,0,0,0,-1,-1,3181.129808,walking,2,2022-05-12T10:38:34.749+02:00,2022-05-11T22:15:20.957+02:00,730,0.8999398,0.934817,1.179142,557.7667,0,0,2022-05-12T10:38:37.308+02:00,674037517.3079062,0,-0.8899994,100.9185,1,0.95
2022-05-12T10:38:37.703+02:00,1652344715.999944,53.22893825830261,10.39838983678296,39.0419,0,1,-1,-1,4,5,-9999,3184.0824655,-0.2944793701171875,-0.5984344482421875,-0.9367218017578125,3184.0724705,-2.887102463308933,0.1033388086422586,0.4754091147031743,-0.4171046018600464,-0.7575743794441223,-1.507428765296936,-0.3282268941402435,-0.1070719361305237,-0.02840274572372437,XArbitraryZVertical,-0.07963039742010841,0.2268871498626691,0.9611938536265031,-0.1352320501421339,0.09171567112207413,-0.4577022194862366,-0.8843624591827393,0,0,0,-1,-1,3181.129808,walking,2,2022-05-12T10:38:34.749+02:00,2022-05-11T22:15:20.957+02:00,730,0.8999398,0.934817,1.179142,557.7667,0,0,2022-05-12T10:38:37.308+02:00,674037517.3079062,0,-0.8899994,100.9185,1,0.95
2022-05-12T10:38:37.713+02:00,1652344715.999944,53.22893825830261,10.39838983678296,39.0419,0,1,-1,-1,4,5,-9999,3184.0924605,-0.3252716064453125,-0.616790771484375,-0.9499969482421875,3184.0824655,-2.90392624276389,0.1032961056336904,0.4694124261602721,-0.4705643653869629,-0.783898651599884,-1.598292350769043,-0.3565161228179932,-0.1262057423591614,-0.0365336537361145,XArbitraryZVertical,-0.07738934142121125,0.2246567201053809,0.9630126213812348,-0.1270706714157947,0.09195926785469055,-0.4523623585700989,-0.8870804905891418,0,0,0,-1,-1,3181.129808,walking,2,2022-05-12T10:38:34.749+02:00,2022-05-11T22:15:20.957+02:00,730,0.8999398,0.934817,1.179142,557.7667,0,0,2022-05-12T10:38:37.308+02:00,674037517.3079062,0,-0.8899994,100.9185,1,0.95
2022-05-12T10:38:37.723+02:00,1652344715.999944,53.22893825830261,10.39838983678296,39.0419,0,1,-1,-1,4,5,-9999,3184.1024555,-0.3659515380859375,-0.6275787353515625,-0.9783782958984375,3184.0924605,-2.921703540904397,0.1032518592352295,0.4626548772245506,-0.5459743738174438,-0.8249524831771851,-1.700485110282898,-0.3867123126983643,-0.1521096229553223,-0.04661661386489868,XArbitraryZVertical,-0.07504787381945364,0.2220706634716062,0.9648988230824314,-0.1184177807394704,0.09223297983407974,-0.4463254511356354,-0.8901048898696899,0,0,0,-1,-1,3181.129808,walking,2,2022-05-12T10:38:34.749+02:00,2022-05-11T22:15:20.957+02:00,730,0.8999398,0.934817,1.179142,557.7667,0,0,2022-05-12T10:38:37.308+02:00,674037517.3079062,0,-0.8899994,100.9185,1,0.95
2022-05-12T10:38:37.733+02:00,1652344715.999944,53.22893825830261,10.39838983678296,39.0419,0,1,-1,-1,4,5,-9999,3184.1124505,-0.405181884765625,-0.6253204345703125,-1.013687133789062,3184.1024555,-2.940635007396939,0.1033352060615105,0.4550289165944294,-0.6207311749458313,-0.8238150477409363,-1.838712215423584,-0.4179271161556244,-0.1773030757904053,-0.05653989315032959,XArbitraryZVertical,-0.07265532998348356,0.2190726067519853,0.9668543698828806,-0.1091845151345795,0.09265557676553726,-0.4394882917404175,-0.8934568166732788,0,0,0,-1,-1,3181.129808,walking,2,2022-05-12T10:38:34.749+02:00,2022-05-11T22:15:20.957+02:00,730,0.8999398,0.934817,1.179142,557.7667,0,0,2022-05-12T10:38:37.308+02:00,674037517.3079062,0,-0.8899994,100.9185,1,0.95
2022-05-12T10:38:37.743+02:00,1652344715.999944,53.22893825830261,10.39838983678296,39.0419,0,1,-1,-1,4,5,-9999,3184.1224455,-0.4408416748046875,-0.6198577880859375,-1.05767822265625,3184.1124505,-2.960852279947318,0.1039893617345391,0.4466503380016003,-0.6676157712936401,-0.82186359167099,-1.970440745353699,-0.459570437669754,-0.1956324577331543,-0.08135104179382324,XArbitraryZVertical,-0.07043416341697782,0.2156977816874395,0.9688360492520958,-0.09935045822771241,0.0936189666390419,-0.4319469034671783,-0.8970270156860352,0,0,0,-1,-1,3181.129808,walking,2,2022-05-12T10:38:34.749+02:00,2022-05-11T22:15:20.957+02:00,730,0.8999398,0.934817,1.179142,557.7667,0,0,2022-05-12T10:38:37.308+02:00,674037517.3079062,0,-0.8899994,100.9185,1,0.95
2022-05-12T10:38:37.753+02:00,1652344715.999944,53.22893825830261,10.39838983678296,39.0419,0,1,-1,-1,4,5,-9999,3184.1324405,-0.478271484375,-0.6157379150390625,-1.10675048828125,3184.1224455,-2.982716078753858,0.1052821900441355,0.4376804696649892,-0.6979523301124573,-0.798632025718689,-2.154067516326904,-0.5003637671470642,-0.2014813125133514,-0.1129647493362427,XArbitraryZVertical,-0.06840376447424924,0.2120374272415755,0.9708172252995481,-0.08874181662582156,0.09518193453550339,-0.4238397181034088,-0.9007220864295959,0,0,0,-1,-1,3181.129808,walking,2,2022-05-12T10:38:34.749+02:00,2022-05-11T22:15:20.957+02:00,730,0.8999398,0.934817,1.179142,557.7667,0,0,2022-05-12T10:38:37.308+02:00,674037517.3079062,0,-0.8899994,100.9185,1,0.95
2022-05-12T10:38:37.763+02:00,1652344715.999944,53.22893825830261,10.39838983678296,39.0419,0,1,-1,-1,4,5,-9999,3184.1424345,-0.504791259765625,-0.6080780029296875,-1.141769409179688,3184.1324405,-3.006575991945664,0.1074383722371481,0.4284530747797882,-0.6721506714820862,-0.7670844197273254,-2.351686000823975,-0.5383806228637695,-0.2043941915035248,-0.153313159942627,XArbitraryZVertical,-0.06666660087095717,0.2082622914265163,0.9727390149663334,-0.07720874919493229,0.09753906726837158,-0.4154641926288605,-0.9043647646903992,0,0,0,-1,-1,3181.129808,walking,2,2022-05-12T10:38:34.749+02:00,2022-05-11T22:15:20.957+02:00,730,0.8999398,0.934817,1.179142,557.7667,0,0,2022-05-12T10:38:37.308+02:00,674037517.3079062,0,-0.8899994,100.9185,1,0.95
2022-05-12T10:38:37.773+02:00,1652344715.999944,53.22893825830261,10.39838983678296,39.0419,0,1,-1,-1,4,5,-9999,3184.1524295,-0.508575439453125,-0.6030120849609375,-1.175674438476562,3184.1424345,-3.032633067998346,0.110606906493997,0.4193827486898624,-0.620384156703949,-0.7387310862541199,-2.579261541366577,-0.5790872573852539,-0.2085417509078979,-0.1989908814430237,XArbitraryZVertical,-0.06530172501694043,0.2045874542117438,0.9745244721509344,-0.06466757517879743,0.1008159071207047,-0.4071967601776123,-0.9077593088150024,0,0,0,-1,-1,3181.129808,walking,2,2022-05-12T10:38:34.749+02:00,2022-05-11T22:15:20.957+02:00,730,0.8999398,0.934817,1.179142,557.7667,0,0,2022-05-12T10:38:37.308+02:00,674037517.3079062,0,-0.8899994,100.9185,1,0.95
