loggingTime(txt),locationTimestamp_since1970(s),locationLatitude(WGS84),locationLongitude(WGS84),locationAltitude(m),locationSpeed(m/s),locationSpeedAccuracy(m/s),locationCourse(°),locationCourseAccuracy(°),locationVerticalAccuracy(m),locationHorizontalAccuracy(m),locationFloor(Z),accelerometerTimestamp_sinceReboot(s),accelerometerAccelerationX(G),accelerometerAccelerationY(G),accelerometerAccelerationZ(G),motionTimestamp_sinceReboot(s),motionYaw(rad),motionRoll(rad),motionPitch(rad),motionRotationRateX(rad/s),motionRotationRateY(rad/s),motionRotationRateZ(rad/s),motionUserAccelerationX(G),motionUserAccelerationY(G),motionUserAccelerationZ(G),motionAttitudeReferenceFrame(txt),motionQuaternionX(R),motionQuaternionY(R),motionQuaternionZ(R),motionQuaternionW(R),motionGravityX(G),motionGravityY(G),motionGravityZ(G),motionMagneticFieldX(µT),motionMagneticFieldY(µT),motionMagneticFieldZ(µT),motionHeading(°),motionMagneticFieldCalibrationAccuracy(Z),activityTimestamp_sinceReboot(s),activity(txt),activityActivityConfidence(Z),activityActivityStartDate(txt),pedometerStartDate(txt),pedometerNumberofSteps(N),pedometerAverageActivePace(s/m),pedometerCurrentPace(s/m),pedometerCurrentCadence(steps/s),pedometerDistance(m),pedometerFloorAscended(N),pedometerFloorDescended(N),pedometerEndDate(txt),altimeterTimestamp_sinceReboot(s),altimeterReset(bool),altimeterRelativeAltitude(m),altimeterPressure(kPa),batteryState(N),batteryLevel(R)
2022-05-12T10:39:08.080+02:00,1652344745.999639,53.22897392330061,10.39841691033021,38.8995,0.29,0.84,140.9765625,85.58003682840118,4,10,-9999,3214.42195225,0.03662109375,-0.69085693359375,-0.6991424560546875,3214.41195725,-0.0041717002952057,0.04359759183752296,0.7735389984837572,0.06830309331417084,0.01647011376917362,-0.06048827618360519,0.007758559659123421,0.01564276218414307,0.002939939498901367,XArbitraryZVertical,0.3771501108053552,0.01940033338011487,0.006290486706574662,0.9259277190099841,0.0311816968023777,-0.6986715793609619,-0.7147628664970398,0,0,0,-1,-1,3211.819866375,walking,2,2022-05-12T10:39:05.439+02:00,2022-05-11T22:15:20.957+02:00,763,0.8982581,0.7741436,1.733193,581.0482,0,0,2022-05-12T10:39:07.997+02:00,674037547.9965956,0,-1.599998,100.9267,1,0.95
2022-05-12T10:39:08.083+02:00,1652344745.999639,53.22897392330061,10.39841691033021,38.8995,0.29,0.84,140.9765625,85.58003682840118,4,10,-9999,3214.43194725,0.03759765625,-0.7008056640625,-0.7066650390625,3214.42195225,-0.005068813831854446,0.04437587120106656,0.773940254661805,0.02475535124540329,0.0125225093215704,-0.06445052474737167,0.001034919172525406,0.01997333765029907,0.00818943977355957,XArbitraryZVertical,0.377342268176014,0.01958932549748383,0.006026239523570498,0.9258470852718542,0.03172552958130836,-0.6989585757255554,-0.714458167552948,0,0,0,-1,-1,3211.819866375,walking,2,2022-05-12T10:39:05.439+02:00,2022-05-11T22:15:20.957+02:00,763,0.8982581,0.7741436,1.733193,581.0482,0,0,2022-05-12T10:39:07.997+02:00,674037547.9965956,0,-1.599998,100.9267,1,0.95
2022-05-12T10:39:08.085+02:00,1652344745.999639,53.22897392330061,10.39841691033021,38.8995,0.29,0.84,140.9765625,85.58003682840118,4,10,-9999,3214.44194225,0.038299560546875,-0.7002105712890625,-0.714111328125,3214.43194725,-0.005945568405532811,0.04513712302661263,0.7739018506803453,-0.01261851843446493,0.02237727120518684,-0.06176099926233292,0.00435030460357666,0.008074581623077393,0.01531779766082764,XArbitraryZVertical,0.3773308757243105,0.01977652264462124,0.005763574919760109,0.9258494210761605,0.03227061405777931,-0.698931097984314,-0.7144606113433838,0,0,0,-1,-1,3211.819866375,walking,2,2022-05-12T10:39:05.439+02:00,2022-05-11T22:15:20.957+02:00,763,0.8982581,0.7741436,1.733193,581.0482,0,0,2022-05-12T10:39:07.997+02:00,674037547.9965956,0,-1.599998,100.9267,1,0.95
2022-05-12T10:39:08.088+02:00,1652344745.999639,53.22897392330061,10.39841691033021,38.8995,0.29,0.84,140.9765625,85.58003682840118,4,10,-9999,3214.45193725,0.034942626953125,-0.698974609375,-0.712738037109375,3214.44194225,-0.006751486887693513,0.04595049712990705,0.7735700078365413,-0.0360649898648262,0.02973265573382378,-0.05332117527723312,0.004735104739665985,-0.002111554145812988,0.008000373840332031,XArbitraryZVertical,0.377182957131208,0.02000295804532719,0.005540210705707512,0.925906233815259,0.03286238014698029,-0.6986937522888184,-0.7146657705307007,0,0,0,-1,-1,3211.819866375,walking,2,2022-05-12T10:39:05.439+02:00,2022-05-11T22:15:20.957+02:00,763,0.8982581,0.7741436,1.733193,581.0482,0,0,2022-05-12T10:39:07.997+02:00,674037547.9965956,0,-1.599998,100.9267,1,0.95
2022-05-12T10:39:08.097+02:00,1652344745.999639,53.22897392330061,10.39841691033021,38.8995,0.29,0.84,140.9765625,85.58003682840118,4,10,-9999,3214.46193225,0.031402587890625,-0.69830322265625,-0.71826171875,3214.45193725,-0.007384105629139304,0.04670844249430645,0.7730679338198119,-0.04806376248598099,0.03740302473306656,-0.04321814328432083,0.00487896054983139,-0.001875758171081543,0.0008793473243713379,XArbitraryZVertical,0.3769547805125176,0.02023760989178181,0.005384500520187125,0.9259950513405314,0.03342042863368988,-0.6983344554901123,-0.7149910926818848,0,0,0,-1,-1,3211.819866375,walking,2,2022-05-12T10:39:05.439+02:00,2022-05-11T22:15:20.957+02:00,763,0.8982581,0.7741436,1.733193,581.0482,0,0,2022-05-12T10:39:07.997+02:00,674037547.9965956,0,-1.599998,100.9267,1,0.95
2022-05-12T10:39:08.099+02:00,1652344745.999639,53.22897392330061,10.39841691033021,38.8995,0.29,0.84,140.9765625,85.58003682840118,4,10,-9999,3214.47192725,0.0381927490234375,-0.7058563232421875,-0.7126617431640625,3214.46193225,-0.007866762725934055,0.0473743420140295,0.7724964976453202,-0.0458834320306778,0.03479259461164474,-0.0363093689084053,0.00102703645825386,-0.001048922538757324,0.002628624439239502,XArbitraryZVertical,0.3766934046813724,0.02045854195308466,0.005279851592149346,0.9260970393030221,0.03391541913151741,-0.697925329208374,-0.7153670787811279,0,0,0,-1,-1,3211.819866375,walking,2,2022-05-12T10:39:05.439+02:00,2022-05-11T22:15:20.957+02:00,763,0.8982581,0.7741436,1.733193,581.0482,0,0,2022-05-12T10:39:07.997+02:00,674037547.9965956,0,-1.599998,100.9267,1,0.95
2022-05-12T10:39:08.102+02:00,1652344745.999639,53.22897392330061,10.39841691033021,38.8995,0.29,0.84,140.9765625,85.58003682840118,4,10,-9999,3214.48192225,0.0432586669921875,-0.7076873779296875,-0.709320068359375,3214.47192725,-0.008195329674444342,0.04795128698505527,0.7718709836868002,-0.05379068851470947,0.03759064525365829,-0.01576108485460281,-0.002946645021438599,-0.0008256435394287109,-0.002478837966918945,XArbitraryZVertical,0.3764056244800142,0.02066782019381875,0.005228946955296505,0.9262096941952201,0.03434906154870987,-0.6974772214889526,-0.7157832980155945,0,0,0,-1,-1,3211.819866375,walking,2,2022-05-12T10:39:05.439+02:00,2022-05-11T22:15:20.957+02:00,763,0.8982581,0.7741436,1.733193,581.0482,0,0,2022-05-12T10:39:07.997+02:00,674037547.9965956,0,-1.599998,100.9267,1,0.95
2022-05-12T10:39:08.113+02:00,1652344745.999639,53.22897392330061,10.39841691033021,38.8995,0.29,0.84,140.9765625,85.58003682840118,4,10,-9999,3214.49191725,0.04425048828125,-0.70391845703125,-0.707061767578125,3214.48192225,-0.008307238331122175,0.04841013735039485,0.7712707907751599,-0.04973815754055977,0.04034994542598724,-0.008830208331346512,0.003494832664728165,-0.00880897045135498,0.003523349761962891,XArbitraryZVertical,0.376127649832691,0.02086314207565837,0.005256281157475621,0.9263180542156634,0.03469774499535561,-0.6970469951629639,-0.716185450553894,0,0,0,-1,-1,3211.819866375,walking,2,2022-05-12T10:39:05.439+02:00,2022-05-11T22:15:20.957+02:00,763,0.8982581,0.7741436,1.733193,581.0482,0,0,2022-05-12T10:39:07.997+02:00,674037547.9965956,0,-1.599998,100.9267,1,0.95
2022-05-12T10:39:08.122+02:00,1652344745.999639,53.22897392330061,10.39841691033021,38.8995,0.29,0.84,140.9765625,85.58003682840118,4,10,-9999,3214.50191225,0.038787841796875,-0.697357177734375,-0.7031707763671875,3214.49191725,-0.008455553454677651,0.04888815019056052,0.7707471625298814,-0.0445181280374527,0.0311151035130024,-0.01425393670797348,0.008200574666261673,-0.01101553440093994,0.007212817668914795,XArbitraryZVertical,0.3758854379110929,0.02106007666942574,0.005271139672811718,0.9264118116403894,0.0350579172372818,-0.6966714262962341,-0.7165332436561584,0,0,0,-1,-1,3211.819866375,walking,2,2022-05-12T10:39:05.439+02:00,2022-05-11T22:15:20.957+02:00,763,0.8982581,0.7741436,1.733193,581.0482,0,0,2022-05-12T10:39:07.997+02:00,674037547.9965956,0,-1.599998,100.9267,1,0.95
2022-05-12T10:39:08.132+02:00,1652344745.999639,53.22897392330061,10.39841691033021,38.8995,0.29,0.84,140.9765625,85.58003682840118,4,10,-9999,3214.51190725,0.0352783203125,-0.69354248046875,-0.700164794921875,3214.50191225,-0.008670408779488369,0.04922125885586876,0.7702995555479045,-0.03669962286949158,0.008076095953583717,-0.02286553382873535,0.00893837958574295,-0.007567822933197021,0.009770750999450684,XArbitraryZVertical,0.3756794988431414,0.02117696188985892,0.005228754396397109,0.9264929353255401,0.03531194105744362,-0.6963502764701843,-0.7168328762054443,0,0,0,-1,-1,3211.819866375,walking,2,2022-05-12T10:39:05.439+02:00,2022-05-11T22:15:20.957+02:00,763,0.8982581,0.7741436,1.733193,581.0482,0,0,2022-05-12T10:39:07.997+02:00,674037547.9965956,0,-1.599998,100.9267,1,0.95
2022-05-12T10:39:08.142+02:00,1652344745.999639,53.22897392330061,10.39841691033021,38.8995,0.29,0.84,140.9765625,85.58003682840118,4,10,-9999,3214.52190225,0.0330047607421875,-0.69171142578125,-0.69830322265625,3214.51190725,-0.009005591138132369,0.04944823658417059,0.7699737013896447,-0.03355685621500015,-0.009796710684895515,-0.02613582834601402,0.003301810473203659,-0.001240432262420654,0.01388031244277954,XArbitraryZVertical,0.3755315284032293,0.02122134050923389,0.00511211015030843,0.9265525449117449,0.03548585623502731,-0.6961163878440857,-0.7170514464378357,0,0,0,-1,-1,3211.819866375,walking,2,2022-05-12T10:39:05.439+02:00,2022-05-11T22:15:20.957+02:00,763,0.8982581,0.7741436,1.733193,581.0482,0,0,2022-05-12T10:39:07.997+02:00,674037547.9965956,0,-1.599998,100.9267,1,0.95
2022-05-12T10:39:08.152+02:00,1652344745.999639,53.22897392330061,10.39841691033021,38.8995,0.29,0.84,140.9765625,85.58003682840118,4,10,-9999,3214.53189725,0.0283203125,-0.691986083984375,-0.69525146484375,3214.52190225,-0.009449271697724962,0.04960014886063239,0.7697312294884113,-0.03136986866593361,-0.02241343632340431,-0.03829129412770271,-0.0003250092267990112,0.00240015983581543,0.01704949140548706,XArbitraryZVertical,0.3754235252651649,0.02121006870157495,0.004932086002504864,0.9265975540702408,0.03560315445065498,-0.6959422826766968,-0.7172146439552307,0,0,0,-1,-1,3211.819866375,walking,2,2022-05-12T10:39:05.439+02:00,2022-05-11T22:15:20.957+02:00,763,0.8982581,0.7741436,1.733193,581.0482,0,0,2022-05-12T10:39:07.997+02:00,674037547.9965956,0,-1.599998,100.9267,1,0.95
2022-05-12T10:39:08.162+02:00,1652344745.999639,53.22897392330061,10.39841691033021,38.8995,0.29,0.84,140.9765625,85.58003682840118,4,10,-9999,3214.54189225,0.02801513671875,-0.695526123046875,-0.695037841796875,3214.53189725,-0.01007032810913924,0.0497851446678881,0.7694352903642661,-0.03353255614638329,-0.02723069489002228,-0.05125915631651878,-0.002741493284702301,0.004018604755401611,0.01911008358001709,XArbitraryZVertical,0.3752925452874511,0.02118126839781299,0.004675383235878139,0.926652639677899,0.03574608266353607,-0.6957297325134277,-0.7174137234687805,0,0,0,-1,-1,3211.819866375,walking,2,2022-05-12T10:39:05.439+02:00,2022-05-11T22:15:20.957+02:00,763,0.8982581,0.7741436,1.733193,581.0482,0,0,2022-05-12T10:39:07.997+02:00,674037547.9965956,0,-1.599998,100.9267,1,0.95
2022-05-12T10:39:08.172+02:00,1652344745.999639,53.22897392330061,10.39841691033021,38.8995,0.29,0.84,140.9765625,85.58003682840118,4,10,-9999,3214.55188725,0.0273284912109375,-0.6914825439453125,-0.7054595947265625,3214.54189225,-0.0107794994964963,0.05002570918262361,0.7689858781745268,-0.05222741514444351,-0.02621842734515667,-0.05344374850392342,-0.007614161819219589,0.00342106819152832,0.02246546745300293,XArbitraryZVertical,0.3750912611772424,0.02116288285663209,0.00438628141901484,0.926736038856217,0.03593429923057556,-0.6954068541526794,-0.7177173495292664,0,0,0,-1,-1,3211.819866375,walking,2,2022-05-12T10:39:05.439+02:00,2022-05-11T22:15:20.957+02:00,763,0.8982581,0.7741436,1.733193,581.0482,0,0,2022-05-12T10:39:07.997+02:00,674037547.9965956,0,-1.599998,100.9267,1,0.95
2022-05-12T10:39:08.182+02:00,1652344745.999639,53.22897392330061,10.39841691033021,38.8995,0.29,0.84,140.9765625,85.58003682840118,4,10,-9999,3214.56188225,0.03277587890625,-0.6884765625,-0.707305908203125,3214.55188725,-0.01134725925091271,0.05015316757600605,0.7684383530758423,-0.06114048138260841,-0.02755027450621128,-0.04020784050226212,-0.008029893040657043,-0.0005124807357788086,0.02305459976196289,XArbitraryZVertical,0.3748433374876781,0.0211194762850142,0.004140160953294888,0.9268383904623719,0.03604485839605331,-0.6950132846832275,-0.7180928587913513,0,0,0,-1,-1,3211.819866375,walking,2,2022-05-12T10:39:05.439+02:00,2022-05-11T22:15:20.957+02:00,763,0.8982581,0.7741436,1.733193,581.0482,0,0,2022-05-12T10:39:07.997+02:00,674037547.9965956,0,-1.599998,100.9267,1,0.95
2022-05-12T10:39:08.192+02:00,1652344745.999639,53.22897392330061,10.39841691033021,38.8995,0.29,0.84,140.9765625,85.58003682840118,4,10,-9999,3214.57187725,0.0362548828125,-0.688323974609375,-0.7128753662109375,3214.56188225,-0.01180595722417385,0.05022450898563577,0.7678372488194239,-0.0761047899723053,-0.02386579103767872,-0.03470148891210556,-0.008788738399744034,0.003098726272583008,0.01304745674133301,XArbitraryZVertical,0.3745694561816478,0.02107103761152155,0.003933299440151874,0.9269511711985304,0.0361170582473278,-0.6945809721946716,-0.7185074687004089,0,0,0,-1,-1,3211.819866375,walking,2,2022-05-12T10:39:05.439+02:00,2022-05-11T22:15:20.957+02:00,763,0.8982581,0.7741436,1.733193,581.0482,0,0,2022-05-12T10:39:07.997+02:00,674037547.9965956,0,-1.599998,100.9267,1,0.95
2022-05-12T10:39:08.202+02:00,1652344745.999639,53.22897392330061,10.39841691033021,38.8995,0.29,0.84,140.9765625,85.58003682840118,4,10,-9999,3214.58187225,0.0366363525390625,-0.6860504150390625,-0.7113494873046875,3214.57187725,-0.01230196357204059,0.05034691409909816,0.7671348747558379,-0.07913502305746078,-0.02820721082389355,-0.03498038649559021,-0.003453843295574188,0.005599319934844971,0.01168376207351685,XArbitraryZVertical,0.3742489632855031,0.02104018776641106,0.003717334548752668,0.927082131728752,0.03622954711318016,-0.6940754652023315,-0.7189900279045105,0,0,0,-1,-1,3211.819866375,walking,2,2022-05-12T10:39:05.439+02:00,2022-05-11T22:15:20.957+02:00,763,0.8982581,0.7741436,1.733193,581.0482,0,0,2022-05-12T10:39:07.997+02:00,674037547.9965956,0,-1.599998,100.9267,1,0.95
2022-05-12T10:39:08.212+02:00,1652344745.999639,53.22897392330061,10.39841691033021,38.8995,0.29,0.84,140.9765625,85.58003682840118,4,10,-9999,3214.59186725,0.033660888671875,-0.6820220947265625,-0.7163238525390625,3214.58187225,-0.01273152769097815,0.05031889663346465,0.7663627663006366,-0.08855941891670227,-0.04723948985338211,-0.02677305787801743,1.836195588111877e-05,0.005195796489715576,0.006650328636169434,XArbitraryZVertical,0.3738956306393199,0.02095272886692152,0.003503045037462563,0.9272275164972527,0.03623634576797485,-0.6935194134712219,-0.7195260524749756,0,0,0,-1,-1,3211.819866375,walking,2,2022-05-12T10:39:05.439+02:00,2022-05-11T22:15:20.957+02:00,763,0.8982581,0.7741436,1.733193,581.0482,0,0,2022-05-12T10:39:07.997+02:00,674037547.9965956,0,-1.599998,100.9267,1,0.95
2022-05-12T10:39:08.222+02:00,1652344745.999639,53.22897392330061,10.39841691033021,38.8995,0.29,0.84,140.9765625,85.58003682840118,4,10,-9999,3214.60186225,0.031036376953125,-0.6858062744140625,-0.726776123046875,3214.59186725,-0.01294635973158351,0.04997479086313943,0.7655384557816273,-0.09588377922773361,-0.05397169291973114,-0.01262314990162849,0.0006188824772834778,0.006875276565551758,0.008759379386901855,XArbitraryZVertical,0.3735163446808805,0.02075935699834872,0.003328569428072306,0.9273852973158669,0.03601729497313499,-0.6929253339767456,-0.7201091647148132,0,0,0,-1,-1,3211.819866375,walking,2,2022-05-12T10:39:05.439+02:00,2022-05-11T22:15:20.957+02:00,763,0.8982581,0.7741436,1.733193,581.0482,0,0,2022-05-12T10:39:07.997+02:00,674037547.9965956,0,-1.599998,100.9267,1,0.95
2022-05-12T10:39:08.232+02:00,1652344745.999639,53.22897392330061,10.39841691033021,38.8995,0.29,0.84,140.9765625,85.58003682840118,4,10,-9999,3214.61185725,0.029937744140625,-0.68841552734375,-0.72869873046875,3214.60186225,-0.01302650103274684,0.04952383186246015,0.7647030396882257,-0.08716698735952377,-0.04843231663107872,-0.008680872619152069,-0.002060484141111374,0.01030105352401733,0.004379093647003174,XArbitraryZVertical,0.373130533046303,0.02054166616710551,0.003196577393243589,0.9275459373404679,0.03572119772434235,-0.6923227310180664,-0.7207033038139343,0,0,0,-1,-1,3211.819866375,walking,2,2022-05-12T10:39:05.439+02:00,2022-05-11T22:15:20.957+02:00,763,0.8982581,0.7741436,1.733193,581.0482,0,0,2022-05-12T10:39:07.997+02:00,674037547.9965956,0,-1.599998,100.9267,1,0.95
2022-05-12T10:39:08.242+02:00,1652344745.999639,53.22897392330061,10.39841691033021,38.8995,0.29,0.84,140.9765625,85.58003682840118,4,10,-9999,3214.62185225,0.0228424072265625,-0.688751220703125,-0.73565673828125,3214.61185725,-0.01301075940381568,0.04901367529156472,0.7639994949489088,-0.07310280203819275,-0.04878645390272141,0.003460679203271866,-0.004341170191764832,0.00600898265838623,-0.005568742752075195,XArbitraryZVertical,0.3728048927618578,0.02031334221186323,0.003099848395249142,0.9276822571806089,0.0353773757815361,-0.6918148994445801,-0.7212077379226685,0,0,0,-1,-1,3211.819866375,walking,2,2022-05-12T10:39:05.439+02:00,2022-05-11T22:15:20.957+02:00,763,0.8982581,0.7741436,1.733193,581.0482,0,0,2022-05-12T10:39:07.997+02:00,674037547.9965956,0,-1.599998,100.9267,1,0.95
2022-05-12T10:39:08.252+02:00,1652344745.999639,53.22897392330061,10.39841691033021,38.8995,0.29,0.84,140.9765625,85.58003682840118,4,10,-9999,3214.63184725,0.0202484130859375,-0.6939239501953125,-0.7359161376953125,3214.62185225,-0.0129006716072329,0.04846002580378048,0.763396630097945,-0.07295020669698715,-0.04347824305295944,0.0007312055677175522,-0.005060706287622452,0.002964258193969727,-0.007055342197418213,XArbitraryZVertical,0.3725249693914056,0.0200815799144502,0.003040206439834047,0.9278000384057439,0.03499827533960342,-0.6913794875144958,-0.7216437458992004,0,0,0,-1,-1,3211.819866375,walking,2,2022-05-12T10:39:05.439+02:00,2022-05-11T22:15:20.957+02:00,763,0.8982581,0.7741436,1.733193,581.0482,0,0,2022-05-12T10:39:07.997+02:00,674037547.9965956,0,-1.599998,100.9267,1,0.95
2022-05-12T10:39:08.262+02:00,1652344745.999639,53.22897392330061,10.39841691033021,38.8995,0.29,0.84,140.9765625,85.58003682840118,4,10,-9999,3214.64184225,0.0237884521484375,-0.692230224609375,-0.73309326171875,3214.63184725,-0.01280001191477005,0.04793230654620102,0.7628756862638633,-0.06457848846912384,-0.04323096573352814,0.002020042389631271,-0.01179246604442596,0.002252101898193359,-0.01363539695739746,XArbitraryZVertical,0.3722831329872571,0.01985939137829371,0.002982196186920774,0.9279020243416434,0.03463469445705414,-0.6910029649734497,-0.722021758556366,0,0,0,-1,-1,3211.819866375,walking,2,2022-05-12T10:39:05.439+02:00,2022-05-11T22:15:20.957+02:00,763,0.8982581,0.7741436,1.733193,581.0482,0,0,2022-05-12T10:39:07.997+02:00,674037547.9965956,0,-1.599998,100.9267,1,0.95
2022-05-12T10:39:08.272+02:00,1652344745.999639,53.22897392330061,10.39841691033021,38.8995,0.29,0.84,140.9765625,85.58003682840118,4,10,-9999,3214.65183725,0.028045654296875,-0.6930694580078125,-0.7354583740234375,3214.64184225,-0.01267614202096459,0.04738870415433309,0.7623370454610642,-0.06014778465032578,-0.04104131460189819,0.00237344391644001,-0.01401158422231674,-0.003310084342956543,-0.01350438594818115,XArbitraryZVertical,0.3720328328493768,0.01963420176142892,0.002931921875115026,0.9280073478049422,0.03425982594490051,-0.6906135082244873,-0.722412109375,0,0,0,-1,-1,3211.819866375,walking,2,2022-05-12T10:39:05.439+02:00,2022-05-11T22:15:20.957+02:00,763,0.8982581,0.7741436,1.733193,581.0482,0,0,2022-05-12T10:39:07.997+02:00,674037547.9965956,0,-1.599998,100.9267,1,0.95
2022-05-12T10:39:08.282+02:00,1652344745.999639,53.22897392330061,10.39841691033021,38.8995,0.29,0.84,140.9765625,85.58003682840118,4,10,-9999,3214.66183225,0.02569580078125,-0.6929168701171875,-0.73565673828125,3214.65183725,-0.01265502023843466,0.04697023146305302,0.7618502291269335,-0.05254626274108887,-0.03813354298472404,-0.006914730183780193,-0.01018502190709114,-0.001968443393707275,-0.01033145189285278,XArbitraryZVertical,0.3718073564100989,0.01944751221277886,0.002858000812326719,0.9281018838469849,0.03397329524159431,-0.6902613639831543,-0.7227621674537659,0,0,0,-1,-1,3211.819866375,walking,2,2022-05-12T10:39:05.439+02:00,2022-05-11T22:15:20.957+02:00,763,0.8982581,0.7741436,1.733193,581.0482,0,0,2022-05-12T10:39:07.997+02:00,674037547.9965956,0,-1.599998,100.9267,1,0.95
2022-05-12T10:39:08.292+02:00,1652344745.999639,53.22897392330061,10.39841691033021,38.8995,0.29,0.84,140.9765625,85.58003682840118,4,10,-9999,3214.67182725,0.023529052734375,-0.6905364990234375,-0.73687744140625,3214.66183225,-0.01274119275398729,0.04668904834118579,0.7613542736739052,-0.0529601164162159,-0.03245328739285469,-0.007906490936875343,-0.005740560591220856,-0.003166675567626953,-0.01234519481658936,XArbitraryZVertical,0.3715784508365141,0.01930462633916634,0.002759778519827534,0.9281968381617158,0.03378603607416153,-0.6899024248123169,-0.7231135964393616,0,0,0,-1,-1,3211.819866375,walking,2,2022-05-12T10:39:05.439+02:00,2022-05-11T22:15:20.957+02:00,763,0.8982581,0.7741436,1.733193,581.0482,0,0,2022-05-12T10:39:07.997+02:00,674037547.9965956,0,-1.599998,100.9267,1,0.95
2022-05-12T10:39:08.302+02:00,1652344745.999639,53.22897392330061,10.39841691033021,38.8995,0.29,0.84,140.9765625,85.58003682840118,4,10,-9999,3214.68182125,0.0220947265625,-0.683502197265625,-0.732818603515625,3214.67182725,-0.01292964151382309,0.04646090292828153,0.7608552327930228,-0.0549311563372612,-0.04514038562774658,-0.02592217735946178,-0.00794142484664917,-0.003375411033630371,-0.0121920108795166,XArbitraryZVertical,0.3713489787815598,0.01916738238270933,0.002623952216891602,0.9282919132907727,0.03363704681396484,-0.6895411014556885,-0.7234650850296021,0,0,0,-1,-1,3211.819866375,walking,2,2022-05-12T10:39:05.439+02:00,2022-05-11T22:15:20.957+02:00,763,0.8982581,0.7741436,1.733193,581.0482,0,0,2022-05-12T10:39:07.997+02:00,674037547.9965956,0,-1.599998,100.9267,1,0.95
2022-05-12T10:39:08.312+02:00,1652344745.999639,53.22897392330061,10.39841691033021,38.8995,0.29,0.84,140.9765625,85.58003682840118,4,10,-9999,3214.69181625,0.01806640625,-0.675567626953125,-0.7331695556640625,3214.68182125,-0.0134000232725809,0.04628854177226575,0.7602511792942586,-0.06524264812469482,-0.05511392652988434,-0.04825624823570251,-0.0100027434527874,-0.001432657241821289,-0.01299101114273071,XArbitraryZVertical,0.3710733738280043,0.01900451759677664,0.002366384237000475,0.9284060670862114,0.03353161364793777,-0.6891034841537476,-0.7238867878913879,0,0,0,-1,-1,3211.819866375,walking,2,2022-05-12T10:39:05.439+02:00,2022-05-11T22:15:20.957+02:00,763,0.8982581,0.7741436,1.733193,581.0482,0,0,2022-05-12T10:39:07.997+02:00,674037547.9965956,0,-1.599998,100.9267,1,0.95
2022-05-12T10:39:08.322+02:00,1652344745.999639,53.22897392330061,10.39841691033021,38.8995,0.29,0.84,140.9765625,85.58003682840118,4,10,-9999,3214.70181125,0.0148773193359375,-0.6773529052734375,-0.730682373046875,3214.69181625,-0.01409980006255107,0.04619789757067261,0.7595136375298585,-0.07428404688835144,-0.06012619286775589,-0.06249942630529404,-0.011394914239645,0.005066990852355957,-0.008421659469604492,XArbitraryZVertical,0.3707377173412335,0.01883817638499023,0.002015852427406964,0.9285444243177464,0.03348946198821068,-0.6885688304901123,-0.7243973612785339,0,0,0,-1,-1,3211.819866375,walking,2,2022-05-12T10:39:05.439+02:00,2022-05-11T22:15:20.957+02:00,763,0.8982581,0.7741436,1.733193,581.0482,0,0,2022-05-12T10:39:07.997+02:00,674037547.9965956,0,-1.599998,100.9267,1,0.95
2022-05-12T10:39:08.332+02:00,1652344745.999639,53.22897392330061,10.39841691033021,38.8995,0.29,0.84,140.9765625,85.58003682840118,4,10,-9999,3214.71180625,0.018951416015625,-0.676544189453125,-0.7281951904296875,3214.70181125,-0.0149785316395149,0.04617510855344746,0.7586884602819948,-0.08181200921535492,-0.06324182450771332,-0.07719022035598755,-0.0154329389333725,0.01240295171737671,-0.008204460144042969,XArbitraryZVertical,0.3703629006339719,0.01867110332246928,0.001593666471588941,0.9286981625945393,0.03349917009472847,-0.6879702210426331,-0.7249654531478882,0,0,0,-1,-1,3211.819866375,walking,2,2022-05-12T10:39:05.439+02:00,2022-05-11T22:15:20.957+02:00,763,0.8982581,0.7741436,1.733193,581.0482,0,0,2022-05-12T10:39:07.997+02:00,674037547.9965956,0,-1.599998,100.9267,1,0.95
2022-05-12T10:39:08.342+02:00,1652344745.999639,53.22897392330061,10.39841691033021,38.8995,0.29,0.84,140.9765625,85.58003682840118,4,10,-9999,3214.72180125,0.0229644775390625,-0.678955078125,-0.7329559326171875,3214.71180625,-0.01588104770093261,0.04610754719982,0.7577571378186299,-0.09056548774242401,-0.06898319721221924,-0.07097055017948151,-0.01860256493091583,0.009941458702087402,-0.005075275897979736,XArbitraryZVertical,0.3699389111130566,0.01848000748029522,0.001150733584864145,0.9288715712737426,0.03347970545291901,-0.6872940063476562,-0.7256073951721191,0,0,0,-1,-1,3211.819866375,walking,2,2022-05-12T10:39:05.439+02:00,2022-05-11T22:15:20.957+02:00,763,0.8982581,0.7741436,1.733193,581.0482,0,0,2022-05-12T10:39:07.997+02:00,674037547.9965956,0,-1.599998,100.9267,1,0.95
2022-05-12T10:39:08.352+02:00,1652344745.999639,53.22897392330061,10.39841691033021,38.8995,0.29,0.84,140.9765625,85.58003682840118,4,10,-9999,3214.73179625,0.0225830078125,-0.6819305419921875,-0.7277374267578125,3214.72180125,-0.01668799930211314,0.04590574717761593,0.756789503185565,-0.09790196269750595,-0.06888919323682785,-0.0666532963514328,-0.01441254466772079,0.01004701852798462,-0.001917421817779541,XArbitraryZVertical,0.3694970420727009,0.01824487608345406,0.0007268200932589324,0.929052489317536,0.03336377814412117,-0.6865907907485962,-0.7262781262397766,0,0,0,-1,-1,3211.819866375,walking,2,2022-05-12T10:39:05.439+02:00,2022-05-11T22:15:20.957+02:00,763,0.8982581,0.7741436,1.733193,581.0482,0,0,2022-05-12T10:39:07.997+02:00,674037547.9965956,0,-1.599998,100.9267,1,0.95
2022-05-12T10:39:08.362+02:00,1652344745.999639,53.22897392330061,10.39841691033021,38.8995,0.29,0.84,140.9765625,85.58003682840118,4,10,-9999,3214.74179125,0.0310516357421875,-0.6945953369140625,-0.7266845703125,3214.73179625,-0.01742211441860703,0.04568929565605462,0.7557123123624558,-0.1144380569458008,-0.06755707412958145,-0.05887579917907715,-0.01027603819966316,0.006852567195892334,-0.005932509899139404,XArbitraryZVertical,0.3690033762489054,0.01801760098359299,0.0003326485943332689,0.9292533736347467,0.03324033692479134,-0.6858072280883789,-0.727023720741272,0,0,0,-1,-1,3211.819866375,walking,2,2022-05-12T10:39:05.439+02:00,2022-05-11T22:15:20.957+02:00,763,0.8982581,0.7741436,1.733193,581.0482,0,0,2022-05-12T10:39:07.997+02:00,674037547.9965956,0,-1.599998,100.9267,1,0.95
2022-05-12T10:39:08.372+02:00,1652344745.999639,53.22897392330061,10.39841691033021,38.8995,0.29,0.84,140.9765625,85.58003682840118,4,10,-9999,3214.75178625,0.0284881591796875,-0.695068359375,-0.7255401611328125,3214.74179125,-0.01817561715360435,0.04549864845741775,0.7544364029747025,-0.1316479295492172,-0.06790914386510849,-0.06617259234189987,-0.01055867597460747,0.00294792652130127,0.0001658201217651367,XArbitraryZVertical,0.3684173227659812,0.01780073412291233,-6.825061330310308e-05,0.9294901402109453,0.03314150497317314,-0.6848781108856201,-0.7279036045074463,0,0,0,-1,-1,3211.819866375,walking,2,2022-05-12T10:39:05.439+02:00,2022-05-11T22:15:20.957+02:00,763,0.8982581,0.7741436,1.733193,581.0482,0,0,2022-05-12T10:39:07.997+02:00,674037547.9965956,0,-1.599998,100.9267,1,0.95
2022-05-12T10:39:08.382+02:00,1652344745.999639,53.22897392330061,10.39841691033021,38.8995,0.29,0.84,140.9765625,85.58003682840118,4,10,-9999,3214.76178125,0.0388946533203125,-0.68048095703125,-0.725189208984375,3214.75178625,-0.01908155765244053,0.04533694400550466,0.7530029347262022,-0.1475656926631927,-0.07861405611038208,-0.08795851469039917,-0.002016797661781311,-0.01076209545135498,0.002204000949859619,XArbitraryZVertical,0.367759148204263,0.0175710342613704,-0.0005366899791682048,0.9297549238313703,0.03306825831532478,-0.6838328838348389,-0.7288889288902283,0,0,0,-1,-1,3211.819866375,walking,2,2022-05-12T10:39:05.439+02:00,2022-05-11T22:15:20.957+02:00,763,0.8982581,0.7741436,1.733193,581.0482,0,0,2022-05-12T10:39:07.997+02:00,674037547.9965956,0,-1.599998,100.9267,1,0.95
2022-05-12T10:39:08.392+02:00,1652344745.999639,53.22897392330061,10.39841691033021,38.8995,0.29,0.84,140.9765625,85.58003682840118,4,10,-9999,3214.77177625,0.0085906982421875,-0.689300537109375,-0.7234039306640625,3214.76178125,-0.02096102305612181,0.04582251049887083,0.7513928485490106,-0.1513777375221252,-0.07437936961650848,-0.1516088545322418,-0.004984591156244278,-0.01241075992584229,0.004431247711181641,XArbitraryZVertical,0.3670273566159133,0.01746577821142531,-0.001341372222016402,0.9300452325796548,0.03347256779670715,-0.6826572418212891,-0.729971706867218,0,0,0,-1,-1,3211.819866375,walking,2,2022-05-12T10:39:05.439+02:00,2022-05-11T22:15:20.957+02:00,763,0.8982581,0.7741436,1.733193,581.0482,0,0,2022-05-12T10:39:07.997+02:00,674037547.9965956,0,-1.599998,100.9267,1,0.95
2022-05-12T10:39:08.402+02:00,1652344745.999639,53.22897392330061,10.39841691033021,38.8995,0.29,0.84,140.9765625,85.58003682840118,4,10,-9999,3214.78177125,0.0235137939453125,-0.6768646240234375,-0.721649169921875,3214.77177625,-0.0229798128492368,0.04630530903545987,0.749930614446439,-0.1306774020195007,-0.08041734993457794,-0.1797330975532532,0.005023308098316193,0.001107335090637207,0.005762338638305664,XArbitraryZVertical,0.3663653930270632,0.01733382224237839,-0.002210375775435284,0.9303070530689488,0.03387116640806198,-0.6815879940986633,-0.7309518456459045,0,0,0,-1,-1,3211.819866375,walking,2,2022-05-12T10:39:05.439+02:00,2022-05-11T22:15:20.957+02:00,763,0.8982581,0.7741436,1.733193,581.0482,0,0,2022-05-12T10:39:07.997+02:00,674037547.9965956,0,-1.599998,100.9267,1,0.95
2022-05-12T10:39:08.412+02:00,1652344745.999639,53.22897392330061,10.39841691033021,38.8995,0.29,0.84,140.9765625,85.58003682840118,4,10,-9999,3214.79176625,0.01922607421875,-0.6861572265625,-0.7200164794921875,3214.78177125,-0.02563741784386813,0.04723053654106428,0.7486062797537221,-0.1074136421084404,-0.07993505150079727,-0.2334362864494324,-0.025999516248703,-0.008681893348693848,0.008416950702667236,XArbitraryZVertical,0.3657736995463108,0.01729096698447826,-0.003294726811669017,0.9305374711273157,0.03459003567695618,-0.6806183457374573,-0.7318212389945984,0,0,0,-1,-1,3211.819866375,walking,2,2022-05-12T10:39:05.439+02:00,2022-05-11T22:15:20.957+02:00,763,0.8982581,0.7741436,1.733193,581.0482,0,0,2022-05-12T10:39:07.997+02:00,674037547.9965956,0,-1.599998,100.9267,1,0.95
2022-05-12T10:39:08.422+02:00,1652344745.999639,53.22897392330061,10.39841691033021,38.8995,0.29,0.84,140.9765625,85.58003682840118,4,10,-9999,3214.80176125,0.0107879638671875,-0.6878509521484375,-0.722503662109375,3214.79176625,-0.02875063548125473,0.04833993099594769,0.7475259799025146,-0.07693945616483688,-0.1070997565984726,-0.246337503194809,-0.01192378997802734,0.002962231636047363,0.01086682081222534,XArbitraryZVertical,0.3653002318476509,0.01724973536269909,-0.004555281282396846,0.9307188421143588,0.03543739765882492,-0.6798264384269714,-0.732516348361969,0,0,0,-1,-1,3211.819866375,walking,2,2022-05-12T10:39:05.439+02:00,2022-05-11T22:15:20.957+02:00,763,0.8982581,0.7741436,1.733193,581.0482,0,0,2022-05-12T10:39:07.997+02:00,674037547.9965956,0,-1.599998,100.9267,1,0.95
2022-05-12T10:39:08.432+02:00,1652344745.999639,53.22897392330061,10.39841691033021,38.8995,0.29,0.84,140.9765625,85.58003682840118,4,10,-9999,3214.81175625,0.011474609375,-0.6912078857421875,-0.722442626953125,3214.80176125,-0.03194929729023488,0.04928219986626263,0.7467150640920318,-0.06756619364023209,-0.1236576959490776,-0.2420988082885742,-0.01692886650562286,-0.006925344467163086,0.01301616430282593,XArbitraryZVertical,0.3649528916543517,0.01711363899673181,-0.005883345468755967,0.9308501481059714,0.03615475445985794,-0.6792315244674683,-0.7330330014228821,0,0,0,-1,-1,3211.819866375,walking,2,2022-05-12T10:39:05.439+02:00,2022-05-11T22:15:20.957+02:00,763,0.8982581,0.7741436,1.733193,581.0482,0,0,2022-05-12T10:39:07.997+02:00,674037547.9965956,0,-1.599998,100.9267,1,0.95
2022-05-12T10:39:08.442+02:00,1652344745.999639,53.22897392330061,10.39841691033021,38.8995,0.29,0.84,140.9765625,85.58003682840118,4,10,-9999,3214.82175125,0.01617431640625,-0.6890411376953125,-0.7219390869140625,3214.81175625,-0.03509340089518296,0.05004116861967112,0.7459025938381839,-0.07653891295194626,-0.1429701447486877,-0.2448306828737259,-0.02595090866088867,-0.009215593338012695,0.01105225086212158,XArbitraryZVertical,0.3646040645065746,0.01690347075059106,-0.007220237648111496,0.9309812756528575,0.03673868626356125,-0.6786350011825562,-0.7335562705993652,0,0,0,-1,-1,3211.819866375,walking,2,2022-05-12T10:39:05.439+02:00,2022-05-11T22:15:20.957+02:00,763,0.8982581,0.7741436,1.733193,581.0482,0,0,2022-05-12T10:39:07.997+02:00,674037547.9965956,0,-1.599998,100.9267,1,0.95
2022-05-12T10:39:08.452+02:00,1652344745.999639,53.22897392330061,10.39841691033021,38.8995,0.29,0.84,140.9765625,85.58003682840118,4,10,-9999,3214.83174625,0.02374267578125,-0.687286376953125,-0.720672607421875,3214.82175125,-0.03842957715112159,0.05068454949658538,0.7449565379810148,-0.09472750127315521,-0.1720305532217026,-0.2711179554462433,-0.02576872706413269,-0.0132676362991333,0.01173043251037598,XArbitraryZVertical,0.3641942952686964,0.01660756416943502,-0.008670356736054494,0.9311346405390235,0.03724314644932747,-0.6779398322105408,-0.7341734170913696,0,0,0,-1,-1,3211.819866375,walking,2,2022-05-12T10:39:05.439+02:00,2022-05-11T22:15:20.957+02:00,763,0.8982581,0.7741436,1.733193,581.0482,0,0,2022-05-12T10:39:07.997+02:00,674037547.9965956,0,-1.599998,100.9267,1,0.95
2022-05-12T10:39:08.462+02:00,1652344745.999639,53.22897392330061,10.39841691033021,38.8995,0.29,0.84,140.9765625,85.58003682840118,4,10,-9999,3214.84174125,0.02178955078125,-0.6765594482421875,-0.7254638671875,3214.83174625,-0.04225987562428598,0.05136062278058811,0.743925127068891,-0.1034072116017342,-0.2079218477010727,-0.3115022778511047,-0.02160124108195305,-0.0118594765663147,0.01290649175643921,XArbitraryZVertical,0.3637489451423808,0.01623975975740023,-0.01034677234212329,0.931298028645367,0.03777536749839783,-0.6771813035011292,-0.7348459362983704,0,0,0,-1,-1,3211.819866375,walking,2,2022-05-12T10:39:05.439+02:00,2022-05-11T22:15:20.957+02:00,763,0.8982581,0.7741436,1.733193,581.0482,0,0,2022-05-12T10:39:07.997+02:00,674037547.9965956,0,-1.599998,100.9267,1,0.95
2022-05-12T10:39:08.472+02:00,1652344745.999639,53.22897392330061,10.39841691033021,38.8995,0.29,0.84,140.9765625,85.58003682840118,4,10,-9999,3214.85173625,0.0145721435546875,-0.6689300537109375,-0.7268829345703125,3214.84174125,-0.04652485858853748,0.05200310477358711,0.7428280841702362,-0.1104664504528046,-0.2299882769584656,-0.3327255249023438,-0.01454359665513039,-0.01091235876083374,0.01489001512527466,XArbitraryZVertical,0.3632760317974313,0.01578025607986047,-0.01223378578002101,0.9314676842096304,0.03828607872128487,-0.6763736605644226,-0.7355630397796631,0,0,0,-1,-1,3211.819866375,walking,2,2022-05-12T10:39:05.439+02:00,2022-05-11T22:15:20.957+02:00,763,0.8982581,0.7741436,1.733193,581.0482,0,0,2022-05-12T10:39:07.997+02:00,674037547.9965956,0,-1.599998,100.9267,1,0.95
2022-05-12T10:39:08.482+02:00,1652344745.999639,53.22897392330061,10.39841691033021,38.8995,0.29,0.84,140.9765625,85.58003682840118,4,10,-9999,3214.86173125,0.00238037109375,-0.6614990234375,-0.7266845703125,3214.85173625,-0.05104961027665821,0.05270141774089806,0.7416233338831822,-0.1048220843076706,-0.2443974316120148,-0.3478462994098663,-0.0170532651245594,-0.001073241233825684,0.01088505983352661,XArbitraryZVertical,0.3627549884361019,0.01530364191677897,-0.01423458766940227,0.93165015961303,0.03884261474013329,-0.6754857897758484,-0.7363492250442505,0,0,0,-1,-1,3211.819866375,walking,2,2022-05-12T10:39:05.439+02:00,2022-05-11T22:15:20.957+02:00,763,0.8982581,0.7741436,1.733193,581.0482,0,0,2022-05-12T10:39:07.997+02:00,674037547.9965956,0,-1.599998,100.9267,1,0.95
2022-05-12T10:39:08.492+02:00,1652344745.999639,53.22897392330061,10.39841691033021,38.8995,0.29,0.84,140.9765625,85.58003682840118,4,10,-9999,3214.87172625,-0.06927490234375,-0.6563873291015625,-0.77813720703125,3214.86173125,-0.05574702708680258,0.05327621394269934,0.740417517599762,-0.122925192117691,-0.2477966994047165,-0.3847894072532654,-0.02473726123571396,0.005666494369506836,0.01025635004043579,XArbitraryZVertical,0.3622331739048801,0.01474080863516633,-0.01633950043336164,0.9318278114741512,0.03930920735001564,-0.6745961904525757,-0.7371397018432617,0,0,0,-1,-1,3211.819866375,walking,2,2022-05-12T10:39:05.439+02:00,2022-05-11T22:15:20.957+02:00,763,0.8982581,0.7741436,1.733193,581.0482,0,0,2022-05-12T10:39:07.997+02:00,674037547.9965956,0,-1.599998,100.9267,1,0.95
2022-05-12T10:39:08.502+02:00,1652344745.999639,53.22897392330061,10.39841691033021,38.8995,0.29,0.84,140.9765625,85.58003682840118,4,10,-9999,3214.88172125,-0.07452392578125,-0.6617279052734375,-0.650360107421875,3214.87172625,-0.0615293012016222,0.05561446717158657,0.7391525007078619,-0.03532040491700172,0.04974517971277237,-0.5155931115150452,-0.03869995102286339,0.01216316223144531,0.01121222972869873,XArbitraryZVertical,0.3617072496224161,0.01480732570478687,-0.0186333319936742,0.931988007293661,0.04108012095093727,-0.6736618280410767,-0.7378972172737122,0,0,0,-1,-1,3211.819866375,walking,2,2022-05-12T10:39:05.439+02:00,2022-05-11T22:15:20.957+02:00,763,0.8982581,0.7741436,1.733193,581.0482,0,0,2022-05-12T10:39:07.997+02:00,674037547.9965956,0,-1.599998,100.9267,1,0.95
2022-05-12T10:39:08.512+02:00,1652344745.999639,53.22897392330061,10.39841691033021,38.8995,0.29,0.84,140.9765625,85.58003682840118,4,10,-9999,3214.89171625,-0.069427490234375,-0.7680206298828125,-0.7039947509765625,3214.88172125,-0.06832249250877749,0.05897344663416236,0.7371974817276042,-0.2844955921173096,-0.2473171204328537,-0.5856299996376038,-0.1129111126065254,0.01582872867584229,-0.03906917572021484,XArbitraryZVertical,0.3608811728414819,0.01518531351471935,-0.02123011127890809,0.9322465636511469,0.0436360090970993,-0.6722157001495361,-0.7390683889389038,0,0,0,-1,-1,3211.819866375,walking,2,2022-05-12T10:39:05.439+02:00,2022-05-11T22:15:20.957+02:00,763,0.8982581,0.7741436,1.733193,581.0482,0,0,2022-05-12T10:39:07.997+02:00,674037547.9965956,0,-1.599998,100.9267,1,0.95
2022-05-12T10:39:08.522+02:00,1652344745.999639,53.22897392330061,10.39841691033021,38.8995,0.29,0.84,140.9765625,85.58003682840118,4,10,-9999,3214.90171125,-0.141845703125,-0.7906951904296875,-0.6342010498046875,3214.89171625,-0.07373082527546963,0.06131654394081983,0.7350145246084868,-0.1112597435712814,-0.123782604932785,-0.2153785228729248,-0.1199815422296524,0.008870363235473633,0.09006655216217041,XArbitraryZVertical,0.359931723437949,0.01535101423409829,-0.02337379041587117,0.9325595792654759,0.04545740783214569,-0.6705979108810425,-0.7404270172119141,0,0,0,-1,-1,3211.819866375,walking,2,2022-05-12T10:39:05.439+02:00,2022-05-11T22:15:20.957+02:00,763,0.8982581,0.7741436,1.733193,581.0482,0,0,2022-05-12T10:39:07.997+02:00,674037547.9965956,0,-1.599998,100.9267,1,0.95
2022-05-12T10:39:08.532+02:00,1652344745.999639,53.22897392330061,10.39841691033021,38.8995,0.29,0.84,140.9765625,85.58003682840118,4,10,-9999,3214.91170625,-0.0632781982421875,-0.773040771484375,-0.57843017578125,3214.90171125,-0.07801638299242357,0.06356409714638339,0.732717845422575,-0.276176780462265,-0.008839237503707409,-0.3963621556758881,-0.1166468411684036,-0.09912782907485962,0.03786289691925049,XArbitraryZVertical,0.35892203640651,0.0156825084460291,-0.02501756236723757,0.9329005281254812,0.04721914976835251,-0.6688924431800842,-0.7418580651283264,0,0,0,-1,-1,3211.819866375,walking,2,2022-05-12T10:39:05.439+02:00,2022-05-11T22:15:20.957+02:00,763,0.8982581,0.7741436,1.733193,581.0482,0,0,2022-05-12T10:39:07.997+02:00,674037547.9965956,0,-1.599998,100.9267,1,0.95
2022-05-12T10:39:08.542+02:00,1652344745.999639,53.22897392330061,10.39841691033021,38.8995,0.29,0.84,140.9765625,85.58003682840118,4,10,-9999,3214.92170125,-0.14947509765625,-0.771392822265625,-0.5633087158203125,3214.91170625,-0.08352943101620094,0.0664325533448225,0.7291321275665654,-0.4054477214813232,-0.1257933527231216,-0.4672711491584778,-0.1913517564535141,-0.1244721412658691,0.1099065542221069,XArbitraryZVertical,0.357331914684492,0.01612208006622504,-0.02715645973656275,0.933443498105169,0.04950584098696709,-0.6662226915359497,-0.7441079616546631,0,0,0,-1,-1,3211.819866375,walking,2,2022-05-12T10:39:05.439+02:00,2022-05-11T22:15:20.957+02:00,763,0.8982581,0.7741436,1.733193,581.0482,0,0,2022-05-12T10:39:07.997+02:00,674037547.9965956,0,-1.599998,100.9267,1,0.95
2022-05-12T10:39:08.552+02:00,1652344745.999639,53.22897392330061,10.39841691033021,38.8995,0.29,0.84,140.9765625,85.58003682840118,4,10,-9999,3214.93169625,-0.1971282958984375,-0.7492218017578125,-0.54998779296875,3214.92170125,-0.08993493849306512,0.0695642101035412,0.7242600934328298,-0.5085911750793457,-0.09689991921186447,-0.5425004363059998,-0.1153392866253853,-0.1104589700698853,0.1687479019165039,XArbitraryZVertical,0.3551565642868224,0.01657137193271213,-0.02970426625948788,0.9341878894681973,0.05206087976694107,-0.6625814437866211,-0.7471784353256226,0,0,0,-1,-1,3211.819866375,walking,2,2022-05-12T10:39:05.439+02:00,2022-05-11T22:15:20.957+02:00,763,0.8982581,0.7741436,1.733193,581.0482,0,0,2022-05-12T10:39:07.997+02:00,674037547.9965956,0,-1.599998,100.9267,1,0.95
2022-05-12T10:39:08.562+02:00,1652344745.999639,53.22897392330061,10.39841691033021,38.8995,0.29,0.84,140.9765625,85.58003682840118,4,10,-9999,3214.94169125,-0.2182159423828125,-0.76336669921875,-0.526947021484375,3214.93169625,-0.09706358482999976,0.07357398947771283,0.7182441968373396,-0.6101219654083252,-0.05001909658312798,-0.6132016181945801,-0.2048237919807434,-0.1133288145065308,0.1876162886619568,XArbitraryZVertical,0.3524715501125675,0.01735349853909524,-0.03247643452377735,0.935097871998971,0.0553484782576561,-0.6580636501312256,-0.7509253025054932,0,0,0,-1,-1,3211.819866375,walking,2,2022-05-12T10:39:05.439+02:00,2022-05-11T22:15:20.957+02:00,763,0.8982581,0.7741436,1.733193,581.0482,0,0,2022-05-12T10:39:07.997+02:00,674037547.9965956,0,-1.599998,100.9267,1,0.95
2022-05-12T10:39:08.572+02:00,1652344745.999639,53.22897392330061,10.39841691033021,38.8995,0.29,0.84,140.9765625,85.58003682840118,4,10,-9999,3214.95168625,-0.31378173828125,-0.9713592529296875,-0.5572052001953125,3214.94169125,-0.1058398334869714,0.07863147706233631,0.7106311192106274,-0.8881088495254517,-0.1428366452455521,-0.8912824988365173,-0.2566658854484558,-0.09690916538238525,0.2056202292442322,XArbitraryZVertical,0.3490799706590213,0.01841156802846117,-0.03589815213027338,0.9362240681239674,0.05953735858201981,-0.6523122787475586,-0.7556083798408508,0,0,0,-1,-1,3211.819866375,walking,2,2022-05-12T10:39:05.439+02:00,2022-05-11T22:15:20.957+02:00,763,0.8982581,0.7741436,1.733193,581.0482,0,0,2022-05-12T10:39:07.997+02:00,674037547.9965956,0,-1.599998,100.9267,1,0.95
2022-05-12T10:39:08.582+02:00,1652344745.999639,53.22897392330061,10.39841691033021,38.8995,0.29,0.84,140.9765625,85.58003682840118,4,10,-9999,3214.96168125,-0.24371337890625,-0.9365081787109375,-0.5878448486328125,3214.95168625,-0.1179104510618073,0.08622493039636207,0.6985399895306459,-1.223455190658569,0.1327759474515915,-1.005514144897461,-0.2841638624668121,-0.1202660202980042,0.2359896898269653,XArbitraryZVertical,0.3436860873301494,0.02028178790583556,-0.04058873651788372,0.9379878491970067,0.06594771146774292,-0.6431003212928772,-0.762937068939209,0,0,0,-1,-1,3211.819866375,walking,2,2022-05-12T10:39:05.439+02:00,2022-05-11T22:15:20.957+02:00,763,0.8982581,0.7741436,1.733193,581.0482,0,0,2022-05-12T10:39:07.997+02:00,674037547.9965956,0,-1.599998,100.9267,1,0.95
2022-05-12T10:39:08.592+02:00,1652344745.999639,53.22897392330061,10.39841691033021,38.8995,0.29,0.84,140.9765625,85.58003682840118,4,10,-9999,3214.97167625,-0.2348480224609375,-0.8391876220703125,-0.619720458984375,3214.96168125,-0.1297668898988243,0.09545850457489877,0.6847228787178098,-1.432613492012024,0.1631122827529907,-1.167065024375916,-0.3876113295555115,-0.3389004468917847,0.2138623595237732,XArbitraryZVertical,0.3375384326479496,0.02310551966404587,-0.04502195852529044,0.9399505794711494,0.07382937520742416,-0.6324583888053894,-0.7710678577423096,0,0,0,-1,-1,3211.819866375,walking,2,2022-05-12T10:39:05.439+02:00,2022-05-11T22:15:20.957+02:00,763,0.8982581,0.7741436,1.733193,581.0482,0,0,2022-05-12T10:39:07.997+02:00,674037547.9965956,0,-1.599998,100.9267,1,0.95
2022-05-12T10:39:08.602+02:00,1652344745.999639,53.22897392330061,10.39841691033021,38.8995,0.29,0.84,140.9765625,85.58003682840118,4,10,-9999,3214.981671875,-0.3331146240234375,-0.8262176513671875,-0.6909942626953125,3214.97167625,-0.144508075576577,0.1061915200963638,0.6682880308339358,-1.5505131483078,0.1555207520723343,-1.418393850326538,-0.3269050121307373,-0.3168646097183228,0.1926171779632568,XArbitraryZVertical,0.3302633078141179,0.02636222695033645,-0.05074255634630486,0.9421551804460803,0.08319142460823059,-0.6196432113647461,-0.780462384223938,0,0,0,-1,-1,3211.819866375,walking,2,2022-05-12T10:39:05.439+02:00,2022-05-11T22:15:20.957+02:00,763,0.8982581,0.7741436,1.733193,581.0482,0,0,2022-05-12T10:39:07.997+02:00,674037547.9965956,0,-1.599998,100.9267,1,0.95
2022-05-12T10:39:08.612+02:00,1652344745.999639,53.22897392330061,10.39841691033021,38.8995,0.29,0.84,140.9765625,85.58003682840118,4,10,-9999,3214.991666875,-0.3560943603515625,-0.7874298095703125,-0.7269134521484375,3214.981671875,-0.1610623065110936,0.1184782501586236,0.651691095659085,-1.445201396942139,0.2881794571876526,-1.562633872032166,-0.3288252651691437,-0.2326554656028748,0.1697648167610168,XArbitraryZVertical,0.3230248449006603,0.03020159153054075,-0.05718698975679198,0.9441782566163578,0.09397701174020767,-0.6065317988395691,-0.7894856333732605,0,0,0,-1,-1,3211.819866375,walking,2,2022-05-12T10:39:05.439+02:00,2022-05-11T22:15:20.957+02:00,763,0.8982581,0.7741436,1.733193,581.0482,0,0,2022-05-12T10:39:07.997+02:00,674037547.9965956,0,-1.599998,100.9267,1,0.95
2022-05-12T10:39:08.622+02:00,1652344745.999639,53.22897392330061,10.39841691033021,38.8995,0.29,0.84,140.9765625,85.58003682840118,4,10,-9999,3215.001661875,-0.355133056640625,-0.7567291259765625,-0.76177978515625,3214.991666875,-0.1794478755150689,0.1333158728974058,0.6362677857993917,-1.228264212608337,0.4763114750385284,-1.743310689926147,-0.4400260150432587,-0.2320196032524109,0.1061874628067017,XArbitraryZVertical,0.316513396761144,0.03504645037956085,-0.06416735108162616,0.9457662420343984,0.1069111526012421,-0.594197690486908,-0.797182023525238,0,0,0,-1,-1,3211.819866375,walking,2,2022-05-12T10:39:05.439+02:00,2022-05-11T22:15:20.957+02:00,763,0.8982581,0.7741436,1.733193,581.0482,0,0,2022-05-12T10:39:07.997+02:00,674037547.9965956,0,-1.599998,100.9267,1,0.95
2022-05-12T10:39:08.632+02:00,1652344745.999639,53.22897392330061,10.39841691033021,38.8995,0.29,0.84,140.9765625,85.58003682840118,4,10,-9999,3215.011656875,-0.3588714599609375,-0.7805023193359375,-0.7712554931640625,3215.001661875,-0.200020219742168,0.1511884637551385,0.6230559427517846,-0.9148272275924683,0.6771817207336426,-1.924534320831299,-0.4784073829650879,-0.2039098143577576,0.07592153549194336,XArbitraryZVertical,0.3112882587660984,0.04101192021924469,-0.07173331079741556,0.946716483192211,0.1223127990961075,-0.5835196375846863,-0.8028352856636047,0,0,0,-1,-1,3211.819866375,walking,2,2022-05-12T10:39:05.439+02:00,2022-05-11T22:15:20.957+02:00,763,0.8982581,0.7741436,1.733193,581.0482,0,0,2022-05-12T10:39:07.997+02:00,674037547.9965956,0,-1.599998,100.9267,1,0.95
2022-05-12T10:39:08.642+02:00,1652344746.999654,53.22897803043316,10.39844859392419,38.93148,0.23,0.79,69.609375,88.42073982496616,4,5,-9999,3215.021651875,-0.3220672607421875,-0.86358642578125,-0.782318115234375,3215.011656875,-0.2230612913583301,0.1723536185325798,0.6121300556507826,-0.6523875594139099,0.8880369663238525,-2.147692918777466,-0.4954946339130402,-0.182116687297821,0.04451990127563477,XArbitraryZVertical,0.307459965575072,0.04814920241695523,-0.07996068098968744,0.9469722993419625,0.1403613388538361,-0.5746120810508728,-0.8063000440597534,0,0,0,-1,-1,3211.819866375,walking,2,2022-05-12T10:39:05.439+02:00,2022-05-11T22:15:20.957+02:00,763,0.8982581,0.7741436,1.733193,581.0482,0,0,2022-05-12T10:39:07.997+02:00,674037547.9965956,0,-1.599998,100.9267,1,0.95
2022-05-12T10:39:08.652+02:00,1652344746.999654,53.22897803043316,10.39844859392419,38.93148,0.23,0.79,69.609375,88.42073982496616,4,5,-9999,3215.031646875,-0.2407989501953125,-0.9226837158203125,-0.763702392578125,3215.021651875,-0.2489771579070785,0.1965944447068331,0.6024058079974888,-0.5056615471839905,0.9525595307350159,-2.376278162002563,-0.5198191404342651,-0.2138755321502686,0.03684723377227783,XArbitraryZVertical,0.3045893255194846,0.05633675544092724,-0.08911539855263229,0.9466309764761233,0.1609474271535873,-0.5666264295578003,-0.8081030249595642,0,0,0,-1,-1,3211.819866375,walking,2,2022-05-12T10:39:05.439+02:00,2022-05-11T22:15:20.957+02:00,763,0.8982581,0.7741436,1.733193,581.0482,0,0,2022-05-12T10:39:07.997+02:00,674037547.9965956,0,-1.599998,100.9267,1,0.95
2022-05-12T10:39:08.662+02:00,1652344746.999654,53.22897803043316,10.39844859392419,38.93148,0.23,0.79,69.609375,88.42073982496616,4,5,-9999,3215.041641875,-0.347137451171875,-0.944305419921875,-0.78790283203125,3215.031646875,-0.276757610363644,0.2218416375988487,0.5923579535518726,-0.5163267850875854,1.031742453575134,-2.568045377731323,-0.5046073198318481,-0.3052672743797302,0.02697718143463135,XArbitraryZVertical,0.3019051449070622,0.06484959739378982,-0.09912181402503485,0.9459507780100803,0.1825398206710815,-0.5583187937736511,-0.809295654296875,0,0,0,-1,-1,3211.819866375,walking,2,2022-05-12T10:39:05.439+02:00,2022-05-11T22:15:20.957+02:00,763,0.8982581,0.7741436,1.733193,581.0482,0,0,2022-05-12T10:39:07.997+02:00,674037547.9965956,0,-1.599998,100.9267,1,0.95
2022-05-12T10:39:08.672+02:00,1652344746.999654,53.22897803043316,10.39844859392419,38.93148,0.23,0.79,69.609375,88.42073982496616,4,5,-9999,3215.051636875,-0.3235931396484375,-0.9196624755859375,-0.801544189453125,3215.041641875,-0.3068312316558898,0.2502075999513753,0.5808419055920016,-0.558585524559021,1.304347395896912,-2.835696458816528,-0.4477973282337189,-0.3739554286003113,0.04626607894897461,XArbitraryZVertical,0.2990499301405946,0.07473100671454624,-0.1099597516304577,0.9449304513785424,0.2069981247186661,-0.5487279891967773,-0.8099688291549683,0,0,0,-1,-1,3211.819866375,walking,2,2022-05-12T10:39:05.439+02:00,2022-05-11T22:15:20.957+02:00,763,0.8982581,0.7741436,1.733193,581.0482,0,0,2022-05-12T10:39:07.997+02:00,674037547.9965956,0,-1.599998,100.9267,1,0.95
2022-05-12T10:39:08.682+02:00,1652344746.999654,53.22897803043316,10.39844859392419,38.93148,0.23,0.79,69.609375,88.42073982496616,4,5,-9999,3215.061631875,-0.239166259765625,-0.8850250244140625,-0.8351898193359375,3215.051636875,-0.3389672002928604,0.2817694083677119,0.5674333069980856,-0.6115711331367493,1.500195503234863,-3.086321353912354,-0.5816174745559692,-0.406835675239563,0.022125244140625,XArbitraryZVertical,0.295919188105767,0.08612570649969369,-0.121581991722318,0.943521178342287,0.2344797402620316,-0.5374693870544434,-0.8100283741950989,0,0,0,-1,-1,3211.819866375,walking,2,2022-05-12T10:39:05.439+02:00,2022-05-11T22:15:20.957+02:00,763,0.8982581,0.7741436,1.733193,581.0482,0,0,2022-05-12T10:39:07.997+02:00,674037547.9965956,0,-1.599998,100.9267,1,0.95
2022-05-12T10:39:08.692+02:00,1652344746.999654,53.22897803043316,10.39844859392419,38.93148,0.23,0.79,69.609375,88.42073982496616,4,5,-9999,3215.071626875,-0.2099609375,-0.8509674072265625,-0.86334228515625,3215.061631875,-0.3731000105025946,0.3154360881070516,0.5517700307191314,-0.6879791021347046,1.638497829437256,-3.373951196670532,-0.5877856016159058,-0.3954667448997498,0.00803673267364502,XArbitraryZVertical,0.2923793629470003,0.09860879180409331,-0.1341993050501318,0.941690721700587,0.2641921937465668,-0.5241954326629639,-0.8095812201499939,0,0,0,-1,-1,3211.819866375,walking,2,2022-05-12T10:39:05.439+02:00,2022-05-11T22:15:20.957+02:00,763,0.8982581,0.7741436,1.733193,581.0482,0,0,2022-05-12T10:39:07.997+02:00,674037547.9965956,0,-1.599998,100.9267,1,0.95
2022-05-12T10:39:08.702+02:00,1652344746.999654,53.22897803043316,10.39844859392419,38.93148,0.23,0.79,69.609375,88.42073982496616,4,5,-9999,3215.081621875,-0.1016693115234375,-0.780548095703125,-0.8862762451171875,3215.071626875,-0.4091493657435561,0.3508853912809542,0.5333895082895491,-0.7734012007713318,1.692887663841248,-3.651854991912842,-0.535148024559021,-0.3765697479248047,-0.0265687108039856,XArbitraryZVertical,0.2882928588651184,0.112145037833378,-0.1479196382492583,0.9393778124370967,0.2959814667701721,-0.5084549188613892,-0.8086214065551758,0,0,0,-1,-1,3211.819866375,walking,2,2022-05-12T10:39:05.439+02:00,2022-05-11T22:15:20.957+02:00,763,0.8982581,0.7741436,1.733193,581.0482,0,0,2022-05-12T10:39:07.997+02:00,674037547.9965956,0,-1.599998,100.9267,1,0.95
2022-05-12T10:39:08.712+02:00,1652344746.999654,53.22897803043316,10.39844859392419,38.93148,0.23,0.79,69.609375,88.42073982496616,4,5,-9999,3215.091616875,-0.0497589111328125,-0.71697998046875,-0.90545654296875,3215.081621875,-0.4462938023428326,0.3866214556884977,0.5119388611287481,-0.9084525108337402,1.767258286476135,-3.906711578369141,-0.5386819839477539,-0.3610986173152924,-0.05589503049850464,XArbitraryZVertical,0.283435374161865,0.1262560332251859,-0.162668707169018,0.9366231572446511,0.3287207782268524,-0.4898684620857239,-0.807447612285614,0,0,0,-1,-1,3211.819866375,walking,2,2022-05-12T10:39:05.439+02:00,2022-05-11T22:15:20.957+02:00,763,0.8982581,0.7741436,1.733193,581.0482,0,0,2022-05-12T10:39:07.997+02:00,674037547.9965956,0,-1.599998,100.9267,1,0.95
2022-05-12T10:39:08.722+02:00,1652344746.999654,53.22897803043316,10.39844859392419,38.93148,0.23,0.79,69.609375,88.42073982496616,4,5,-9999,3215.101611875,0.0766143798828125,-0.6104278564453125,-0.9136505126953125,3215.091616875,-0.4842234912911624,0.4230897696852438,0.4872775954587771,-1.002508044242859,1.862339615821838,-4.15560245513916,-0.4644623100757599,-0.312325656414032,-0.08057838678359985,XArbitraryZVertical,0.2778331801389718,0.1412785752182809,-0.1783107378009076,0.9333029515146215,0.3627927005290985,-0.4682220816612244,-0.8056981563568115,0,0,0,-1,-1,3211.819866375,walking,2,2022-05-12T10:39:05.439+02:00,2022-05-11T22:15:20.957+02:00,763,0.8982581,0.7741436,1.733193,581.0482,0,0,2022-05-12T10:39:07.997+02:00,674037547.9965956,0,-1.599998,100.9267,1,0.95
2022-05-12T10:39:08.732+02:00,1652344746.999654,53.22897803043316,10.39844859392419,38.93148,0.23,0.79,69.609375,88.42073982496616,4,5,-9999,3215.111606875,0.14764404296875,-0.51904296875,-0.9441375732421875,3215.101611875,-0.5225504971411667,0.459111896455263,0.4597951775202829,-1.057950496673584,1.838124752044678,-4.348636627197266,-0.4468870759010315,-0.2732150852680206,-0.1021122932434082,XArbitraryZVertical,0.2716003513549988,0.1567193806216607,-0.1948258690583297,0.9293628349470424,0.3971278965473175,-0.4437645673751831,-0.8033445477485657,0,0,0,-1,-1,3211.819866375,walking,2,2022-05-12T10:39:05.439+02:00,2022-05-11T22:15:20.957+02:00,763,0.8982581,0.7741436,1.733193,581.0482,0,0,2022-05-12T10:39:07.997+02:00,674037547.9965956,0,-1.599998,100.9267,1,0.95
2022-05-12T10:39:08.746+02:00,1652344746.999654,53.22897803043316,10.39844859392419,38.93148,0.23,0.79,69.609375,88.42073982496616,4,5,-9999,3215.121601875,0.1944427490234375,-0.4224090576171875,-0.9354248046875,3215.111606875,-0.5604644072528508,0.4938383180737086,0.4298466446423344,-1.118424296379089,1.870681881904602,-4.499452590942383,-0.3542742431163788,-0.193696141242981,-0.1132320761680603,XArbitraryZVertical,0.2647822297755855,0.1722816799096136,-0.2119257029087685,0.9248227031729774,0.4308883249759674,-0.4167314171791077,-0.8004187941551208,0,0,0,-1,-1,3211.819866375,walking,2,2022-05-12T10:39:05.439+02:00,2022-05-11T22:15:20.957+02:00,763,0.8982581,0.7741436,1.733193,581.0482,0,0,2022-05-12T10:39:07.997+02:00,674037547.9965956,0,-1.599998,100.9267,1,0.95
2022-05-12T10:39:08.763+02:00,1652344746.999654,53.22897803043316,10.39844859392419,38.93148,0.23,0.79,69.609375,88.42073982496616,4,5,-9999,3215.131596875,0.3055267333984375,-0.300933837890625,-0.9335479736328125,3215.121601875,-0.5980703682024217,0.5274387796495904,0.3975515890092322,-1.180208086967468,1.806398749351501,-4.656668663024902,-0.3164249062538147,-0.1318805813789368,-0.1474284529685974,XArbitraryZVertical,0.2574635403976567,0.1880367638631649,-0.2296222987598623,0.9195805135809465,0.4640686213970184,-0.3871620297431946,-0.796709418296814,0,0,0,-1,-1,3211.819866375,walking,2,2022-05-12T10:39:05.439+02:00,2022-05-11T22:15:20.957+02:00,763,0.8982581,0.7741436,1.733193,581.0482,0,0,2022-05-12T10:39:07.997+02:00,674037547.9965956,0,-1.599998,100.9267,1,0.95
2022-05-12T10:39:08.766+02:00,1652344746.999654,53.22897803043316,10.39844859392419,38.93148,0.23,0.79,69.609375,88.42073982496616,4,5,-9999,3215.141591875,0.2862701416015625,-0.18829345703125,-0.9656219482421875,3215.131596875,-0.6344807513394909,0.5586388213138409,0.3627110810218351,-1.289961695671082,1.787799000740051,-4.742450714111328,-0.3011052012443542,-0.06759852170944214,-0.1426185369491577,XArbitraryZVertical,0.2493148959572508,0.2035651954663877,-0.2476932193919924,0.9138115538121722,0.4955476820468903,-0.3548102378845215,-0.7928065657615662,0,0,0,-1,-1,3211.819866375,walking,2,2022-05-12T10:39:05.439+02:00,2022-05-11T22:15:20.957+02:00,763,0.8982581,0.7741436,1.733193,581.0482,0,0,2022-05-12T10:39:07.997+02:00,674037547.9965956,0,-1.599998,100.9267,1,0.95
2022-05-12T10:39:08.772+02:00,1652344746.999654,53.22897803043316,10.39844859392419,38.93148,0.23,0.79,69.609375,88.42073982496616,4,5,-9999,3215.151586875,0.3216400146484375,-0.0361328125,-0.961944580078125,3215.141591875,-0.6694216234224234,0.5889309729894755,0.3256547839989297,-1.367686629295349,1.90538477897644,-4.81945276260376,-0.2207512259483337,0.01899570226669312,-0.1457175612449646,XArbitraryZVertical,0.2406000929757128,0.2195364059096618,-0.2657610404596166,0.9073514182827932,0.5262776017189026,-0.3199292123317719,-0.7878307104110718,0,0,0,-1,-1,3211.819866375,walking,2,2022-05-12T10:39:05.439+02:00,2022-05-11T22:15:20.957+02:00,763,0.8982581,0.7741436,1.733193,581.0482,0,0,2022-05-12T10:39:07.997+02:00,674037547.9965956,0,-1.599998,100.9267,1,0.95
