loggingTime(txt),locationTimestamp_since1970(s),locationLatitude(WGS84),locationLongitude(WGS84),locationAltitude(m),locationSpeed(m/s),locationSpeedAccuracy(m/s),locationCourse(°),locationCourseAccuracy(°),locationVerticalAccuracy(m),locationHorizontalAccuracy(m),locationFloor(Z),accelerometerTimestamp_sinceReboot(s),accelerometerAccelerationX(G),accelerometerAccelerationY(G),accelerometerAccelerationZ(G),motionTimestamp_sinceReboot(s),motionYaw(rad),motionRoll(rad),motionPitch(rad),motionRotationRateX(rad/s),motionRotationRateY(rad/s),motionRotationRateZ(rad/s),motionUserAccelerationX(G),motionUserAccelerationY(G),motionUserAccelerationZ(G),motionAttitudeReferenceFrame(txt),motionQuaternionX(R),motionQuaternionY(R),motionQuaternionZ(R),motionQuaternionW(R),motionGravityX(G),motionGravityY(G),motionGravityZ(G),motionMagneticFieldX(µT),motionMagneticFieldY(µT),motionMagneticFieldZ(µT),motionHeading(°),motionMagneticFieldCalibrationAccuracy(Z),activityTimestamp_sinceReboot(s),activity(txt),activityActivityConfidence(Z),activityActivityStartDate(txt),pedometerStartDate(txt),pedometerNumberofSteps(N),pedometerAverageActivePace(s/m),pedometerCurrentPace(s/m),pedometerCurrentCadence(steps/s),pedometerDistance(m),pedometerFloorAscended(N),pedometerFloorDescended(N),pedometerEndDate(txt),altimeterTimestamp_sinceReboot(s),altimeterReset(bool),altimeterRelativeAltitude(m),altimeterPressure(kPa),batteryState(N),batteryLevel(R)
2022-05-12T10:39:13.979+02:00,1652344751.999754,53.22897731797139,10.39845957421735,38.19595,0,0.75,-1,-1,4,5,-9999,3220.338990625,0.0607147216796875,-0.656494140625,-0.718902587890625,3220.328995625,0.2919388293879809,0.1279698358720039,0.6414944933925567,-0.07489541172981262,-0.4076085984706879,-0.3807178139686584,-0.03978059440851212,-0.05846643447875977,0.0836063027381897,XArbitraryZVertical,0.3024585938867073,0.1057984792040387,0.1576958644901026,0.9340543580942263,0.1022501215338707,-0.5983934998512268,-0.7946509718894958,0,0,0,-1,-1,3219.495798791667,running,2,2022-05-12T10:39:13.115+02:00,2022-05-11T22:15:20.957+02:00,763,0.8982581,0.7741436,1.733193,581.0482,0,0,2022-05-12T10:39:13.115+02:00,674037553.1148381,0,-1.580002,100.9263,1,0.95
2022-05-12T10:39:13.981+02:00,1652344751.999754,53.22897731797139,10.39845957421735,38.19595,0,0.75,-1,-1,4,5,-9999,3220.348985625,0.05865478515625,-0.657989501953125,-0.7223663330078125,3220.338990625,0.2873354020843173,0.1267214145600072,0.6400408912653932,-0.1210759505629539,-0.3907257616519928,-0.3865740895271301,-0.0472753494977951,-0.05361974239349365,0.08122318983078003,XArbitraryZVertical,0.3021149121124542,0.1044345008073368,0.1553460094942906,0.9347126722686971,0.1013678088784218,-0.5972282290458679,-0.7956400513648987,0,0,0,-1,-1,3219.495798791667,running,2,2022-05-12T10:39:13.115+02:00,2022-05-11T22:15:20.957+02:00,763,0.8982581,0.7741436,1.733193,581.0482,0,0,2022-05-12T10:39:13.115+02:00,674037553.1148381,0,-1.580002,100.9263,1,0.95
2022-05-12T10:39:13.983+02:00,1652344751.999754,53.22897731797139,10.39845957421735,38.19595,0,0.75,-1,-1,4,5,-9999,3220.358980625,0.0448455810546875,-0.6522369384765625,-0.728424072265625,3220.348985625,0.2827862469224384,0.1255348566709883,0.6381088780038272,-0.1698487102985382,-0.3868429064750671,-0.3846384584903717,-0.03985319286584854,-0.06081616878509521,0.07800012826919556,XArbitraryZVertical,0.3015336754953654,0.1030821351829065,0.1530258551310857,0.9354329143360465,0.1005679443478584,-0.5956774950027466,-0.7969030141830444,0,0,0,-1,-1,3219.495798791667,running,2,2022-05-12T10:39:13.115+02:00,2022-05-11T22:15:20.957+02:00,763,0.8982581,0.7741436,1.733193,581.0482,0,0,2022-05-12T10:39:13.115+02:00,674037553.1148381,0,-1.580002,100.9263,1,0.95
2022-05-12T10:39:13.991+02:00,1652344751.999754,53.22897731797139,10.39845957421735,38.19595,0,0.75,-1,-1,4,5,-9999,3220.368975625,0.0453643798828125,-0.64849853515625,-0.73297119140625,3220.358980625,0.2783807693647766,0.1243953460098071,0.6357517141751793,-0.208514615893364,-0.3684170246124268,-0.3765027523040771,-0.04117891937494278,-0.06420654058456421,0.07604151964187622,XArbitraryZVertical,0.3007364604551729,0.101752246211866,0.150775231572194,0.9362002410466106,0.09983373433351517,-0.5937825441360474,-0.7984081506729126,0,0,0,-1,-1,3219.495798791667,running,2,2022-05-12T10:39:13.115+02:00,2022-05-11T22:15:20.957+02:00,763,0.8982581,0.7741436,1.733193,581.0482,0,0,2022-05-12T10:39:13.115+02:00,674037553.1148381,0,-1.580002,100.9263,1,0.95
2022-05-12T10:39:14.000+02:00,1652344751.999754,53.22897731797139,10.39845957421735,38.19595,0,0.75,-1,-1,4,5,-9999,3220.378970625,0.05035400390625,-0.6515045166015625,-0.734100341796875,3220.368975625,0.2742723906064659,0.1232668329628531,0.6330467335303377,-0.2404890358448029,-0.342004269361496,-0.3489662706851959,-0.05428417026996613,-0.06063264608383179,0.07168698310852051,XArbitraryZVertical,0.2997546781564218,0.1004562048432239,0.1486610888100236,0.9369928938572075,0.09912978857755661,-0.5916038751602173,-0.8001113533973694,0,0,0,-1,-1,3219.495798791667,running,2,2022-05-12T10:39:13.115+02:00,2022-05-11T22:15:20.957+02:00,763,0.8982581,0.7741436,1.733193,581.0482,0,0,2022-05-12T10:39:13.115+02:00,674037553.1148381,0,-1.580002,100.9263,1,0.95
2022-05-12T10:39:14.009+02:00,1652344751.999754,53.22897731797139,10.39845957421735,38.19595,0,0.75,-1,-1,4,5,-9999,3220.388965625,0.0494842529296875,-0.6578826904296875,-0.730926513671875,3220.378970625,0.2705841222059592,0.1221360391742251,0.6302236965551127,-0.2424555122852325,-0.320886492729187,-0.3137257397174835,-0.05306363105773926,-0.05917263031005859,0.06890594959259033,XArbitraryZVertical,0.2986918608071541,0.09921917612851996,0.1467411669550782,0.937766464873996,0.09842804819345474,-0.589325487613678,-0.8018774390220642,0,0,0,-1,-1,3219.495798791667,running,2,2022-05-12T10:39:13.115+02:00,2022-05-11T22:15:20.957+02:00,763,0.8982581,0.7741436,1.733193,581.0482,0,0,2022-05-12T10:39:13.115+02:00,674037553.1148381,0,-1.580002,100.9263,1,0.95
2022-05-12T10:39:14.019+02:00,1652344751.999754,53.22897731797139,10.39845957421735,38.19595,0,0.75,-1,-1,4,5,-9999,3220.398960625,0.058135986328125,-0.6606597900390625,-0.7216949462890625,3220.388965625,0.2671476115995929,0.1210846505317196,0.6274505751216511,-0.2415200769901276,-0.2934732139110565,-0.3108766973018646,-0.04742790758609772,-0.06442123651504517,0.06949901580810547,XArbitraryZVertical,0.2976302618966212,0.09806311297182517,0.1449504366048994,0.9385037907597121,0.09778193384408951,-0.5870828628540039,-0.8035997152328491,0,0,0,-1,-1,3219.495798791667,running,2,2022-05-12T10:39:13.115+02:00,2022-05-11T22:15:20.957+02:00,763,0.8982581,0.7741436,1.733193,581.0482,0,0,2022-05-12T10:39:13.115+02:00,674037553.1148381,0,-1.580002,100.9263,1,0.95
2022-05-12T10:39:14.029+02:00,1652344751.999754,53.22897731797139,10.39845957421735,38.19595,0,0.75,-1,-1,4,5,-9999,3220.408955625,0.06201171875,-0.6745147705078125,-0.71466064453125,3220.398960625,0.2636454893650893,0.1201774957195538,0.6246190884919799,-0.2558468282222748,-0.3072936832904816,-0.3356954753398895,-0.0477675274014473,-0.07309389114379883,0.07440835237503052,XArbitraryZVertical,0.2965301857045016,0.09696520740548593,0.1431487539330955,0.9392423688045295,0.09725181013345718,-0.5847883224487305,-0.8053352236747742,0,0,0,-1,-1,3219.495798791667,running,2,2022-05-12T10:39:13.115+02:00,2022-05-11T22:15:20.957+02:00,763,0.8982581,0.7741436,1.733193,581.0482,0,0,2022-05-12T10:39:13.115+02:00,674037553.1148381,0,-1.580002,100.9263,1,0.95
2022-05-12T10:39:14.039+02:00,1652344751.999754,53.22897731797139,10.39845957421735,38.19595,0,0.75,-1,-1,4,5,-9999,3220.418950625,-0.0091705322265625,-0.7862396240234375,-0.6539306640625,3220.408955625,0.2597155026227845,0.1195876247760397,0.6215400926016676,-0.2744370102882385,-0.2852621972560883,-0.3693229258060455,-0.03885509073734283,-0.07837146520614624,0.08548098802566528,XArbitraryZVertical,0.2953077081041027,0.09594378422970083,0.1411895232752067,0.9400286372619884,0.09699109941720963,-0.5822879076004028,-0.8071762919425964,0,0,0,-1,-1,3219.495798791667,running,2,2022-05-12T10:39:13.115+02:00,2022-05-11T22:15:20.957+02:00,763,0.8982581,0.7741436,1.733193,581.0482,0,0,2022-05-12T10:39:13.115+02:00,674037553.1148381,0,-1.580002,100.9263,1,0.95
2022-05-12T10:39:14.049+02:00,1652344751.999754,53.22897731797139,10.39845957421735,38.19595,0,0.75,-1,-1,4,5,-9999,3220.428945625,0.1514739990234375,-0.6172027587890625,-0.719818115234375,3220.418950625,0.2539513138990631,0.1194768516705057,0.6172568276277463,-0.4602910280227661,-0.2291006296873093,-0.6586588621139526,-0.03518634289503098,-0.09571391344070435,0.09499496221542358,XArbitraryZVertical,0.293566048530828,0.09482102563208734,0.1384250459017946,0.9410985388346567,0.09719806909561157,-0.57880038022995,-0.8096559047698975,0,0,0,-1,-1,3219.495798791667,running,2,2022-05-12T10:39:13.115+02:00,2022-05-11T22:15:20.957+02:00,763,0.8982581,0.7741436,1.733193,581.0482,0,0,2022-05-12T10:39:13.115+02:00,674037553.1148381,0,-1.580002,100.9263,1,0.95
2022-05-12T10:39:14.059+02:00,1652344751.999754,53.22897731797139,10.39845957421735,38.19595,0,0.75,-1,-1,4,5,-9999,3220.438940625,0.167877197265625,-0.653289794921875,-0.6959075927734375,3220.428945625,0.2475643849039155,0.1211013922676945,0.6124859342235147,-0.3772901594638824,-0.3294996619224548,-0.4983355104923248,-0.1080162525177002,-0.2113358974456787,0.1582978963851929,XArbitraryZVertical,0.2914997814313383,0.09441093849547082,0.1356100543233131,0.9421913307194233,0.09884573519229889,-0.5749032497406006,-0.8122289180755615,0,0,0,-1,-1,3219.495798791667,running,2,2022-05-12T10:39:13.115+02:00,2022-05-11T22:15:20.957+02:00,763,0.8982581,0.7741436,1.733193,581.0482,0,0,2022-05-12T10:39:13.115+02:00,674037553.1148381,0,-1.580002,100.9263,1,0.95
2022-05-12T10:39:14.069+02:00,1652344751.999754,53.22897731797139,10.39845957421735,38.19595,0,0.75,-1,-1,4,5,-9999,3220.448935625,0.0644683837890625,-0.6782379150390625,-0.7256927490234375,3220.438940625,0.2427931423760698,0.1198613945802524,0.6082865930034788,-0.3656244575977325,-0.4628039300441742,-0.4033280611038208,0.05334769934415817,-0.04574000835418701,0.09492212533950806,XArbitraryZVertical,0.2898179207488675,0.09292633017170092,0.1331382783893028,0.9432096617642119,0.09812630712985992,-0.5714622139930725,-0.8147405385971069,0,0,0,-1,-1,3219.495798791667,running,2,2022-05-12T10:39:13.115+02:00,2022-05-11T22:15:20.957+02:00,763,0.8982581,0.7741436,1.733193,581.0482,0,0,2022-05-12T10:39:13.115+02:00,674037553.1148381,0,-1.580002,100.9263,1,0.95
2022-05-12T10:39:14.079+02:00,1652344751.999754,53.22897731797139,10.39845957421735,38.19595,0,0.75,-1,-1,4,5,-9999,3220.458930625,0.0884552001953125,-0.641754150390625,-0.7310791015625,3220.448935625,0.2381951767097605,0.1180430537455948,0.6042330700075764,-0.3350200355052948,-0.4237496852874756,-0.4362261295318604,0.07096052169799805,-0.08515822887420654,0.1213033199310303,XArbitraryZVertical,0.2882281592303024,0.0912079265458219,0.1306642069914274,0.9442101115175053,0.09691668301820755,-0.5681310892105103,-0.8172112703323364,0,0,0,-1,-1,3219.495798791667,running,2,2022-05-12T10:39:13.115+02:00,2022-05-11T22:15:20.957+02:00,763,0.8982581,0.7741436,1.733193,581.0482,0,0,2022-05-12T10:39:13.115+02:00,674037553.1148381,0,-1.580002,100.9263,1,0.95
2022-05-12T10:39:14.089+02:00,1652344752.999766,53.22897731797139,10.39845957421735,38.43801,0,0.74,-1,-1,4,5,-9999,3220.468925625,0.09930419921875,-0.6500396728515625,-0.7199859619140625,3220.458930625,0.2332847650688904,0.1166931193226466,0.6008571576567487,-0.2366146445274353,-0.4144547283649445,-0.4374985992908478,-0.0315677747130394,-0.1128877401351929,0.09354853630065918,XArbitraryZVertical,0.2869361436133532,0.08970418685425359,0.1281156993854715,0.9450964812589827,0.09603617340326309,-0.5653496980667114,-0.8192416429519653,0,0,0,-1,-1,3219.495798791667,running,2,2022-05-12T10:39:13.115+02:00,2022-05-11T22:15:20.957+02:00,763,0.8982581,0.7741436,1.733193,581.0482,0,0,2022-05-12T10:39:13.115+02:00,674037553.1148381,0,-1.580002,100.9263,1,0.95
2022-05-12T10:39:14.099+02:00,1652344752.999766,53.22897731797139,10.39845957421735,38.43801,0,0.74,-1,-1,4,5,-9999,3220.478920625,0.0962677001953125,-0.663421630859375,-0.719482421875,3220.468925625,0.2284527907974938,0.1153535832070967,0.5982983401792299,-0.1854380369186401,-0.3995860815048218,-0.4129841327667236,-0.006649672985076904,-0.07851648330688477,0.08972442150115967,XArbitraryZVertical,0.2860213931127664,0.0882600157824243,0.1256126195781807,0.9458454604650499,0.09510488063097,-0.563237190246582,-0.8208038806915283,0,0,0,-1,-1,3219.495798791667,running,2,2022-05-12T10:39:13.115+02:00,2022-05-11T22:15:20.957+02:00,763,0.8982581,0.7741436,1.733193,581.0482,0,0,2022-05-12T10:39:13.115+02:00,674037553.1148381,0,-1.580002,100.9263,1,0.95
2022-05-12T10:39:14.109+02:00,1652344752.999766,53.22897731797139,10.39845957421735,38.43801,0,0.74,-1,-1,4,5,-9999,3220.488915625,0.0987091064453125,-0.6730499267578125,-0.71368408203125,3220.478920625,0.2237892215102543,0.1140710307984361,0.5961036896192083,-0.1627204716205597,-0.3875126540660858,-0.4028857052326202,0.005111642181873322,-0.08861678838729858,0.1021649837493896,XArbitraryZVertical,0.2852629229584338,0.08688745149731657,0.1231997705211935,0.9465187379704941,0.09419254958629608,-0.5614224076271057,-0.822151243686676,0,0,0,-1,-1,3219.495798791667,running,2,2022-05-12T10:39:13.115+02:00,2022-05-11T22:15:20.957+02:00,763,0.8982581,0.7741436,1.733193,581.0482,0,0,2022-05-12T10:39:13.115+02:00,674037553.1148381,0,-1.580002,100.9263,1,0.95
2022-05-12T10:39:14.119+02:00,1652344752.999766,53.22897731797139,10.39845957421735,38.43801,0,0.74,-1,-1,4,5,-9999,3220.498910625,0.0985870361328125,-0.6810302734375,-0.7213592529296875,3220.488915625,0.2192435591643558,0.1128244235138091,0.5940439718012673,-0.166005402803421,-0.36777263879776,-0.3975659012794495,0.002970136702060699,-0.1037043929100037,0.1039325594902039,XArbitraryZVertical,0.2845560685907936,0.08555809535588065,0.1208480295653225,0.9471555348429239,0.0932975634932518,-0.5597167611122131,-0.8234153389930725,0,0,0,-1,-1,3219.495798791667,running,2,2022-05-12T10:39:13.115+02:00,2022-05-11T22:15:20.957+02:00,763,0.8982581,0.7741436,1.733193,581.0482,0,0,2022-05-12T10:39:13.115+02:00,674037553.1148381,0,-1.580002,100.9263,1,0.95
2022-05-12T10:39:14.129+02:00,1652344752.999766,53.22897731797139,10.39845957421735,38.43801,0,0.74,-1,-1,4,5,-9999,3220.508905625,0.10552978515625,-0.6643524169921875,-0.7332305908203125,3220.498910625,0.214703744417565,0.1118332777279464,0.5918718876439696,-0.1782412976026535,-0.34584841132164,-0.3916712403297424,0.006092235445976257,-0.1151340007781982,0.1110291481018066,XArbitraryZVertical,0.2837753887331366,0.08434895865091981,0.1185328782913562,0.9477904823994221,0.09261685609817505,-0.5579154491424561,-0.8247135877609253,0,0,0,-1,-1,3219.495798791667,running,2,2022-05-12T10:39:13.115+02:00,2022-05-11T22:15:20.957+02:00,763,0.8982581,0.7741436,1.733193,581.0482,0,0,2022-05-12T10:39:13.115+02:00,674037553.1148381,0,-1.580002,100.9263,1,0.95
2022-05-12T10:39:14.139+02:00,1652344752.999766,53.22897731797139,10.39845957421735,38.43801,0,0.74,-1,-1,4,5,-9999,3220.518900625,0.0997314453125,-0.6561126708984375,-0.7442779541015625,3220.508905625,0.210403689964984,0.1108244668215655,0.5896125856670981,-0.1910051703453064,-0.3317331373691559,-0.3616886138916016,0.006663024425506592,-0.1249907612800598,0.1046977043151855,XArbitraryZVertical,0.2829397820997588,0.08316522611644293,0.1163265349771778,0.9484180939271772,0.09192400425672531,-0.556039035320282,-0.8260572552680969,0,0,0,-1,-1,3219.495798791667,running,2,2022-05-12T10:39:13.115+02:00,2022-05-11T22:15:20.957+02:00,763,0.8982581,0.7741436,1.733193,581.0482,0,0,2022-05-12T10:39:13.115+02:00,674037553.1148381,0,-1.580002,100.9263,1,0.95
2022-05-12T10:39:14.149+02:00,1652344752.999766,53.22897731797139,10.39845957421735,38.43801,0,0.74,-1,-1,4,5,-9999,3220.528895625,0.093170166015625,-0.6475830078125,-0.748779296875,3220.518900625,0.2065624780592533,0.1096985214447443,0.5873233162793001,-0.1903772056102753,-0.3179675042629242,-0.3253769278526306,0.01439680159091949,-0.1102170944213867,0.09419244527816772,XArbitraryZVertical,0.2820735381780907,0.08199290662623444,0.1143198140670909,0.9490220934877723,0.09113296866416931,-0.5541348457336426,-0.8274233937263489,0,0,0,-1,-1,3219.495798791667,running,2,2022-05-12T10:39:13.115+02:00,2022-05-11T22:15:20.957+02:00,763,0.8982581,0.7741436,1.733193,581.0482,0,0,2022-05-12T10:39:13.115+02:00,674037553.1148381,0,-1.580002,100.9263,1,0.95
2022-05-12T10:39:14.159+02:00,1652344752.999766,53.22897731797139,10.39845957421735,38.43801,0,0.74,-1,-1,4,5,-9999,3220.538890625,0.09027099609375,-0.6519775390625,-0.7556610107421875,3220.528895625,0.2031052867458415,0.1086428168123146,0.5851659181592824,-0.1776517480611801,-0.2875716686248779,-0.2980612814426422,0.009342595934867859,-0.1037744879722595,0.0844273567199707,XArbitraryZVertical,0.2812467484393974,0.08091644805734367,0.1125059716528349,0.9495763745618383,0.09038881957530975,-0.5523377060890198,-0.8287056088447571,0,0,0,-1,-1,3219.495798791667,running,2,2022-05-12T10:39:13.115+02:00,2022-05-11T22:15:20.957+02:00,763,0.8982581,0.7741436,1.733193,581.0482,0,0,2022-05-12T10:39:13.115+02:00,674037553.1148381,0,-1.580002,100.9263,1,0.95
2022-05-12T10:39:14.169+02:00,1652344752.999766,53.22897731797139,10.39845957421735,38.43801,0,0.74,-1,-1,4,5,-9999,3220.548885625,0.08807373046875,-0.6574554443359375,-0.7592620849609375,3220.538890625,0.1999574160370957,0.1076114258638839,0.5831954582667501,-0.1608874201774597,-0.273333340883255,-0.2748587429523468,0.003519371151924133,-0.09688854217529297,0.08109921216964722,XArbitraryZVertical,0.2804920179452776,0.07990503618575098,0.110843932678162,0.9500805812810029,0.08965077251195908,-0.5506939888000488,-0.8298788070678711,0,0,0,-1,-1,3219.495798791667,running,2,2022-05-12T10:39:13.115+02:00,2022-05-11T22:15:20.957+02:00,763,0.8982581,0.7741436,1.733193,581.0482,0,0,2022-05-12T10:39:13.115+02:00,674037553.1148381,0,-1.580002,100.9263,1,0.95
2022-05-12T10:39:14.179+02:00,1652344752.999766,53.22897731797139,10.39845957421735,38.43801,0,0.74,-1,-1,4,5,-9999,3220.558880625,0.08001708984375,-0.66497802734375,-0.7649383544921875,3220.548885625,0.196992238979177,0.1065640756833806,0.581308371294556,-0.1635866314172745,-0.2613416016101837,-0.2639720737934113,0.001379050314426422,-0.1028591990470886,0.07534277439117432,XArbitraryZVertical,0.2797678338329548,0.07891705772271,0.1092669558944875,0.9505592735921365,0.08889192342758179,-0.5491178631782532,-0.8310041427612305,0,0,0,-1,-1,3219.495798791667,running,2,2022-05-12T10:39:13.115+02:00,2022-05-11T22:15:20.957+02:00,763,0.8982581,0.7741436,1.733193,581.0482,0,0,2022-05-12T10:39:13.115+02:00,674037553.1148381,0,-1.580002,100.9263,1,0.95
2022-05-12T10:39:14.189+02:00,1652344752.999766,53.22897731797139,10.39845957421735,38.43801,0,0.74,-1,-1,4,5,-9999,3220.568875625,0.0797576904296875,-0.665283203125,-0.7621612548828125,3220.558880625,0.1941093416298365,0.1055967794651915,0.5794096497570868,-0.1639056801795959,-0.2506745755672455,-0.2631315886974335,-0.0001240894198417664,-0.1099249124526978,0.07286262512207031,XArbitraryZVertical,0.2790279417154598,0.07798012998640398,0.1077397932643687,0.9510282482200882,0.08819779008626938,-0.5475300550460815,-0.8321250081062317,0,0,0,-1,-1,3219.495798791667,running,2,2022-05-12T10:39:13.115+02:00,2022-05-11T22:15:20.957+02:00,763,0.8982581,0.7741436,1.733193,581.0482,0,0,2022-05-12T10:39:13.115+02:00,674037553.1148381,0,-1.580002,100.9263,1,0.95
2022-05-12T10:39:14.199+02:00,1652344752.999766,53.22897731797139,10.39845957421735,38.43801,0,0.74,-1,-1,4,5,-9999,3220.578870625,0.076934814453125,-0.6578369140625,-0.7640533447265625,3220.568875625,0.1913114918873114,0.1046829272060112,0.5775107077324046,-0.1675858199596405,-0.2388249635696411,-0.246017187833786,-0.007528729736804962,-0.1190375089645386,0.06829911470413208,XArbitraryZVertical,0.2782793754474647,0.07708239940190172,0.1062601574458108,0.9514870880308844,0.08754579722881317,-0.5459400415420532,-0.8332377672195435,0,0,0,-1,-1,3219.495798791667,running,2,2022-05-12T10:39:13.115+02:00,2022-05-11T22:15:20.957+02:00,763,0.8982581,0.7741436,1.733193,581.0482,0,0,2022-05-12T10:39:13.115+02:00,674037553.1148381,0,-1.580002,100.9263,1,0.95
2022-05-12T10:39:14.209+02:00,1652344752.999766,53.22897731797139,10.39845957421735,38.43801,0,0.74,-1,-1,4,5,-9999,3220.588865625,0.0578765869140625,-0.6571197509765625,-0.7695159912109375,3220.578870625,0.1887794978334192,0.1037525541673573,0.5755744307605558,-0.171717181801796,-0.2190376818180084,-0.2211997210979462,-0.007122188806533813,-0.1209660172462463,0.07220721244812012,XArbitraryZVertical,0.2775013930177794,0.07621417935135413,0.1049039623640742,0.9519347168943352,0.08687985688447952,-0.5443167686462402,-0.8343687653541565,0,0,0,-1,-1,3219.495798791667,running,2,2022-05-12T10:39:13.115+02:00,2022-05-11T22:15:20.957+02:00,763,0.8982581,0.7741436,1.733193,581.0482,0,0,2022-05-12T10:39:13.115+02:00,674037553.1148381,0,-1.580002,100.9263,1,0.95
2022-05-12T10:39:14.219+02:00,1652344752.999766,53.22897731797139,10.39845957421735,38.43801,0,0.74,-1,-1,4,5,-9999,3220.598860625,0.0482940673828125,-0.654876708984375,-0.7778778076171875,3220.588865625,0.1863586021707824,0.1030962727180657,0.5737247403198814,-0.1554934829473495,-0.1703031659126282,-0.2178137898445129,-0.009500950574874878,-0.1150722503662109,0.07137197256088257,XArbitraryZVertical,0.2767443253814894,0.07549684939085156,0.1036393856813893,0.9523506321958334,0.0864357203245163,-0.5427641868591309,-0.8354256153106689,0,0,0,-1,-1,3219.495798791667,running,2,2022-05-12T10:39:13.115+02:00,2022-05-11T22:15:20.957+02:00,763,0.8982581,0.7741436,1.733193,581.0482,0,0,2022-05-12T10:39:13.115+02:00,674037553.1148381,0,-1.580002,100.9263,1,0.95
2022-05-12T10:39:14.229+02:00,1652344752.999766,53.22897731797139,10.39845957421735,38.43801,0,0.74,-1,-1,4,5,-9999,3220.608855625,0.0557708740234375,-0.6551971435546875,-0.798675537109375,3220.598860625,0.1840325792358723,0.1029884520944757,0.5720155858989001,-0.1480217128992081,-0.1048328131437302,-0.2064069360494614,-0.02856434136629105,-0.1157914400100708,0.06684017181396484,XArbitraryZVertical,0.2760211011878469,0.07506073564635196,0.1024969293472408,0.9527186201856714,0.08644089102745056,-0.5413278937339783,-0.8363564610481262,0,0,0,-1,-1,3219.495798791667,running,2,2022-05-12T10:39:13.115+02:00,2022-05-11T22:15:20.957+02:00,763,0.8982581,0.7741436,1.733193,581.0482,0,0,2022-05-12T10:39:13.115+02:00,674037553.1148381,0,-1.580002,100.9263,1,0.95
2022-05-12T10:39:14.239+02:00,1652344752.999766,53.22897731797139,10.39845957421735,38.43801,0,0.74,-1,-1,4,5,-9999,3220.618850625,0.0530242919921875,-0.6603851318359375,-0.8245086669921875,3220.608855625,0.1818232115067008,0.103331855897018,0.5704228869362326,-0.1314609199762344,-0.06651192158460617,-0.1994165331125259,-0.0385228767991066,-0.1148881912231445,0.05930513143539429,XArbitraryZVertical,0.2753254638332219,0.07486164100238393,0.1014728683583259,0.9530451183187643,0.08681691437959671,-0.5399880409240723,-0.8371832370758057,0,0,0,-1,-1,3219.495798791667,running,2,2022-05-12T10:39:13.115+02:00,2022-05-11T22:15:20.957+02:00,763,0.8982581,0.7741436,1.733193,581.0482,0,0,2022-05-12T10:39:13.115+02:00,674037553.1148381,0,-1.580002,100.9263,1,0.95
2022-05-12T10:39:14.249+02:00,1652344752.999766,53.22897731797139,10.39845957421735,38.43801,0,0.74,-1,-1,4,5,-9999,3220.628845625,0.0505828857421875,-0.6564483642578125,-0.849700927734375,3220.618850625,0.1795535479098039,0.1039851305011393,0.568875266488876,-0.1377891153097153,-0.04743170738220215,-0.211269736289978,-0.03167961537837982,-0.1165118217468262,0.03928071260452271,XArbitraryZVertical,0.2746377776136951,0.07480524023148288,0.1004622400158016,0.9533549861977029,0.08745044469833374,-0.5386847853660583,-0.8379565477371216,0,0,0,-1,-1,3219.495798791667,running,2,2022-05-12T10:39:13.115+02:00,2022-05-11T22:15:20.957+02:00,763,0.8982581,0.7741436,1.733193,581.0482,0,0,2022-05-12T10:39:13.115+02:00,674037553.1148381,0,-1.580002,100.9263,1,0.95
2022-05-12T10:39:14.259+02:00,1652344752.999766,53.22897731797139,10.39845957421735,38.43801,0,0.74,-1,-1,4,5,-9999,3220.638840625,0.05218505859375,-0.643463134765625,-0.8763580322265625,3220.628845625,0.1771563037578465,0.1048113131372836,0.5672902266008726,-0.1348740458488464,-0.04444690048694611,-0.2266510128974915,-0.03520769625902176,-0.1230359077453613,0.01422315835952759,XArbitraryZVertical,0.2739284223160335,0.07481424717508699,0.09941286132737702,0.9536683127996231,0.08823193609714508,-0.5373486876487732,-0.838732123374939,0,0,0,-1,-1,3219.495798791667,running,2,2022-05-12T10:39:13.115+02:00,2022-05-11T22:15:20.957+02:00,763,0.8982581,0.7741436,1.733193,581.0482,0,0,2022-05-12T10:39:13.115+02:00,674037553.1148381,0,-1.580002,100.9263,1,0.95
2022-05-12T10:39:14.269+02:00,1652344752.999766,53.22897731797139,10.39845957421735,38.43801,0,0.74,-1,-1,4,5,-9999,3220.648835625,0.0480499267578125,-0.62835693359375,-0.89666748046875,3220.638840625,0.1745303987741089,0.1057713526259051,0.5658304989111707,-0.107408881187439,-0.0441448986530304,-0.2460311055183411,-0.03853698074817657,-0.1203308701515198,-0.01027512550354004,XArbitraryZVertical,0.273281203218409,0.07486211897537735,0.09827303946043994,0.9539682918418879,0.08911982923746109,-0.5361170768737793,-0.8394261002540588,0,0,0,-1,-1,3219.495798791667,running,2,2022-05-12T10:39:13.115+02:00,2022-05-11T22:15:20.957+02:00,763,0.8982581,0.7741436,1.733193,581.0482,0,0,2022-05-12T10:39:13.115+02:00,674037553.1148381,0,-1.580002,100.9263,1,0.95
2022-05-12T10:39:14.279+02:00,1652344752.999766,53.22897731797139,10.39845957421735,38.43801,0,0.74,-1,-1,4,5,-9999,3220.658830625,0.054473876953125,-0.6142578125,-0.9170379638671875,3220.648835625,0.1715637642101703,0.10693778467511,0.5646733325929177,-0.0725538581609726,-0.03798214346170425,-0.2728589475154877,-0.03798004239797592,-0.1083227396011353,-0.03642046451568604,XArbitraryZVertical,0.2727818903399208,0.07497417635668527,0.09700154939189781,0.9542324541590984,0.09016505628824234,-0.5351398587226868,-0.8399378061294556,0,0,0,-1,-1,3219.495798791667,running,2,2022-05-12T10:39:13.115+02:00,2022-05-11T22:15:20.957+02:00,763,0.8982581,0.7741436,1.733193,581.0482,0,0,2022-05-12T10:39:13.115+02:00,674037553.1148381,0,-1.580002,100.9263,1,0.95
2022-05-12T10:39:14.289+02:00,1652344752.999766,53.22897731797139,10.39845957421735,38.43801,0,0.74,-1,-1,4,5,-9999,3220.668825625,0.0525665283203125,-0.60882568359375,-0.94293212890625,3220.658830625,0.1683489979531066,0.1083046781737309,0.5638176005011029,-0.03875275328755379,-0.03431203961372375,-0.2860791385173798,-0.04331266134977341,-0.09393966197967529,-0.05639898777008057,XArbitraryZVertical,0.2724272646273643,0.07515977712476303,0.09564191722993115,0.9544565063591366,0.09136254340410233,-0.5344167947769165,-0.8402687907218933,0,0,0,-1,-1,3219.495798791667,running,2,2022-05-12T10:39:13.115+02:00,2022-05-11T22:15:20.957+02:00,763,0.8982581,0.7741436,1.733193,581.0482,0,0,2022-05-12T10:39:13.115+02:00,674037553.1148381,0,-1.580002,100.9263,1,0.95
2022-05-12T10:39:14.299+02:00,1652344752.999766,53.22897731797139,10.39845957421735,38.43801,0,0.74,-1,-1,4,5,-9999,3220.678820625,0.0510711669921875,-0.6001434326171875,-0.972076416015625,3220.668825625,0.1649610537389025,0.1097965610087595,0.5633597791941416,0.01357460208237171,-0.02514976635575294,-0.2927170097827911,-0.03816898167133331,-0.08022761344909668,-0.07666361331939697,XArbitraryZVertical,0.2722648915851217,0.07539564770369246,0.09422145617762755,0.9546254865216333,0.09264282137155533,-0.5340297818183899,-0.8403746485710144,0,0,0,-1,-1,3219.495798791667,running,2,2022-05-12T10:39:13.115+02:00,2022-05-11T22:15:20.957+02:00,763,0.8982581,0.7741436,1.733193,581.0482,0,0,2022-05-12T10:39:13.115+02:00,674037553.1148381,0,-1.580002,100.9263,1,0.95
2022-05-12T10:39:14.309+02:00,1652344752.999766,53.22897731797139,10.39845957421735,38.43801,0,0.74,-1,-1,4,5,-9999,3220.688815625,0.0578765869140625,-0.61895751953125,-0.998809814453125,3220.678820625,0.1615197377162534,0.111517368105261,0.5634698727660016,0.07344432920217514,0.005238231737166643,-0.2778102159500122,-0.0415157750248909,-0.07470238208770752,-0.1027768850326538,XArbitraryZVertical,0.2723671580676632,0.07575194587886734,0.09281477491009117,0.9547058936786174,0.09408226609230042,-0.5341228842735291,-0.8401555418968201,0,0,0,-1,-1,3219.495798791667,running,2,2022-05-12T10:39:13.115+02:00,2022-05-11T22:15:20.957+02:00,763,0.8982581,0.7741436,1.733193,581.0482,0,0,2022-05-12T10:39:13.115+02:00,674037553.1148381,0,-1.580002,100.9263,1,0.95
2022-05-12T10:39:14.333+02:00,1652344752.999766,53.22897731797139,10.39845957421735,38.43801,0,0.74,-1,-1,4,5,-9999,3220.698810625,0.0733642578125,-0.64935302734375,-1.012664794921875,3220.688815625,0.1581824391010253,0.1134411144156275,0.5641157722480873,0.10953039675951,0.02972140349447727,-0.266266405582428,-0.04458814859390259,-0.06547415256500244,-0.1324467062950134,XArbitraryZVertical,0.2727144538621775,0.07623516774175482,0.09149408437096318,0.9546957577900663,0.09565926343202591,-0.5346688032150269,-0.8396300673484802,0,0,0,-1,-1,3219.495798791667,running,2,2022-05-12T10:39:13.115+02:00,2022-05-11T22:15:20.957+02:00,763,0.8982581,0.7741436,1.733193,581.0482,0,0,2022-05-12T10:39:13.115+02:00,674037553.1148381,0,-1.580002,100.9263,1,0.95
2022-05-12T10:39:14.335+02:00,1652344752.999766,53.22897731797139,10.39845957421735,38.43801,0,0.74,-1,-1,4,5,-9999,3220.708805625,0.1005096435546875,-0.67010498046875,-1.01708984375,3220.698810625,0.1550021130016317,0.1156014940479352,0.5648664039996291,0.09968814998865128,0.05442488938570023,-0.2548483610153198,-0.03955009579658508,-0.08365410566329956,-0.1597875952720642,XArbitraryZVertical,0.273097238411137,0.07685461757867744,0.09028319157041037,0.9546519406133351,0.097426638007164,-0.535302996635437,-0.8390225172042847,0,0,0,-1,-1,3219.495798791667,running,2,2022-05-12T10:39:13.115+02:00,2022-05-11T22:15:20.957+02:00,763,0.8982581,0.7741436,1.733193,581.0482,0,0,2022-05-12T10:39:13.115+02:00,674037553.1148381,0,-1.580002,100.9263,1,0.95
2022-05-12T10:39:14.339+02:00,1652344752.999766,53.22897731797139,10.39845957421735,38.43801,0,0.74,-1,-1,4,5,-9999,3220.718800625,0.13006591796875,-0.6723785400390625,-1.01202392578125,3220.708805625,0.1516762797983855,0.1178485931532805,0.5654034087615801,0.06961413472890854,0.03553801402449608,-0.2954868674278259,-0.02591373771429062,-0.1135960817337036,-0.174149215221405,XArbitraryZVertical,0.273381853497673,0.07748820440848334,0.08901197270141019,0.9546385839584096,0.09927794337272644,-0.5357564687728882,-0.8385158777236938,0,0,0,-1,-1,3219.495798791667,running,2,2022-05-12T10:39:13.115+02:00,2022-05-11T22:15:20.957+02:00,763,0.8982581,0.7741436,1.733193,581.0482,0,0,2022-05-12T10:39:13.115+02:00,674037553.1148381,0,-1.580002,100.9263,1,0.95
2022-05-12T10:39:14.349+02:00,1652344752.999766,53.22897731797139,10.39845957421735,38.43801,0,0.74,-1,-1,4,5,-9999,3220.728795625,0.1528472900390625,-0.6642608642578125,-1.009933471679688,3220.718800625,0.1479082240261347,0.1200823347734327,0.5655350726884129,0.03275305777788162,0.009284839034080505,-0.3347695469856262,-0.0006326735019683838,-0.1342368125915527,-0.1788681745529175,XArbitraryZVertical,0.2734927840037143,0.07804291190352246,0.08752111387960197,0.954699504008913,0.1011422723531723,-0.5358676314353943,-0.8382220268249512,0,0,0,-1,-1,3219.495798791667,running,2,2022-05-12T10:39:13.115+02:00,2022-05-11T22:15:20.957+02:00,763,0.8982581,0.7741436,1.733193,581.0482,0,0,2022-05-12T10:39:13.115+02:00,674037553.1148381,0,-1.580002,100.9263,1,0.95
2022-05-12T10:39:14.359+02:00,1652344752.999766,53.22897731797139,10.39845957421735,38.43801,0,0.74,-1,-1,4,5,-9999,3220.738790625,0.1656951904296875,-0.6526641845703125,-1.00775146484375,3220.728795625,0.1438026208195104,0.1222509121326543,0.5653153215785084,0.01030317507684231,-0.01157803274691105,-0.3564054369926453,0.02709173411130905,-0.1366959810256958,-0.173906683921814,XArbitraryZVertical,0.2734543191552233,0.07851094780631518,0.08585356723109083,0.9548234932645386,0.1029741391539574,-0.5356820821762085,-0.8381175398826599,0,0,0,-1,-1,3219.495798791667,running,2,2022-05-12T10:39:13.115+02:00,2022-05-11T22:15:20.957+02:00,763,0.8982581,0.7741436,1.733193,581.0482,0,0,2022-05-12T10:39:13.115+02:00,674037553.1148381,0,-1.580002,100.9263,1,0.95
2022-05-12T10:39:14.369+02:00,1652344752.999766,53.22897731797139,10.39845957421735,38.43801,0,0.74,-1,-1,4,5,-9999,3220.748785625,0.1825714111328125,-0.6367034912109375,-1.00469970703125,3220.738790625,0.1396132752179181,0.124353591152103,0.5649268124270177,-0.0008064680732786655,-0.01637758128345013,-0.3559819757938385,0.04808522760868073,-0.1289064288139343,-0.1718281507492065,XArbitraryZVertical,0.2733438836818537,0.07893233253183964,0.08413315982864045,0.9549735319814108,0.1047620102763176,-0.5353540182113647,-0.8381056189537048,0,0,0,-1,-1,3219.495798791667,running,2,2022-05-12T10:39:13.115+02:00,2022-05-11T22:15:20.957+02:00,763,0.8982581,0.7741436,1.733193,581.0482,0,0,2022-05-12T10:39:13.115+02:00,674037553.1148381,0,-1.580002,100.9263,1,0.95
2022-05-12T10:39:14.379+02:00,1652344752.999766,53.22897731797139,10.39845957421735,38.43801,0,0.74,-1,-1,4,5,-9999,3220.758780625,0.192596435546875,-0.6128997802734375,-0.998260498046875,3220.748785625,0.1355176857636666,0.1262298370907656,0.5644097510164663,-0.01458423025906086,-0.0491129569709301,-0.3418942987918854,0.05932598561048508,-0.1177465319633484,-0.1695696711540222,XArbitraryZVertical,0.2731801658089792,0.07925616452728841,0.0824231691813451,0.9551427629254505,0.1063691526651382,-0.5349171757698059,-0.8381820917129517,0,0,0,-1,-1,3219.495798791667,running,2,2022-05-12T10:39:13.115+02:00,2022-05-11T22:15:20.957+02:00,763,0.8982581,0.7741436,1.733193,581.0482,0,0,2022-05-12T10:39:13.115+02:00,674037553.1148381,0,-1.580002,100.9263,1,0.95
2022-05-12T10:39:14.389+02:00,1652344752.999766,53.22897731797139,10.39845957421735,38.43801,0,0.74,-1,-1,4,5,-9999,3220.768775625,0.189422607421875,-0.585235595703125,-0.9766998291015625,3220.758780625,0.1316020701832178,0.1275581178145435,0.5638021781142284,-0.02481396496295929,-0.1073506996035576,-0.3344340026378632,0.07504763454198837,-0.1022992730140686,-0.1663377285003662,XArbitraryZVertical,0.2729903512546608,0.07934185248740834,0.08072153914355552,0.9553351796905178,0.1075237244367599,-0.5344037413597107,-0.8383622765541077,0,0,0,-1,-1,3219.495798791667,running,2,2022-05-12T10:39:13.115+02:00,2022-05-11T22:15:20.957+02:00,763,0.8982581,0.7741436,1.733193,581.0482,0,0,2022-05-12T10:39:13.115+02:00,674037553.1148381,0,-1.580002,100.9263,1,0.95
2022-05-12T10:39:14.399+02:00,1652344752.999766,53.22897731797139,10.39845957421735,38.43801,0,0.74,-1,-1,4,5,-9999,3220.778770625,0.178009033203125,-0.5545501708984375,-0.9473419189453125,3220.768775625,0.1277366666712174,0.1282803780105592,0.5630686941504464,-0.03971768170595169,-0.1594919264316559,-0.3299886584281921,0.08441704511642456,-0.07911562919616699,-0.1595878601074219,XArbitraryZVertical,0.2727634449337766,0.07914323957122714,0.07895761642246341,0.9555637790972582,0.1081793233752251,-0.5337836742401123,-0.8386728763580322,0,0,0,-1,-1,3219.495798791667,running,2,2022-05-12T10:39:13.115+02:00,2022-05-11T22:15:20.957+02:00,763,0.8982581,0.7741436,1.733193,581.0482,0,0,2022-05-12T10:39:13.115+02:00,674037553.1148381,0,-1.580002,100.9263,1,0.95
2022-05-12T10:39:14.409+02:00,1652344752.999766,53.22897731797139,10.39845957421735,38.43801,0,0.74,-1,-1,4,5,-9999,3220.788765625,0.161834716796875,-0.5190887451171875,-0.9269866943359375,3220.778770625,0.1240491175941173,0.128501209505174,0.5621910824762032,-0.05109284073114395,-0.1870090365409851,-0.3098535537719727,0.0809980183839798,-0.05219376087188721,-0.1375868320465088,XArbitraryZVertical,0.2724799830597862,0.07872743235448493,0.07720627906353281,0.955822180253672,0.1084245219826698,-0.5330412983894348,-0.8391132950782776,0,0,0,-1,-1,3219.495798791667,running,2,2022-05-12T10:39:13.115+02:00,2022-05-11T22:15:20.957+02:00,763,0.8982581,0.7741436,1.733193,581.0482,0,0,2022-05-12T10:39:13.115+02:00,674037553.1148381,0,-1.580002,100.9263,1,0.95
2022-05-12T10:39:14.419+02:00,1652344752.999766,53.22897731797139,10.39845957421735,38.43801,0,0.74,-1,-1,4,5,-9999,3220.798760625,0.146636962890625,-0.4781036376953125,-0.90936279296875,3220.788765625,0.1205705482904505,0.1284465073268525,0.5613820608579588,-0.03128358349204063,-0.1952608525753021,-0.2926681935787201,0.06957516074180603,-0.02219307422637939,-0.1077955961227417,XArbitraryZVertical,0.2722310067627168,0.07821107358725329,0.0755181147742756,0.9560702671108171,0.1084338203072548,-0.5323566198348999,-0.8395466208457947,0,0,0,-1,-1,3219.495798791667,running,2,2022-05-12T10:39:13.115+02:00,2022-05-11T22:15:20.957+02:00,763,0.8982581,0.7741436,1.733193,581.0482,0,0,2022-05-12T10:39:13.115+02:00,674037553.1148381,0,-1.580002,100.9263,1,0.95
2022-05-12T10:39:14.429+02:00,1652344752.999766,53.22897731797139,10.39845957421735,38.43801,0,0.74,-1,-1,4,5,-9999,3220.808756625,0.1437530517578125,-0.4497222900390625,-0.8941192626953125,3220.798760625,0.117412730009742,0.1283378860600703,0.5609760394645783,0.02122649550437927,-0.1549930572509766,-0.2492930144071579,0.05346436053514481,0.0129246711730957,-0.08721429109573364,XArbitraryZVertical,0.2721636148944545,0.07772138825068432,0.07398448005024805,0.9562493252473901,0.1083702817559242,-0.5320128798484802,-0.8397727012634277,0,0,0,-1,-1,3219.495798791667,running,2,2022-05-12T10:39:13.115+02:00,2022-05-11T22:15:20.957+02:00,763,0.8982581,0.7741436,1.733193,581.0482,0,0,2022-05-12T10:39:13.115+02:00,674037553.1148381,0,-1.580002,100.9263,1,0.95
2022-05-12T10:39:14.439+02:00,1652344752.999766,53.22897731797139,10.39845957421735,38.43801,0,0.74,-1,-1,4,5,-9999,3220.818751625,0.154693603515625,-0.434112548828125,-0.873748779296875,3220.808756625,0.1146889724396431,0.128511076886238,0.5612221584748883,0.08741181343793869,-0.1058491468429565,-0.2052973806858063,0.03813795000314713,0.05411815643310547,-0.06973904371261597,XArbitraryZVertical,0.2723808562296349,0.07743805899096957,0.07271132737342598,0.9563080901922116,0.1084989383816719,-0.532221257686615,-0.8396240472793579,0,0,0,-1,-1,3219.495798791667,running,2,2022-05-12T10:39:13.115+02:00,2022-05-11T22:15:20.957+02:00,763,0.8982581,0.7741436,1.733193,581.0482,0,0,2022-05-12T10:39:13.115+02:00,674037553.1148381,0,-1.580002,100.9263,1,0.95
2022-05-12T10:39:14.449+02:00,1652344752.999766,53.22897731797139,10.39845957421735,38.43801,0,0.74,-1,-1,4,5,-9999,3220.828746625,0.1605377197265625,-0.423553466796875,-0.859710693359375,3220.818751625,0.1123025570257415,0.1288400090430338,0.5621363542212519,0.1445611119270325,-0.08183115720748901,-0.1763666719198227,0.03504043817520142,0.08327317237854004,-0.05501413345336914,XArbitraryZVertical,0.2728993338390073,0.07728674459970024,0.07163614669525589,0.9562536575637492,0.1087125539779663,-0.5329950451850891,-0.8391054272651672,0,0,0,-1,-1,3219.495798791667,running,2,2022-05-12T10:39:13.115+02:00,2022-05-11T22:15:20.957+02:00,763,0.8982581,0.7741436,1.733193,581.0482,0,0,2022-05-12T10:39:13.115+02:00,674037553.1148381,0,-1.580002,100.9263,1,0.95
2022-05-12T10:39:14.462+02:00,1652344752.999766,53.22897731797139,10.39845957421735,38.43801,0,0.74,-1,-1,4,5,-9999,3220.838741625,0.164154052734375,-0.4209747314453125,-0.848846435546875,3220.828746625,0.1101446749312617,0.1293685130745428,0.5634831704409102,0.1654629707336426,-0.04481874406337738,-0.1482876986265182,0.04563024640083313,0.10002201795578,-0.03541386127471924,XArbitraryZVertical,0.2736091665052774,0.07726843874734421,0.0707079849870362,0.9561213154556285,0.1090632975101471,-0.5341340899467468,-0.8383352160453796,0,0,0,-1,-1,3219.495798791667,running,2,2022-05-12T10:39:13.115+02:00,2022-05-11T22:15:20.957+02:00,763,0.8982581,0.7741436,1.733193,581.0482,0,0,2022-05-12T10:39:13.115+02:00,674037553.1148381,0,-1.580002,100.9263,1,0.95
2022-05-12T10:39:14.469+02:00,1652344752.999766,53.22897731797139,10.39845957421735,38.43801,0,0.74,-1,-1,4,5,-9999,3220.848736625,0.168853759765625,-0.4265594482421875,-0.844268798828125,3220.838741625,0.1082857695330098,0.1299432860092151,0.564901750534923,0.1544774323701859,-0.04257423058152199,-0.1274764239788055,0.05109080672264099,0.1117798089981079,-0.02219074964523315,XArbitraryZVertical,0.2743402753465101,0.07731286774253252,0.06993142668041144,0.9559654230543805,0.1094468459486961,-0.5353328585624695,-0.8375202417373657,0,0,0,-1,-1,3219.495798791667,running,2,2022-05-12T10:39:13.115+02:00,2022-05-11T22:15:20.957+02:00,763,0.8982581,0.7741436,1.733193,581.0482,0,0,2022-05-12T10:39:13.115+02:00,674037553.1148381,0,-1.580002,100.9263,1,0.95
2022-05-12T10:39:14.479+02:00,1652344752.999766,53.22897731797139,10.39845957421735,38.43801,0,0.74,-1,-1,4,5,-9999,3220.858731625,0.1609954833984375,-0.4159698486328125,-0.8419952392578125,3220.848736625,0.1065993602417849,0.1303060594479425,0.566164583024932,0.1326160728931427,-0.06536103785037994,-0.1225908622145653,0.05449125170707703,0.1154247522354126,-0.01203721761703491,XArbitraryZVertical,0.2749976269056486,0.07727570229000813,0.0692051533390601,0.9558324166626647,0.1096627339720726,-0.5363990664482117,-0.836809515953064,0,0,0,-1,-1,3219.495798791667,running,2,2022-05-12T10:39:13.115+02:00,2022-05-11T22:15:20.957+02:00,763,0.8982581,0.7741436,1.733193,581.0482,0,0,2022-05-12T10:39:13.115+02:00,674037553.1148381,0,-1.580002,100.9263,1,0.95
2022-05-12T10:39:14.489+02:00,1652344752.999766,53.22897731797139,10.39845957421735,38.43801,0,0.74,-1,-1,4,5,-9999,3220.868726625,0.162445068359375,-0.402374267578125,-0.8355865478515625,3220.858731625,0.1049991266514902,0.130417691546578,0.5672493653195095,0.1194736361503601,-0.07933437079191208,-0.1153880804777145,0.05917328596115112,0.1107552647590637,-0.008049249649047852,XArbitraryZVertical,0.2755750236043447,0.07712640962932607,0.06848166040506835,0.9557302257211099,0.1096804141998291,-0.537314236164093,-0.836219847202301,0,0,0,-1,-1,3219.495798791667,running,2,2022-05-12T10:39:13.115+02:00,2022-05-11T22:15:20.957+02:00,763,0.8982581,0.7741436,1.733193,581.0482,0,0,2022-05-12T10:39:13.115+02:00,674037553.1148381,0,-1.580002,100.9263,1,0.95
2022-05-12T10:39:14.499+02:00,1652344752.999766,53.22897731797139,10.39845957421735,38.43801,0,0.74,-1,-1,4,5,-9999,3220.878721625,0.1602020263671875,-0.400177001953125,-0.828582763671875,3220.868726625,0.1034976444005599,0.130365383864128,0.5682627269278278,0.1141297072172165,-0.09357756376266479,-0.1111882030963898,0.05142957717180252,0.1221992373466492,-0.00631028413772583,XArbitraryZVertical,0.2761198194023482,0.07691038072872357,0.06778124246118894,0.9556403123364227,0.109565831720829,-0.5381686091423035,-0.8356852531433105,0,0,0,-1,-1,3219.495798791667,running,2,2022-05-12T10:39:13.115+02:00,2022-05-11T22:15:20.957+02:00,763,0.8982581,0.7741436,1.733193,581.0482,0,0,2022-05-12T10:39:13.115+02:00,674037553.1148381,0,-1.580002,100.9263,1,0.95
2022-05-12T10:39:14.509+02:00,1652344752.999766,53.22897731797139,10.39845957421735,38.43801,0,0.74,-1,-1,4,5,-9999,3220.888716625,0.15374755859375,-0.402984619140625,-0.82452392578125,3220.878721625,0.1019769462469251,0.1301381531287129,0.5691926868815558,0.1061748415231705,-0.1156221404671669,-0.1196421459317207,0.05313404649496078,0.1365784406661987,-0.0003733038902282715,XArbitraryZVertical,0.2766310615488242,0.07660606099869306,0.06704557662483593,0.9555687586691893,0.1093109399080276,-0.5389521718025208,-0.8352135419845581,0,0,0,-1,-1,3219.495798791667,running,2,2022-05-12T10:39:13.115+02:00,2022-05-11T22:15:20.957+02:00,763,0.8982581,0.7741436,1.733193,581.0482,0,0,2022-05-12T10:39:13.115+02:00,674037553.1148381,0,-1.580002,100.9263,1,0.95
2022-05-12T10:39:14.519+02:00,1652344752.999766,53.22897731797139,10.39845957421735,38.43801,0,0.74,-1,-1,4,5,-9999,3220.898711625,0.14849853515625,-0.4021759033203125,-0.8120269775390625,3220.888716625,0.1002514988183969,0.1298191740194907,0.5700507523689372,0.1002471446990967,-0.1322214305400848,-0.1475283056497574,0.05121733993291855,0.139498233795166,0.006206393241882324,XArbitraryZVertical,0.2771183457895681,0.07622773358959485,0.06619766864933473,0.9555169985207205,0.108984611928463,-0.5396747589111328,-0.834789514541626,0,0,0,-1,-1,3219.495798791667,running,2,2022-05-12T10:39:13.115+02:00,2022-05-11T22:15:20.957+02:00,763,0.8982581,0.7741436,1.733193,581.0482,0,0,2022-05-12T10:39:13.115+02:00,674037553.1148381,0,-1.580002,100.9263,1,0.95
2022-05-12T10:39:14.529+02:00,1652344752.999766,53.22897731797139,10.39845957421735,38.43801,0,0.74,-1,-1,4,5,-9999,3220.908706625,0.1543731689453125,-0.4013519287109375,-0.7970428466796875,3220.898711625,0.0982198080403196,0.1295615454264988,0.5707656031587297,0.08759818971157074,-0.1329282373189926,-0.1716464161872864,0.04502780735492706,0.1372923254966736,0.009910523891448975,XArbitraryZVertical,0.277546234686716,0.07583339975339232,0.0652085286059769,0.9554921260762558,0.1087196692824364,-0.5402764678001404,-0.8344347476959229,0,0,0,-1,-1,3219.495798791667,running,2,2022-05-12T10:39:13.115+02:00,2022-05-11T22:15:20.957+02:00,763,0.8982581,0.7741436,1.733193,581.0482,0,0,2022-05-12T10:39:13.115+02:00,674037553.1148381,0,-1.580002,100.9263,1,0.95
2022-05-12T10:39:14.539+02:00,1652344752.999766,53.22897731797139,10.39845957421735,38.43801,0,0.74,-1,-1,4,5,-9999,3220.918701625,0.15289306640625,-0.405609130859375,-0.7845306396484375,3220.908706625,0.09597216725905271,0.129519941433112,0.5713384251953878,0.07471019774675369,-0.1161352023482323,-0.1856021285057068,0.03985349088907242,0.1385829448699951,0.02210497856140137,XArbitraryZVertical,0.277906767327852,0.07550949336112626,0.06414280477845954,0.9554851978856997,0.1086449697613716,-0.5407583713531494,-0.8341323137283325,0,0,0,-1,-1,3219.495798791667,running,2,2022-05-12T10:39:13.115+02:00,2022-05-11T22:15:20.957+02:00,763,0.8982581,0.7741436,1.733193,581.0482,0,0,2022-05-12T10:39:13.115+02:00,674037553.1148381,0,-1.580002,100.9263,1,0.95
2022-05-12T10:39:14.549+02:00,1652344752.999766,53.22897731797139,10.39845957421735,38.43801,0,0.74,-1,-1,4,5,-9999,3220.928696625,0.15167236328125,-0.419281005859375,-0.780364990234375,3220.918701625,0.09362691969573197,0.1298017203294018,0.5715976517975738,0.05704571306705475,-0.09198006242513657,-0.1855797469615936,0.04551122337579727,0.1396250128746033,0.03691947460174561,XArbitraryZVertical,0.2781103253127473,0.07532163532486066,0.06306785852863722,0.9555123043092891,0.1088618561625481,-0.5409764051437378,-0.833962619304657,0,0,0,-1,-1,3219.495798791667,running,2,2022-05-12T10:39:13.115+02:00,2022-05-11T22:15:20.957+02:00,763,0.8982581,0.7741436,1.733193,581.0482,0,0,2022-05-12T10:39:13.115+02:00,674037553.1148381,0,-1.580002,100.9263,1,0.95
2022-05-12T10:39:14.559+02:00,1652344752.999766,53.22897731797139,10.39845957421735,38.43801,0,0.74,-1,-1,4,5,-9999,3220.938691625,0.156768798828125,-0.4376983642578125,-0.785980224609375,3220.928696625,0.09140677183144813,0.1303414914835673,0.5715612527203463,0.02159015089273453,-0.05829713493585587,-0.1666758954524994,0.04357843101024628,0.1353371739387512,0.04939234256744385,XArbitraryZVertical,0.2781595908232646,0.07527029517526672,0.06208130335407186,0.9555666462525308,0.1093145459890366,-0.540945827960968,-0.8339232206344604,0,0,0,-1,-1,3219.495798791667,running,2,2022-05-12T10:39:13.115+02:00,2022-05-11T22:15:20.957+02:00,763,0.8982581,0.7741436,1.733193,581.0482,0,0,2022-05-12T10:39:13.115+02:00,674037553.1148381,0,-1.580002,100.9263,1,0.95
2022-05-12T10:39:14.569+02:00,1652344752.999766,53.22897731797139,10.39845957421735,38.43801,0,0.74,-1,-1,4,5,-9999,3220.948686625,0.1654815673828125,-0.458038330078125,-0.7938385009765625,3220.938691625,0.08956739199472701,0.1310176939405027,0.5710643227000811,-0.02888074517250061,-0.03326421976089478,-0.125612884759903,0.04175873845815659,0.1212472915649414,0.05375027656555176,XArbitraryZVertical,0.2779701348839219,0.07533146356542926,0.06128405451088755,0.9556684253575729,0.1099135279655457,-0.5405278205871582,-0.8341155648231506,0,0,0,-1,-1,3219.495798791667,running,2,2022-05-12T10:39:13.115+02:00,2022-05-11T22:15:20.957+02:00,763,0.8982581,0.7741436,1.733193,581.0482,0,0,2022-05-12T10:39:13.115+02:00,674037553.1148381,0,-1.580002,100.9263,1,0.95
2022-05-12T10:39:14.579+02:00,1652344752.999766,53.22897731797139,10.39845957421735,38.43801,0,0.74,-1,-1,4,5,-9999,3220.958681625,0.1667633056640625,-0.472320556640625,-0.798248291015625,3220.948686625,0.08837223836417618,0.1314842786815007,0.5700451844958899,-0.1014408692717552,-0.02378636226058006,-0.08030792325735092,0.04639384895563126,0.101972222328186,0.04862934350967407,XArbitraryZVertical,0.2775130845350293,0.07537616227596615,0.06075204895420847,0.9558316454555089,0.1103748679161072,-0.5396701097488403,-0.8346098661422729,0,0,0,-1,-1,3219.495798791667,running,2,2022-05-12T10:39:13.115+02:00,2022-05-11T22:15:20.957+02:00,763,0.8982581,0.7741436,1.733193,581.0482,0,0,2022-05-12T10:39:13.115+02:00,674037553.1148381,0,-1.580002,100.9263,1,0.95
2022-05-12T10:39:14.589+02:00,1652344752.999766,53.22897731797139,10.39845957421735,38.43801,0,0.74,-1,-1,4,5,-9999,3220.968676625,0.1502838134765625,-0.4776763916015625,-0.80059814453125,3220.958681625,0.08785175876232107,0.1316233310932007,0.5683976619303049,-0.172059640288353,-0.01856496930122375,-0.0367087796330452,0.05487402528524399,0.08024448156356812,0.04163599014282227,XArbitraryZVertical,0.2767396556473924,0.0753509462041627,0.06048078362020853,0.9560750821831695,0.1106074601411819,-0.5382823348045349,-0.8354747891426086,0,0,0,-1,-1,3219.495798791667,running,2,2022-05-12T10:39:13.115+02:00,2022-05-11T22:15:20.957+02:00,763,0.8982581,0.7741436,1.733193,581.0482,0,0,2022-05-12T10:39:13.115+02:00,674037553.1148381,0,-1.580002,100.9263,1,0.95
2022-05-12T10:39:14.599+02:00,1652344752.999766,53.22897731797139,10.39845957421735,38.43801,0,0.74,-1,-1,4,5,-9999,3220.978671625,0.1466217041015625,-0.4813079833984375,-0.7941436767578125,3220.968676625,0.08787588180528838,0.1316941100743122,0.566405304319333,-0.1893511861562729,0.02432623878121376,-0.002325969748198986,0.05595602095127106,0.0642821192741394,0.03827989101409912,XArbitraryZVertical,0.2757824341376078,0.07536453243468352,0.06045146242231638,0.9563524235805384,0.1108072027564049,-0.5366021990776062,-0.836528480052948,0,0,0,-1,-1,3219.495798791667,running,2,2022-05-12T10:39:13.115+02:00,2022-05-11T22:15:20.957+02:00,763,0.8982581,0.7741436,1.733193,581.0482,0,0,2022-05-12T10:39:13.115+02:00,674037553.1148381,0,-1.580002,100.9263,1,0.95
2022-05-12T10:39:14.609+02:00,1652344752.999766,53.22897731797139,10.39845957421735,38.43801,0,0.74,-1,-1,4,5,-9999,3220.988667875,0.1615447998046875,-0.50665283203125,-0.78778076171875,3220.978671625,0.08825157201189859,0.1319674261086581,0.5644282342251111,-0.1791238486766815,0.05939394980669022,0.02284036949276924,0.0391085222363472,0.05725687742233276,0.0369497537612915,XArbitraryZVertical,0.2748128682535339,0.07552340452910693,0.06061839602456361,0.9566084181492653,0.1111752167344093,-0.5349327921867371,-0.8375481963157654,0,0,0,-1,-1,3219.495798791667,running,2,2022-05-12T10:39:13.115+02:00,2022-05-11T22:15:20.957+02:00,763,0.8982581,0.7741436,1.733193,581.0482,0,0,2022-05-12T10:39:13.115+02:00,674037553.1148381,0,-1.580002,100.9263,1,0.95
2022-05-12T10:39:14.619+02:00,1652344752.999766,53.22897731797139,10.39845957421735,38.43801,0,0.74,-1,-1,4,5,-9999,3220.998662875,0.166046142578125,-0.522491455078125,-0.7754669189453125,3220.988667875,0.08892863815750822,0.1323575704079835,0.5626379463361315,-0.1706352531909943,0.07731309533119202,0.04708997905254364,0.03499343991279602,0.05211180448532104,0.04430872201919556,XArbitraryZVertical,0.2739175655300165,0.07578135022147017,0.06095007883783628,0.9568236361397018,0.1116281822323799,-0.5334193706512451,-0.8384526968002319,0,0,0,-1,-1,3219.495798791667,running,2,2022-05-12T10:39:13.115+02:00,2022-05-11T22:15:20.957+02:00,763,0.8982581,0.7741436,1.733193,581.0482,0,0,2022-05-12T10:39:13.115+02:00,674037553.1148381,0,-1.580002,100.9263,1,0.95
2022-05-12T10:39:14.629+02:00,1652344752.999766,53.22897731797139,10.39845957421735,38.43801,0,0.74,-1,-1,4,5,-9999,3221.008657875,0.15802001953125,-0.53314208984375,-0.7761077880859375,3220.998662875,0.08984147953151533,0.1326873003945728,0.5609396240350029,-0.1645137071609497,0.0749862864613533,0.06573690474033356,0.04952038824558258,0.02532970905303955,0.05153155326843262,XArbitraryZVertical,0.2730588300901134,0.07604312710632366,0.06138844200949486,0.9570203721480322,0.1120243296027184,-0.5319820642471313,-0.8393126130104065,0,0,0,-1,-1,3219.495798791667,running,2,2022-05-12T10:39:13.115+02:00,2022-05-11T22:15:20.957+02:00,763,0.8982581,0.7741436,1.733193,581.0482,0,0,2022-05-12T10:39:13.115+02:00,674037553.1148381,0,-1.580002,100.9263,1,0.95
2022-05-12T10:39:14.639+02:00,1652344752.999766,53.22897731797139,10.39845957421735,38.43801,0,0.74,-1,-1,4,5,-9999,3221.018652875,0.1741943359375,-0.550048828125,-0.7733917236328125,3221.008657875,0.09081002771195844,0.132937777549028,0.5594159669383411,-0.1447186321020126,0.06330180168151855,0.06562172621488571,0.05370420962572098,0.008200287818908691,0.06461971998214722,XArbitraryZVertical,0.2722838404185546,0.07627602912098953,0.06184705484937648,0.9571930270364127,0.1123418584465981,-0.5306912660598755,-0.8400869369506836,0,0,0,-1,-1,3219.495798791667,running,2,2022-05-12T10:39:13.115+02:00,2022-05-11T22:15:20.957+02:00,763,0.8982581,0.7741436,1.733193,581.0482,0,0,2022-05-12T10:39:13.115+02:00,674037553.1148381,0,-1.580002,100.9263,1,0.95
2022-05-12T10:39:14.649+02:00,1652344752.999766,53.22897731797139,10.39845957421735,38.43801,0,0.74,-1,-1,4,5,-9999,3221.028647875,0.1796417236328125,-0.5653839111328125,-0.7769927978515625,3221.018652875,0.09176049041457746,0.1328916067214727,0.557994840598051,-0.1432307213544846,0.01247723586857319,0.06155907362699509,0.04561704397201538,-0.003655374050140381,0.06473076343536377,XArbitraryZVertical,0.2715675972728095,0.07636505545846108,0.06225931009517969,0.9573627036743022,0.1124028861522675,-0.5294862389564514,-0.8408388495445251,0,0,0,-1,-1,3219.495798791667,running,2,2022-05-12T10:39:13.115+02:00,2022-05-11T22:15:20.957+02:00,763,0.8982581,0.7741436,1.733193,581.0482,0,0,2022-05-12T10:39:13.115+02:00,674037553.1148381,0,-1.580002,100.9263,1,0.95
2022-05-12T10:39:14.659+02:00,1652344752.999766,53.22897731797139,10.39845957421735,38.43801,0,0.74,-1,-1,4,5,-9999,3221.038642875,0.1655426025390625,-0.57305908203125,-0.7765655517578125,3221.028647875,0.0925428769747506,0.1322762223978103,0.5566325615071613,-0.1353753060102463,-0.05899501591920853,0.04095572233200073,0.06221379339694977,-0.02171826362609863,0.0682300329208374,XArbitraryZVertical,0.2709036400112348,0.07615885470515323,0.06251567397707614,0.9575505663696308,0.1119804605841637,-0.5283300876617432,-0.8416221141815186,0,0,0,-1,-1,3219.495798791667,running,2,2022-05-12T10:39:13.115+02:00,2022-05-11T22:15:20.957+02:00,763,0.8982581,0.7741436,1.733193,581.0482,0,0,2022-05-12T10:39:13.115+02:00,674037553.1148381,0,-1.580002,100.9263,1,0.95
2022-05-12T10:39:14.669+02:00,1652344752.999766,53.22897731797139,10.39845957421735,38.43801,0,0.74,-1,-1,4,5,-9999,3221.048637875,0.154541015625,-0.5646209716796875,-0.7765350341796875,3221.038642875,0.09295439723476701,0.1312347846936824,0.5552974442179517,-0.1326277107000351,-0.1164748221635818,0.0007137618958950043,0.06844554841518402,-0.03818738460540771,0.06544369459152222,XArbitraryZVertical,0.2702801949807137,0.07569822571682237,0.06253809068584416,0.957761684848744,0.1111961081624031,-0.5271960496902466,-0.8424367904663086,0,0,0,-1,-1,3219.495798791667,running,2,2022-05-12T10:39:13.115+02:00,2022-05-11T22:15:20.957+02:00,763,0.8982581,0.7741436,1.733193,581.0482,0,0,2022-05-12T10:39:13.115+02:00,674037553.1148381,0,-1.580002,100.9263,1,0.95
2022-05-12T10:39:14.679+02:00,1652344752.999766,53.22897731797139,10.39845957421735,38.43801,0,0.74,-1,-1,4,5,-9999,3221.058632875,0.132843017578125,-0.566070556640625,-0.776641845703125,3221.048637875,0.09294477387212664,0.1299119467103198,0.5540078508726718,-0.1126497462391853,-0.1619576215744019,-0.02467894554138184,0.0553729310631752,-0.0469588041305542,0.06669074296951294,XArbitraryZVertical,0.2697031305551086,0.07504611870259545,0.06232266700516646,0.9579897411927839,0.1101695895195007,-0.5260998010635376,-0.8432565927505493,0,0,0,-1,-1,3219.495798791667,running,2,2022-05-12T10:39:13.115+02:00,2022-05-11T22:15:20.957+02:00,763,0.8982581,0.7741436,1.733193,581.0482,0,0,2022-05-12T10:39:13.115+02:00,674037553.1148381,0,-1.580002,100.9263,1,0.95
2022-05-12T10:39:14.689+02:00,1652344752.999766,53.22897731797139,10.39845957421735,38.43801,0,0.74,-1,-1,4,5,-9999,3221.068627875,0.138946533203125,-0.56396484375,-0.7598419189453125,3221.058632875,0.0926485621185808,0.1284614530789832,0.5529901206945171,-0.08068355917930603,-0.1632330119609833,-0.04276899993419647,0.04552605748176575,-0.03938645124435425,0.06741076707839966,XArbitraryZVertical,0.2692708797556253,0.0742976594619776,0.06196019392385301,0.9581931871258136,0.1090148687362671,-0.525234043598175,-0.843946099281311,0,0,0,-1,-1,3219.495798791667,running,2,2022-05-12T10:39:13.115+02:00,2022-05-11T22:15:20.957+02:00,763,0.8982581,0.7741436,1.733193,581.0482,0,0,2022-05-12T10:39:13.115+02:00,674037553.1148381,0,-1.580002,100.9263,1,0.95
2022-05-12T10:39:14.699+02:00,1652344752.999766,53.22897731797139,10.39845957421735,38.43801,0,0.74,-1,-1,4,5,-9999,3221.078622875,0.140167236328125,-0.5722808837890625,-0.744903564453125,3221.068627875,0.09221460136966984,0.1270392032351637,0.5522102891240729,-0.06538868695497513,-0.1785630881786346,-0.03921621292829514,0.02497662603855133,-0.0414997935295105,0.06786417961120605,XArbitraryZVertical,0.2689565568484418,0.07354729789121819,0.06154187745486023,0.9583662967106114,0.1078663170337677,-0.5245702862739563,-0.8445063233375549,0,0,0,-1,-1,3219.495798791667,running,2,2022-05-12T10:39:13.115+02:00,2022-05-11T22:15:20.957+02:00,763,0.8982581,0.7741436,1.733193,581.0482,0,0,2022-05-12T10:39:13.115+02:00,674037553.1148381,0,-1.580002,100.9263,1,0.95
2022-05-12T10:39:14.709+02:00,1652344752.999766,53.22897731797139,10.39845957421735,38.43801,0,0.74,-1,-1,4,5,-9999,3221.088617875,0.13720703125,-0.578216552734375,-0.7408599853515625,3221.078622875,0.09188885400951739,0.1254712580817904,0.5514731355309581,-0.07851194590330124,-0.1840995252132416,-0.02384630963206291,0.03235603868961334,-0.04002183675765991,0.08521556854248047,XArbitraryZVertical,0.2686627402755886,0.07274216798470326,0.06115730075934255,0.9585346960892938,0.1065904051065445,-0.5239425301551819,-0.8450578451156616,0,0,0,-1,-1,3219.495798791667,running,2,2022-05-12T10:39:13.115+02:00,2022-05-11T22:15:20.957+02:00,763,0.8982581,0.7741436,1.733193,581.0482,0,0,2022-05-12T10:39:13.115+02:00,674037553.1148381,0,-1.580002,100.9263,1,0.95
2022-05-12T10:39:14.719+02:00,1652344752.999766,53.22897731797139,10.39845957421735,38.43801,0,0.74,-1,-1,4,5,-9999,3221.098612875,0.1313323974609375,-0.568389892578125,-0.74176025390625,3221.088617875,0.09182328766594419,0.1237717668693192,0.5506681592019996,-0.09051534533500671,-0.1836425364017487,0.008310295641422272,0.0349610298871994,-0.04902368783950806,0.1007521748542786,XArbitraryZVertical,0.2683304799388997,0.07190783764148177,0.06087863803495788,0.9587085149571695,0.105206124484539,-0.5232567191123962,-0.8456560373306274,0,0,0,-1,-1,3219.495798791667,running,2,2022-05-12T10:39:13.115+02:00,2022-05-11T22:15:20.957+02:00,763,0.8982581,0.7741436,1.733193,581.0482,0,0,2022-05-12T10:39:13.115+02:00,674037553.1148381,0,-1.580002,100.9263,1,0.95
