loggingTime(txt),locationTimestamp_since1970(s),locationLatitude(WGS84),locationLongitude(WGS84),locationAltitude(m),locationSpeed(m/s),locationSpeedAccuracy(m/s),locationCourse(°),locationCourseAccuracy(°),locationVerticalAccuracy(m),locationHorizontalAccuracy(m),locationFloor(Z),accelerometerTimestamp_sinceReboot(s),accelerometerAccelerationX(G),accelerometerAccelerationY(G),accelerometerAccelerationZ(G),motionTimestamp_sinceReboot(s),motionYaw(rad),motionRoll(rad),motionPitch(rad),motionRotationRateX(rad/s),motionRotationRateY(rad/s),motionRotationRateZ(rad/s),motionUserAccelerationX(G),motionUserAccelerationY(G),motionUserAccelerationZ(G),motionAttitudeReferenceFrame(txt),motionQuaternionX(R),motionQuaternionY(R),motionQuaternionZ(R),motionQuaternionW(R),motionGravityX(G),motionGravityY(G),motionGravityZ(G),motionMagneticFieldX(µT),motionMagneticFieldY(µT),motionMagneticFieldZ(µT),motionHeading(°),motionMagneticFieldCalibrationAccuracy(Z),activityTimestamp_sinceReboot(s),activity(txt),activityActivityConfidence(Z),activityActivityStartDate(txt),pedometerStartDate(txt),pedometerNumberofSteps(N),pedometerAverageActivePace(s/m),pedometerCurrentPace(s/m),pedometerCurrentCadence(steps/s),pedometerDistance(m),pedometerFloorAscended(N),pedometerFloorDescended(N),pedometerEndDate(txt),altimeterTimestamp_sinceReboot(s),altimeterReset(bool),altimeterRelativeAltitude(m),altimeterPressure(kPa),batteryState(N),batteryLevel(R)
2022-05-12T10:40:12.212+02:00,1652344809.999902,53.22908062492798,10.39832420648113,37.29544,0,1.97,-1,-1,4,10,-9999,3278.551124125,-0.016082763671875,-0.543243408203125,-0.849578857421875,3278.541129125,0.6534913693358081,-0.008197569203596758,0.5733745657413412,0.02068707346916199,0.01937102898955345,-0.04660195857286453,-0.002939953934401274,0.00337749719619751,-0.01418608427047729,XArbitraryZVertical,0.2690747050501559,0.0870363519212593,0.3067624832806833,0.9088016020634869,-0.006886497139930725,-0.5424700379371643,-0.8400469422340393,0,0,0,-1,-1,3275.76422025,walking,2,2022-05-12T10:40:09.383+02:00,2022-05-11T22:15:20.957+02:00,845,0.8961411,0.765882,1.695994,639.5442,0,0,2022-05-12T10:40:11.941+02:00,674037611.9405705,0,-2.540001,100.9383,1,0.94
2022-05-12T10:40:12.216+02:00,1652344809.999902,53.22908062492798,10.39832420648113,37.29544,0,1.97,-1,-1,4,10,-9999,3278.561119125,-0.0139007568359375,-0.5448455810546875,-0.8422698974609375,3278.551124125,0.6530707173094012,-0.007950787860121825,0.5732908588920942,0.007873740047216415,0.004306724760681391,-0.03743921592831612,-0.007037892937660217,-0.002613306045532227,-0.01122462749481201,XArbitraryZVertical,0.2690171549390568,0.08707896673714977,0.3066084676238431,0.9088665776894392,-0.006679550278931856,-0.5423997044563293,-0.8400940299034119,0,0,0,-1,-1,3275.76422025,walking,2,2022-05-12T10:40:09.383+02:00,2022-05-11T22:15:20.957+02:00,845,0.8961411,0.765882,1.695994,639.5442,0,0,2022-05-12T10:40:11.941+02:00,674037611.9405705,0,-2.540001,100.9383,1,0.94
2022-05-12T10:40:12.219+02:00,1652344809.999902,53.22908062492798,10.39832420648113,37.29544,0,1.97,-1,-1,4,10,-9999,3278.571114125,-0.00970458984375,-0.5531005859375,-0.8374786376953125,3278.561119125,0.652764811823926,-0.007893497576017072,0.5729985334505139,-0.01817144453525543,-0.00895235501229763,-0.02554740384221077,-0.009938180446624756,-0.001790761947631836,-0.005923449993133545,XArbitraryZVertical,0.2688889478963479,0.08701875307797996,0.3064909308189129,0.9089499099596877,-0.006632672157138586,-0.54215407371521,-0.8402529358863831,0,0,0,-1,-1,3275.76422025,walking,2,2022-05-12T10:40:09.383+02:00,2022-05-11T22:15:20.957+02:00,845,0.8961411,0.765882,1.695994,639.5442,0,0,2022-05-12T10:40:11.941+02:00,674037611.9405705,0,-2.540001,100.9383,1,0.94
2022-05-12T10:40:12.222+02:00,1652344809.999902,53.22908062492798,10.39832420648113,37.29544,0,1.97,-1,-1,4,10,-9999,3278.581109125,-0.0096282958984375,-0.5485992431640625,-0.8328857421875,3278.571114125,0.6525914971200066,-0.007984787320399016,0.5725371315961215,-0.02824734523892403,-0.009926207363605499,-0.01578032597899437,-0.003298178315162659,-0.007091879844665527,0.001283943653106689,XArbitraryZVertical,0.2687009308147184,0.08688277937196559,0.3064216145600147,0.9090418828212953,-0.006711375433951616,-0.541766345500946,-0.8405023813247681,0,0,0,-1,-1,3275.76422025,walking,2,2022-05-12T10:40:09.383+02:00,2022-05-11T22:15:20.957+02:00,845,0.8961411,0.765882,1.695994,639.5442,0,0,2022-05-12T10:40:11.941+02:00,674037611.9405705,0,-2.540001,100.9383,1,0.94
2022-05-12T10:40:12.230+02:00,1652344809.999902,53.22908062492798,10.39832420648113,37.29544,0,1.97,-1,-1,4,10,-9999,3278.591104125,-0.0093994140625,-0.542144775390625,-0.8272857666015625,3278.581109125,0.6525162604931798,-0.008114833372778758,0.5721238096719938,-0.02948411926627159,-0.005425464361906052,-0.009103781543672085,-0.001722216606140137,-0.01352757215499878,0.005367398262023926,XArbitraryZVertical,0.2685363978393506,0.08674979436397119,0.3063894013515737,0.9091140653636132,-0.006822495721280575,-0.5414188504219055,-0.8407253623008728,0,0,0,-1,-1,3275.76422025,walking,2,2022-05-12T10:40:09.383+02:00,2022-05-11T22:15:20.957+02:00,845,0.8961411,0.765882,1.695994,639.5442,0,0,2022-05-12T10:40:11.941+02:00,674037611.9405705,0,-2.540001,100.9383,1,0.94
2022-05-12T10:40:12.233+02:00,1652344809.999902,53.22908062492798,10.39832420648113,37.29544,0,1.97,-1,-1,4,10,-9999,3278.601099125,-0.0054473876953125,-0.549346923828125,-0.8231658935546875,3278.591104125,0.652543035935672,-0.008240288193459249,0.5715886305190249,-0.04742693156003952,-0.003191937692463398,0.003889048472046852,-0.00286558223888278,-0.003037035465240479,0.01024907827377319,XArbitraryZVertical,0.2683113662702689,0.08661377440346874,0.3064099084649213,0.9091866032658705,-0.006930355448275805,-0.5409688353538513,-0.8410141468048096,0,0,0,-1,-1,3275.76422025,walking,2,2022-05-12T10:40:09.383+02:00,2022-05-11T22:15:20.957+02:00,845,0.8961411,0.765882,1.695994,639.5442,0,0,2022-05-12T10:40:11.941+02:00,674037611.9405705,0,-2.540001,100.9383,1,0.94
2022-05-12T10:40:12.235+02:00,1652344809.999902,53.22908062492798,10.39832420648113,37.29544,0,1.97,-1,-1,4,10,-9999,3278.611094125,-0.0095367431640625,-0.5511932373046875,-0.823089599609375,3278.601099125,0.6526505206190322,-0.008355262455965086,0.5709978735517074,-0.061008520424366,-0.006893731653690338,0.01043536420911551,-0.001743882894515991,-0.004510581493377686,0.01708316802978516,XArbitraryZVertical,0.2680559956341446,0.08648475670712522,0.3064711551113026,0.9092535365843853,-0.007029719650745392,-0.5404719114303589,-0.841332733631134,0,0,0,-1,-1,3275.76422025,walking,2,2022-05-12T10:40:09.383+02:00,2022-05-11T22:15:20.957+02:00,845,0.8961411,0.765882,1.695994,639.5442,0,0,2022-05-12T10:40:11.941+02:00,674037611.9405705,0,-2.540001,100.9383,1,0.94
2022-05-12T10:40:12.241+02:00,1652344809.999902,53.22908062492798,10.39832420648113,37.29544,0,1.97,-1,-1,4,10,-9999,3278.621089125,-0.017730712890625,-0.5481414794921875,-0.8270111083984375,3278.611094125,0.6529073861336914,-0.008656942740038743,0.5702120696910088,-0.07580697536468506,-0.01486017927527428,0.02715135924518108,0.0004514753818511963,-0.01219093799591064,0.01805472373962402,XArbitraryZVertical,0.2677341996646153,0.08626070402942661,0.3065845265073747,0.9093313156958484,-0.007287206593900919,-0.5398105978965759,-0.8417549729347229,0,0,0,-1,-1,3275.76422025,walking,2,2022-05-12T10:40:09.383+02:00,2022-05-11T22:15:20.957+02:00,845,0.8961411,0.765882,1.695994,639.5442,0,0,2022-05-12T10:40:11.941+02:00,674037611.9405705,0,-2.540001,100.9383,1,0.94
2022-05-12T10:40:12.251+02:00,1652344809.999902,53.22908062492798,10.39832420648113,37.29544,0,1.97,-1,-1,4,10,-9999,3278.631084125,-0.021026611328125,-0.5397796630859375,-0.8326568603515625,3278.621089125,0.6532671164391729,-0.009051204991549652,0.5693438159912469,-0.08874327689409256,-0.021568413823843,0.03544790297746658,-0.006307750474661589,-0.01034325361251831,0.01635342836380005,XArbitraryZVertical,0.2673847190926916,0.08599540376514377,0.306736223661186,0.9094081394853369,-0.007623317651450634,-0.539079487323761,-0.8422204256057739,0,0,0,-1,-1,3275.76422025,walking,2,2022-05-12T10:40:09.383+02:00,2022-05-11T22:15:20.957+02:00,845,0.8961411,0.765882,1.695994,639.5442,0,0,2022-05-12T10:40:11.941+02:00,674037611.9405705,0,-2.540001,100.9383,1,0.94
2022-05-12T10:40:12.276+02:00,1652344809.999902,53.22908062492798,10.39832420648113,37.29544,0,1.97,-1,-1,4,10,-9999,3278.641079125,-0.017608642578125,-0.534637451171875,-0.83575439453125,3278.631084125,0.6537163891198329,-0.009532329672801491,0.5684795943758009,-0.08004312962293625,-0.0206602755934,0.0347411036491394,-0.01125393807888031,-0.007134616374969482,0.014892578125,XArbitraryZVertical,0.2670466241656872,0.08570299878252291,0.3069169776272379,0.9094741139896899,-0.008032967336475849,-0.5383514165878296,-0.8426821827888489,0,0,0,-1,-1,3275.76422025,walking,2,2022-05-12T10:40:09.383+02:00,2022-05-11T22:15:20.957+02:00,845,0.8961411,0.765882,1.695994,639.5442,0,0,2022-05-12T10:40:11.941+02:00,674037611.9405705,0,-2.540001,100.9383,1,0.94
2022-05-12T10:40:12.278+02:00,1652344809.999902,53.22908062492798,10.39832420648113,37.29544,0,1.97,-1,-1,4,10,-9999,3278.651074125,-0.0042877197265625,-0.5468902587890625,-0.83270263671875,3278.641079125,0.6541722048476344,-0.01002069735034273,0.5677486722259033,-0.06862136721611023,-0.02117879316210747,0.03040068224072456,-0.01149457693099976,0.003357648849487305,0.007682979106903076,XArbitraryZVertical,0.2667700106717647,0.08542858212665499,0.3070935882797304,0.9095215516451598,-0.008448446169495583,-0.5377352833747864,-0.843071460723877,0,0,0,-1,-1,3275.76422025,walking,2,2022-05-12T10:40:09.383+02:00,2022-05-11T22:15:20.957+02:00,845,0.8961411,0.765882,1.695994,639.5442,0,0,2022-05-12T10:40:11.941+02:00,674037611.9405705,0,-2.540001,100.9383,1,0.94
2022-05-12T10:40:12.281+02:00,1652344809.999902,53.22908062492798,10.39832420648113,37.29544,0,1.97,-1,-1,4,10,-9999,3278.661069125,-0.0032958984375,-0.5426483154296875,-0.8361053466796875,3278.651074125,0.6544087978501677,-0.01045605657329861,0.5671945389305006,-0.05690359324216843,-0.04134345054626465,0.01411864906549454,-0.00586014986038208,-0.006097018718719482,0.007717609405517578,XArbitraryZVertical,0.2665750248069754,0.08517628969850832,0.3071693482017674,0.9095768018394523,-0.008818598464131355,-0.5372679829597473,-0.843365490436554,0,0,0,-1,-1,3275.76422025,walking,2,2022-05-12T10:40:09.383+02:00,2022-05-11T22:15:20.957+02:00,845,0.8961411,0.765882,1.695994,639.5442,0,0,2022-05-12T10:40:11.941+02:00,674037611.9405705,0,-2.540001,100.9383,1,0.94
2022-05-12T10:40:12.291+02:00,1652344809.999902,53.22908062492798,10.39832420648113,37.29544,0,1.97,-1,-1,4,10,-9999,3278.671064125,-0.004669189453125,-0.5394134521484375,-0.8414306640625,3278.661069125,0.6544946945463956,-0.01099207532643962,0.5668032434532311,-0.04927470162510872,-0.05957651510834694,-0.0001593558117747307,0.008571268059313297,-0.00723576545715332,0.008884251117706299,XArbitraryZVertical,0.2664759445636819,0.08488332861385166,0.3071555524051632,0.9096377779261443,-0.009272967465221882,-0.536937952041626,-0.8435707688331604,0,0,0,-1,-1,3275.76422025,walking,2,2022-05-12T10:40:09.383+02:00,2022-05-11T22:15:20.957+02:00,845,0.8961411,0.765882,1.695994,639.5442,0,0,2022-05-12T10:40:11.941+02:00,674037611.9405705,0,-2.540001,100.9383,1,0.94
2022-05-12T10:40:12.301+02:00,1652344809.999902,53.22908062492798,10.39832420648113,37.29544,0,1.97,-1,-1,4,10,-9999,3278.681059125,-0.0071868896484375,-0.5420074462890625,-0.851898193359375,3278.671064125,0.6544300698964337,-0.01169751749845071,0.5664314859637479,-0.04338968172669411,-0.08609554171562195,-0.01397257298231125,0.004148542881011963,-0.005169093608856201,0.005842149257659912,XArbitraryZVertical,0.2664180849538805,0.08449619391383385,0.307049817655743,0.9097265337055116,-0.009870389476418495,-0.5366243124008179,-0.8437635898590088,0,0,0,-1,-1,3275.76422025,walking,2,2022-05-12T10:40:09.383+02:00,2022-05-11T22:15:20.957+02:00,845,0.8961411,0.765882,1.695994,639.5442,0,0,2022-05-12T10:40:11.941+02:00,674037611.9405705,0,-2.540001,100.9383,1,0.94
2022-05-12T10:40:12.311+02:00,1652344809.999902,53.22908062492798,10.39832420648113,37.29544,0,1.97,-1,-1,4,10,-9999,3278.691054125,0.0016021728515625,-0.541595458984375,-0.8581695556640625,3278.681059125,0.6541319047282929,-0.01244375824112924,0.5662086252613464,-0.02204098179936409,-0.1028391048312187,-0.03947420418262482,0.00506959855556488,-0.005387663841247559,-0.003246903419494629,XArbitraryZVertical,0.2664439114119398,0.08408244927250662,0.3068253810231296,0.9098330567577045,-0.01050152536481619,-0.5364362001419067,-0.8438755869865417,0,0,0,-1,-1,3275.76422025,walking,2,2022-05-12T10:40:09.383+02:00,2022-05-11T22:15:20.957+02:00,845,0.8961411,0.765882,1.695994,639.5442,0,0,2022-05-12T10:40:11.941+02:00,674037611.9405705,0,-2.540001,100.9383,1,0.94
2022-05-12T10:40:12.321+02:00,1652344809.999902,53.22908062492798,10.39832420648113,37.29544,0,1.97,-1,-1,4,10,-9999,3278.701049125,-0.00885009765625,-0.53936767578125,-0.865081787109375,3278.691054125,0.6534466258470436,-0.01323444526951201,0.5663216216394179,0.01207973621785641,-0.1321931928396225,-0.0672806054353714,0.007841750979423523,-0.004330992698669434,-0.01302069425582886,XArbitraryZVertical,0.2666452148127998,0.08364892331559547,0.3064028490818563,0.9099563968241553,-0.01116796117275953,-0.5365315675735474,-0.8438063859939575,0,0,0,-1,-1,3275.76422025,walking,2,2022-05-12T10:40:09.383+02:00,2022-05-11T22:15:20.957+02:00,845,0.8961411,0.765882,1.695994,639.5442,0,0,2022-05-12T10:40:11.941+02:00,674037611.9405705,0,-2.540001,100.9383,1,0.94
2022-05-12T10:40:12.331+02:00,1652344809.999902,53.22908062492798,10.39832420648113,37.29544,0,1.97,-1,-1,4,10,-9999,3278.711044125,-0.013336181640625,-0.54339599609375,-0.8629608154296875,3278.701049125,0.6525989631286725,-0.01414306650474107,0.5666452833847593,0.02570633217692375,-0.1352888494729996,-0.07890237122774124,0.009323149919509888,-0.003401815891265869,-0.01755362749099731,XArbitraryZVertical,0.2669667128252481,0.08317253181453979,0.3058804198531068,0.9100815889291601,-0.0119322007521987,-0.5368046760559082,-0.8436222076416016,0,0,0,-1,-1,3275.76422025,walking,2,2022-05-12T10:40:09.383+02:00,2022-05-11T22:15:20.957+02:00,845,0.8961411,0.765882,1.695994,639.5442,0,0,2022-05-12T10:40:11.941+02:00,674037611.9405705,0,-2.540001,100.9383,1,0.94
2022-05-12T10:40:12.341+02:00,1652344809.999902,53.22908062492798,10.39832420648113,37.29544,0,1.97,-1,-1,4,10,-9999,3278.721039125,-0.017486572265625,-0.5464630126953125,-0.8560638427734375,3278.711044125,0.6517044622937095,-0.01513172752944559,0.5670969472884791,0.03984655067324638,-0.1495382934808731,-0.07834131270647049,0.001044034957885742,-0.004775524139404297,-0.02290481328964233,XArbitraryZVertical,0.2673601248374536,0.08267303911967451,0.3053195751472104,0.9101998685533782,-0.0127625809982419,-0.5371856689453125,-0.8433674573898315,0,0,0,-1,-1,3275.76422025,walking,2,2022-05-12T10:40:09.383+02:00,2022-05-11T22:15:20.957+02:00,845,0.8961411,0.765882,1.695994,639.5442,0,0,2022-05-12T10:40:11.941+02:00,674037611.9405705,0,-2.540001,100.9383,1,0.94
2022-05-12T10:40:12.351+02:00,1652344809.999902,53.22908062492798,10.39832420648113,37.29544,0,1.97,-1,-1,4,10,-9999,3278.731034125,-0.0214080810546875,-0.55413818359375,-0.8500823974609375,3278.721039125,0.6508583166284525,-0.016207922190363,0.5675154583246034,0.03801030293107033,-0.1409546583890915,-0.06911025941371918,-0.0001882165670394897,-0.006772458553314209,-0.01527035236358643,XArbitraryZVertical,0.2677493065749247,0.08213472872044535,0.3047702639594977,0.910318326494425,-0.01366655621677637,-0.5375386476516724,-0.8431283831596375,0,0,0,-1,-1,3275.76422025,walking,2,2022-05-12T10:40:09.383+02:00,2022-05-11T22:15:20.957+02:00,845,0.8961411,0.765882,1.695994,639.5442,0,0,2022-05-12T10:40:11.941+02:00,674037611.9405705,0,-2.540001,100.9383,1,0.94
2022-05-12T10:40:12.361+02:00,1652344809.999902,53.22908062492798,10.39832420648113,37.29544,0,1.97,-1,-1,4,10,-9999,3278.741029125,-0.0191802978515625,-0.545745849609375,-0.8436279296875,3278.731034125,0.6500887057855324,-0.017184150783746,0.5678934103621586,0.02643201127648354,-0.1390881985425949,-0.06282453238964081,-0.007211655378341675,-0.0117332935333252,-0.01126056909561157,XArbitraryZVertical,0.2681012035031139,0.08164563528440277,0.3042708115764463,0.9104258746508403,-0.01448614336550236,-0.5378572940826416,-0.8429114818572998,0,0,0,-1,-1,3275.76422025,walking,2,2022-05-12T10:40:09.383+02:00,2022-05-11T22:15:20.957+02:00,845,0.8961411,0.765882,1.695994,639.5442,0,0,2022-05-12T10:40:11.941+02:00,674037611.9405705,0,-2.540001,100.9383,1,0.94
2022-05-12T10:40:12.371+02:00,1652344809.999902,53.22908062492798,10.39832420648113,37.29544,0,1.97,-1,-1,4,10,-9999,3278.751024125,-0.0254974365234375,-0.5382537841796875,-0.8458251953125,3278.741029125,0.6493877592708844,-0.0180704428208153,0.5681203967805092,0.007566444110125303,-0.1264147311449051,-0.04765437170863152,-0.003048837184906006,-0.01468527317047119,-0.002942502498626709,XArbitraryZVertical,0.2683676560231652,0.08118321874743743,0.303821814730837,0.9105385466311371,-0.01523099653422832,-0.5380486845970154,-0.8427761793136597,0,0,0,-1,-1,3275.76422025,walking,2,2022-05-12T10:40:09.383+02:00,2022-05-11T22:15:20.957+02:00,845,0.8961411,0.765882,1.695994,639.5442,0,0,2022-05-12T10:40:11.941+02:00,674037611.9405705,0,-2.540001,100.9383,1,0.94
2022-05-12T10:40:12.381+02:00,1652344810.999885,53.22903821249793,10.39841515013054,37.36215,0,0.07,-1,-1,4,10,-9999,3278.761019125,-0.028289794921875,-0.527313232421875,-0.84954833984375,3278.751024125,0.6488667909020092,-0.01881825325202565,0.5681939902557458,0.001797105185687542,-0.09144982695579529,-0.03671064227819443,-0.004891276359558105,-0.003591179847717285,-0.0008574724197387695,XArbitraryZVertical,0.2685357283607867,0.080784165237361,0.303480642113831,0.9106382797784439,-0.01586048491299152,-0.5381106734275818,-0.8427249789237976,0,0,0,-1,-1,3275.76422025,walking,2,2022-05-12T10:40:09.383+02:00,2022-05-11T22:15:20.957+02:00,845,0.8961411,0.765882,1.695994,639.5442,0,0,2022-05-12T10:40:11.941+02:00,674037611.9405705,0,-2.540001,100.9383,1,0.94
2022-05-12T10:40:12.391+02:00,1652344810.999885,53.22903821249793,10.39841515013054,37.36215,0,0.07,-1,-1,4,10,-9999,3278.771014125,-0.0333709716796875,-0.515838623046875,-0.8514251708984375,3278.761019125,0.6484685047585347,-0.01925568408691369,0.5682981971293526,0.01568948477506638,-0.05161186680197716,-0.02397061139345169,-0.01273293793201447,0.005499362945556641,-0.005299806594848633,XArbitraryZVertical,0.2686654977809832,0.08054756259377671,0.3032354314203963,0.910702663278429,-0.01622803695499897,-0.5381985306739807,-0.8426618576049805,0,0,0,-1,-1,3275.76422025,walking,2,2022-05-12T10:40:09.383+02:00,2022-05-11T22:15:20.957+02:00,845,0.8961411,0.765882,1.695994,639.5442,0,0,2022-05-12T10:40:11.941+02:00,674037611.9405705,0,-2.540001,100.9383,1,0.94
2022-05-12T10:40:12.401+02:00,1652344810.999885,53.22903821249793,10.39841515013054,37.36215,0,0.07,-1,-1,4,10,-9999,3278.781009125,-0.0333251953125,-0.518524169921875,-0.8519134521484375,3278.771014125,0.6482154633072648,-0.01940791462701968,0.5684241097620429,0.01426622457802296,-0.02130096778273582,-0.01272661425173283,-0.01454384624958038,0.01729369163513184,-0.008559167385101318,XArbitraryZVertical,0.2687559812231684,0.08046365051585902,0.3030935735839373,0.9107306239308103,-0.016355000436306,-0.5383046269416809,-0.8425916433334351,0,0,0,-1,-1,3275.76422025,walking,2,2022-05-12T10:40:09.383+02:00,2022-05-11T22:15:20.957+02:00,845,0.8961411,0.765882,1.695994,639.5442,0,0,2022-05-12T10:40:11.941+02:00,674037611.9405705,0,-2.540001,100.9383,1,0.94
2022-05-12T10:40:12.411+02:00,1652344810.999885,53.22903821249793,10.39841515013054,37.36215,0,0.07,-1,-1,4,10,-9999,3278.791004125,-0.02789306640625,-0.52764892578125,-0.8464202880859375,3278.791004125,0.6479453472507307,-0.01909873006911481,0.5684955299795829,-0.003104242496192455,0.02069255709648132,0.0009979875758290291,-0.01390482485294342,0.01498878002166748,-0.006898880004882812,XArbitraryZVertical,0.2687524596230175,0.08057914179535312,0.3030086079396945,0.9107497606585929,-0.01609374955296516,-0.5383648276329041,-0.8425582051277161,0,0,0,-1,-1,3275.76422025,walking,2,2022-05-12T10:40:09.383+02:00,2022-05-11T22:15:20.957+02:00,845,0.8961411,0.765882,1.695994,639.5442,0,0,2022-05-12T10:40:11.941+02:00,674037611.9405705,0,-2.540001,100.9383,1,0.94
2022-05-12T10:40:12.421+02:00,1652344810.999885,53.22903821249793,10.39841515013054,37.36215,0,0.07,-1,-1,4,10,-9999,3278.800999125,-0.027069091796875,-0.5394134521484375,-0.84124755859375,3278.791004125,0.6479453472507307,-0.01909873006911481,0.5684955299795829,-0.003104242496192455,0.02069255709648132,0.0009979875758290291,-0.01390482485294342,0.01498878002166748,-0.006898880004882812,XArbitraryZVertical,0.2687524596230175,0.08057914179535312,0.3030086079396945,0.9107497606585929,-0.01609374955296516,-0.5383648276329041,-0.8425582051277161,0,0,0,-1,-1,3275.76422025,walking,2,2022-05-12T10:40:09.383+02:00,2022-05-11T22:15:20.957+02:00,845,0.8961411,0.765882,1.695994,639.5442,0,0,2022-05-12T10:40:11.941+02:00,674037611.9405705,0,-2.540001,100.9383,1,0.94
2022-05-12T10:40:12.431+02:00,1652344810.999885,53.22903821249793,10.39841515013054,37.36215,0,0.07,-1,-1,4,10,-9999,3278.810994125,-0.023834228515625,-0.548614501953125,-0.8345794677734375,3278.800999125,0.6479650594970757,-0.01886661630372185,0.5683013287786014,-0.03178169205784798,0.02626868337392807,0.002761532552540302,-0.01060415804386139,0.004357635974884033,0.0002741813659667969,XArbitraryZVertical,0.2686282401795547,0.0806575911265016,0.3030582889384822,0.9107628715318329,-0.01590015180408955,-0.5382011532783508,-0.8426664471626282,0,0,0,-1,-1,3275.76422025,walking,2,2022-05-12T10:40:09.383+02:00,2022-05-11T22:15:20.957+02:00,845,0.8961411,0.765882,1.695994,639.5442,0,0,2022-05-12T10:40:11.941+02:00,674037611.9405705,0,-2.540001,100.9383,1,0.94
2022-05-12T10:40:12.441+02:00,1652344810.999885,53.22903821249793,10.39841515013054,37.36215,0,0.07,-1,-1,4,10,-9999,3278.820990125,-0.0231475830078125,-0.545654296875,-0.8306732177734375,3278.810994125,0.6480687255515353,-0.01867949391264419,0.5678470867326711,-0.06152383983135223,0.02726077660918236,0.01060021389275789,-0.009918048977851868,-0.009117364883422852,0.004580318927764893,XArbitraryZVertical,0.2683892242754938,0.0806867499764564,0.3031528234332816,0.9107992858698181,-0.01574703305959702,-0.5378182530403137,-0.8429137468338013,0,0,0,-1,-1,3275.76422025,walking,2,2022-05-12T10:40:09.383+02:00,2022-05-11T22:15:20.957+02:00,845,0.8961411,0.765882,1.695994,639.5442,0,0,2022-05-12T10:40:11.941+02:00,674037611.9405705,0,-2.540001,100.9383,1,0.94
2022-05-12T10:40:12.451+02:00,1652344810.999885,53.22903821249793,10.39841515013054,37.36215,0,0.07,-1,-1,4,10,-9999,3278.830985125,-0.0184783935546875,-0.5437164306640625,-0.8301849365234375,3278.820990125,0.6482429191321158,-0.01850449646883929,0.5671919005185281,-0.08554209768772125,0.03418286517262459,0.02053993195295334,-0.007724449038505554,-0.01153141260147095,0.01085561513900757,XArbitraryZVertical,0.2680578223124243,0.08068885183468014,0.3032875917541721,0.9108518513206435,-0.0156060429289937,-0.5372657775878906,-0.8432686328887939,0,0,0,-1,-1,3275.76422025,walking,2,2022-05-12T10:40:09.383+02:00,2022-05-11T22:15:20.957+02:00,845,0.8961411,0.765882,1.695994,639.5442,0,0,2022-05-12T10:40:11.941+02:00,674037611.9405705,0,-2.540001,100.9383,1,0.94
2022-05-12T10:40:12.461+02:00,1652344810.999885,53.22903821249793,10.39841515013054,37.36215,0,0.07,-1,-1,4,10,-9999,3278.840980125,-0.0116424560546875,-0.5452423095703125,-0.829833984375,3278.830985125,0.6485237873034686,-0.01833003719713384,0.5663002341398539,-0.09736187011003494,0.03646545857191086,0.02648250758647919,-0.005879147909581661,-0.008011162281036377,0.01406830549240112,XArbitraryZVertical,0.267614662582058,0.08066849288903355,0.3034823229729331,0.9109190769208997,-0.01546770054847002,-0.5365135073661804,-0.84375,0,0,0,-1,-1,3275.76422025,walking,2,2022-05-12T10:40:09.383+02:00,2022-05-11T22:15:20.957+02:00,845,0.8961411,0.765882,1.695994,639.5442,0,0,2022-05-12T10:40:11.941+02:00,674037611.9405705,0,-2.540001,100.9383,1,0.94
2022-05-12T10:40:12.471+02:00,1652344810.999885,53.22903821249793,10.39841515013054,37.36215,0,0.07,-1,-1,4,10,-9999,3278.850975125,-0.0111083984375,-0.5459747314453125,-0.827239990234375,3278.840980125,0.6487085364773009,-0.01818060441589289,0.5652386954912347,-0.103752925992012,0.0218079537153244,-0.004360891878604889,0.001008898951113224,-0.0063742995262146,0.01340359449386597,XArbitraryZVertical,0.267101886772265,0.0805975787651423,0.3036380743650376,0.9110239146921786,-0.01535196136683226,-0.5356174111366272,-0.8443212509155273,0,0,0,-1,-1,3275.76422025,walking,2,2022-05-12T10:40:09.383+02:00,2022-05-11T22:15:20.957+02:00,845,0.8961411,0.765882,1.695994,639.5442,0,0,2022-05-12T10:40:11.941+02:00,674037611.9405705,0,-2.540001,100.9383,1,0.94
2022-05-12T10:40:12.481+02:00,1652344810.999885,53.22903821249793,10.39841515013054,37.36215,0,0.07,-1,-1,4,10,-9999,3278.860970125,-0.0238494873046875,-0.5334320068359375,-0.8252716064453125,3278.850975125,0.6485072368821357,-0.01803185005965273,0.5641905001214237,-0.09274953603744507,0.004140277393162251,-0.0326111726462841,0.006371334195137024,-0.01368379592895508,0.01649969816207886,XArbitraryZVertical,0.2666107197744366,0.08047682111829114,0.3036170408111791,0.9111855632388892,-0.01523648016154766,-0.534731924533844,-0.8448843955993652,0,0,0,-1,-1,3275.76422025,walking,2,2022-05-12T10:40:09.383+02:00,2022-05-11T22:15:20.957+02:00,845,0.8961411,0.765882,1.695994,639.5442,0,0,2022-05-12T10:40:11.941+02:00,674037611.9405705,0,-2.540001,100.9383,1,0.94
2022-05-12T10:40:12.491+02:00,1652344810.999885,53.22903821249793,10.39841515013054,37.36215,0,0.07,-1,-1,4,10,-9999,3278.870965125,-0.024810791015625,-0.535400390625,-0.8283843994140625,3278.860970125,0.6480896207672162,-0.01795527065744389,0.5630767208004517,-0.1066038385033607,-0.009884461760520935,-0.04457142949104309,-0.002487018704414368,-0.006019294261932373,0.01834702491760254,XArbitraryZVertical,0.2661093038307522,0.08028443311254234,0.303490866547521,0.9113910256789158,-0.01518246252089739,-0.5337904691696167,-0.8454805016517639,0,0,0,-1,-1,3275.76422025,walking,2,2022-05-12T10:40:09.383+02:00,2022-05-11T22:15:20.957+02:00,845,0.8961411,0.765882,1.695994,639.5442,0,0,2022-05-12T10:40:11.941+02:00,674037611.9405705,0,-2.540001,100.9383,1,0.94
2022-05-12T10:40:12.501+02:00,1652344810.999885,53.22903821249793,10.39841515013054,37.36215,0,0.07,-1,-1,4,10,-9999,3278.880960125,-0.0312042236328125,-0.5458984375,-0.8299407958984375,3278.870965125,0.6475150563190047,-0.01794705950458118,0.5619584656674319,-0.1038822159171104,-0.03182118386030197,-0.06021323800086975,-0.008174791932106018,-0.001304209232330322,0.0203624963760376,XArbitraryZVertical,0.2656223144533787,0.08003951164895462,0.3032840483639211,0.9116234924652163,-0.01518622320145369,-0.5328444838523865,-0.8460769057273865,0,0,0,-1,-1,3275.76422025,walking,2,2022-05-12T10:40:09.383+02:00,2022-05-11T22:15:20.957+02:00,845,0.8961411,0.765882,1.695994,639.5442,0,0,2022-05-12T10:40:11.941+02:00,674037611.9405705,0,-2.540001,100.9383,1,0.94
2022-05-12T10:40:12.511+02:00,1652344810.999885,53.22903821249793,10.39841515013054,37.36215,0,0.07,-1,-1,4,10,-9999,3278.890955125,-0.044158935546875,-0.5482330322265625,-0.8274078369140625,3278.880960125,0.6467161437351081,-0.0180559741714118,0.5609529136530721,-0.1041503995656967,-0.06368617713451385,-0.07916455715894699,-0.01381026208400726,-0.006946682929992676,0.01723402738571167,XArbitraryZVertical,0.2652131417446857,0.07972908050800374,0.3029538197876157,0.9118795083707129,-0.01528803911060095,-0.5319933295249939,-0.8466105461120605,0,0,0,-1,-1,3275.76422025,walking,2,2022-05-12T10:40:09.383+02:00,2022-05-11T22:15:20.957+02:00,845,0.8961411,0.765882,1.695994,639.5442,0,0,2022-05-12T10:40:11.941+02:00,674037611.9405705,0,-2.540001,100.9383,1,0.94
2022-05-12T10:40:12.521+02:00,1652344810.999885,53.22903821249793,10.39841515013054,37.36215,0,0.07,-1,-1,4,10,-9999,3278.900950125,-0.0516357421875,-0.5551605224609375,-0.824859619140625,3278.890955125,0.6456502482238533,-0.01838072317804095,0.5599121990898416,-0.1345010697841644,-0.1077726110816002,-0.1100224107503891,-0.01944558322429657,-0.01666301488876343,0.01889598369598389,XArbitraryZVertical,0.2648309162629794,0.07927974183469307,0.3024747309173834,0.9121887575742249,-0.01557314209640026,-0.5311117768287659,-0.8471586108207703,0,0,0,-1,-1,3275.76422025,walking,2,2022-05-12T10:40:09.383+02:00,2022-05-11T22:15:20.957+02:00,845,0.8961411,0.765882,1.695994,639.5442,0,0,2022-05-12T10:40:11.941+02:00,674037611.9405705,0,-2.540001,100.9383,1,0.94
2022-05-12T10:40:12.531+02:00,1652344810.999885,53.22903821249793,10.39841515013054,37.36215,0,0.07,-1,-1,4,10,-9999,3278.910945125,-0.082275390625,-0.5822601318359375,-0.800537109375,3278.900950125,0.6442149093139111,-0.01900367579137762,0.5585438275409884,-0.1724900007247925,-0.1618126779794693,-0.1317721754312515,-0.03549034893512726,-0.02171391248703003,0.02081745862960815,XArbitraryZVertical,0.264358518955319,0.07859556438198063,0.3018031535665089,0.9126074490770095,-0.01611467450857162,-0.5299518704414368,-0.847874641418457,0,0,0,-1,-1,3275.76422025,walking,2,2022-05-12T10:40:09.383+02:00,2022-05-11T22:15:20.957+02:00,845,0.8961411,0.765882,1.695994,639.5442,0,0,2022-05-12T10:40:11.941+02:00,674037611.9405705,0,-2.540001,100.9383,1,0.94
2022-05-12T10:40:12.541+02:00,1652344810.999885,53.22903821249793,10.39841515013054,37.36215,0,0.07,-1,-1,4,10,-9999,3278.920940125,-0.0761260986328125,-0.6019134521484375,-0.792724609375,3278.910945125,0.6421370797393492,-0.01996218995598587,0.5566167807831111,-0.2684634923934937,-0.2602113485336304,-0.2507367134094238,-0.0380752831697464,-0.03610539436340332,0.03001505136489868,XArbitraryZVertical,0.2637060995601423,0.07758853801048329,0.3008205669362214,0.9132065174331769,-0.01694772019982338,-0.5283167362213135,-0.8488782048225403,0,0,0,-1,-1,3275.76422025,walking,2,2022-05-12T10:40:09.383+02:00,2022-05-11T22:15:20.957+02:00,845,0.8961411,0.765882,1.695994,639.5442,0,0,2022-05-12T10:40:11.941+02:00,674037611.9405705,0,-2.540001,100.9383,1,0.94
2022-05-12T10:40:12.551+02:00,1652344810.999885,53.22903821249793,10.39841515013054,37.36215,0,0.07,-1,-1,4,10,-9999,3278.930935125,-0.15374755859375,-0.6254730224609375,-0.7626190185546875,3278.920940125,0.6393803227521078,-0.0211333196799434,0.5539388234731381,-0.3149905204772949,-0.2996431589126587,-0.2212488651275635,-0.07129204273223877,-0.07379668951034546,0.05261576175689697,XArbitraryZVertical,0.2627669945711123,0.07628163576076454,0.2995352570577876,0.9140094464911398,-0.01797168701887131,-0.5260410904884338,-0.8502692580223083,0,0,0,-1,-1,3275.76422025,walking,2,2022-05-12T10:40:09.383+02:00,2022-05-11T22:15:20.957+02:00,845,0.8961411,0.765882,1.695994,639.5442,0,0,2022-05-12T10:40:11.941+02:00,674037611.9405705,0,-2.540001,100.9383,1,0.94
2022-05-12T10:40:12.561+02:00,1652344810.999885,53.22903821249793,10.39841515013054,37.36215,0,0.07,-1,-1,4,10,-9999,3278.940930125,-0.5152587890625,-0.691558837890625,-0.773162841796875,3278.930935125,0.6357363886266817,-0.02249618370374328,0.5509029281026127,-0.3120130896568298,-0.3582243919372559,-0.4497175216674805,-0.0663284957408905,-0.07613688707351685,0.07403486967086792,XArbitraryZVertical,0.2617227280925312,0.07471867476442384,0.2978351960198425,0.9149932932998252,-0.01916630752384663,-0.5234568119049072,-0.8518366813659668,0,0,0,-1,-1,3275.76422025,walking,2,2022-05-12T10:40:09.383+02:00,2022-05-11T22:15:20.957+02:00,845,0.8961411,0.765882,1.695994,639.5442,0,0,2022-05-12T10:40:11.941+02:00,674037611.9405705,0,-2.540001,100.9383,1,0.94
2022-05-12T10:40:12.571+02:00,1652344810.999885,53.22903821249793,10.39841515013054,37.36215,0,0.07,-1,-1,4,10,-9999,3278.950925125,-0.1469573974609375,-0.5677032470703125,-0.6524810791015625,3278.940930125,0.630219523159116,-0.0171692372936827,0.5453669797559264,-0.6995427012443542,0.448998898267746,-0.2725858986377716,-0.4353798925876617,-0.2159783840179443,0.07870292663574219,XArbitraryZVertical,0.2586089730639203,0.07560349151370811,0.2962606163130234,0.9163162252175545,-0.01467789523303509,-0.5187318921089172,-0.8548110127449036,0,0,0,-1,-1,3275.76422025,walking,2,2022-05-12T10:40:09.383+02:00,2022-05-11T22:15:20.957+02:00,845,0.8961411,0.765882,1.695994,639.5442,0,0,2022-05-12T10:40:11.941+02:00,674037611.9405705,0,-2.540001,100.9383,1,0.94
2022-05-12T10:40:12.581+02:00,1652344810.999885,53.22903821249793,10.39841515013054,37.36215,0,0.07,-1,-1,4,10,-9999,3278.960920125,-0.1907958984375,-0.5740509033203125,-0.6234283447265625,3278.950925125,0.6268020183984313,-0.01246595167668602,0.5377239476921591,-0.8487381935119629,0.2100092172622681,-0.4529077112674713,-0.2915242314338684,-0.08057522773742676,0.1613304018974304,XArbitraryZVertical,0.2545431960321521,0.07617606622600014,0.2956390539583236,0.9176069892499087,-0.01070643775165081,-0.5121824741363525,-0.8588099479675293,0,0,0,-1,-1,3275.76422025,walking,2,2022-05-12T10:40:09.383+02:00,2022-05-11T22:15:20.957+02:00,845,0.8961411,0.765882,1.695994,639.5442,0,0,2022-05-12T10:40:11.941+02:00,674037611.9405705,0,-2.540001,100.9383,1,0.94
2022-05-12T10:40:12.591+02:00,1652344810.999885,53.22903821249793,10.39841515013054,37.36215,0,0.07,-1,-1,4,10,-9999,3278.970915125,-0.3419036865234375,-0.5828094482421875,-0.6085968017578125,3278.960920125,0.6196904010712467,-0.008095435045134498,0.5285550054855771,-0.9848291873931885,0.01050063874572515,-0.7175896763801575,-0.1314521729946136,-0.06733822822570801,0.2280405759811401,XArbitraryZVertical,0.2499624997471812,0.07592465118216425,0.2933157507509929,0.919630486006467,-0.006990628782659769,-0.5042860507965088,-0.863508403301239,0,0,0,-1,-1,3275.76422025,walking,2,2022-05-12T10:40:09.383+02:00,2022-05-11T22:15:20.957+02:00,845,0.8961411,0.765882,1.695994,639.5442,0,0,2022-05-12T10:40:11.941+02:00,674037611.9405705,0,-2.540001,100.9383,1,0.94
2022-05-12T10:40:12.601+02:00,1652344810.999885,53.22903821249793,10.39841515013054,37.36215,0,0.07,-1,-1,4,10,-9999,3278.980910125,-0.4707489013671875,-0.608856201171875,-0.5741119384765625,3278.970915125,0.6106197519902213,-0.003361630981862237,0.5179769680191301,-1.15419340133667,0.07560427486896515,-0.8814382553100586,-0.2616055309772491,-0.07950678467750549,0.2502871751785278,XArbitraryZVertical,0.2447471434204649,0.07543189189717005,0.2901529638052012,0.9220739331224481,-0.002920655533671379,-0.4951235055923462,-0.8688177466392517,0,0,0,-1,-1,3275.76422025,walking,2,2022-05-12T10:40:09.383+02:00,2022-05-11T22:15:20.957+02:00,845,0.8961411,0.765882,1.695994,639.5442,0,0,2022-05-12T10:40:11.941+02:00,674037611.9405705,0,-2.540001,100.9383,1,0.94
2022-05-12T10:40:12.611+02:00,1652344810.999885,53.22903821249793,10.39841515013054,37.36215,0,0.07,-1,-1,4,10,-9999,3278.990905125,-0.451141357421875,-0.71337890625,-0.622314453125,3278.980910125,0.5984387980857639,0.003949356862927716,0.5043514310667547,-1.540125370025635,0.2853798568248749,-1.173880577087402,-0.4252713918685913,-0.1103419661521912,0.2981189489364624,XArbitraryZVertical,0.2378607371037572,0.07537669315187337,0.2859214644255514,0.9251970375897357,0.003457605838775635,-0.4832397401332855,-0.8754812479019165,0,0,0,-1,-1,3275.76422025,walking,2,2022-05-12T10:40:09.383+02:00,2022-05-11T22:15:20.957+02:00,845,0.8961411,0.765882,1.695994,639.5442,0,0,2022-05-12T10:40:11.941+02:00,674037611.9405705,0,-2.540001,100.9383,1,0.94
2022-05-12T10:40:12.621+02:00,1652344810.999885,53.22903821249793,10.39841515013054,37.36215,0,0.07,-1,-1,4,10,-9999,3279.000900125,-0.383544921875,-0.7737579345703125,-0.66357421875,3278.990905125,0.5843865891592964,0.014316023670677,0.4867406591791503,-1.928483843803406,0.4881209135055542,-1.320963144302368,-0.4851869642734528,-0.1712442636489868,0.2924169301986694,XArbitraryZVertical,0.2287541003203446,0.07606440866312807,0.2812093065672461,0.9288741275819209,0.01265295874327421,-0.4677475690841675,-0.883771538734436,0,0,0,-1,-1,3275.76422025,walking,2,2022-05-12T10:40:09.383+02:00,2022-05-11T22:15:20.957+02:00,845,0.8961411,0.765882,1.695994,639.5442,0,0,2022-05-12T10:40:11.941+02:00,674037611.9405705,0,-2.540001,100.9383,1,0.94
2022-05-12T10:40:12.631+02:00,1652344810.999885,53.22903821249793,10.39841515013054,37.36215,0,0.07,-1,-1,4,10,-9999,3279.010895125,-0.2865142822265625,-0.7518157958984375,-0.7122344970703125,3279.000900125,0.5694504782777552,0.02672996777632394,0.4652885244061933,-2.328355550765991,0.6233440041542053,-1.463703036308289,-0.4384208619594574,-0.3219945132732391,0.241608738899231,XArbitraryZVertical,0.2175964319622756,0.07723561650731263,0.2762592825862509,0.9329347830742323,0.02388551831245422,-0.4486806690692902,-0.8933728933334351,0,0,0,-1,-1,3275.76422025,walking,2,2022-05-12T10:40:09.383+02:00,2022-05-11T22:15:20.957+02:00,845,0.8961411,0.765882,1.695994,639.5442,0,0,2022-05-12T10:40:11.941+02:00,674037611.9405705,0,-2.540001,100.9383,1,0.94
2022-05-12T10:40:12.641+02:00,1652344810.999885,53.22903821249793,10.39841515013054,37.36215,0,0.07,-1,-1,4,10,-9999,3279.020890125,-0.3793792724609375,-0.73675537109375,-0.82830810546875,3279.010895125,0.5532371291455896,0.0389355007554286,0.439868481792033,-2.628366708755493,0.4220493137836456,-1.615730762481689,-0.3913754820823669,-0.3334716260433197,0.2219622731208801,XArbitraryZVertical,0.2046436444671614,0.07784601675187769,0.2705606744551664,0.9374743336695545,0.03522023931145668,-0.4258204698562622,-0.9041219353675842,0,0,0,-1,-1,3275.76422025,walking,2,2022-05-12T10:40:09.383+02:00,2022-05-11T22:15:20.957+02:00,845,0.8961411,0.765882,1.695994,639.5442,0,0,2022-05-12T10:40:11.941+02:00,674037611.9405705,0,-2.540001,100.9383,1,0.94
2022-05-12T10:40:12.651+02:00,1652344810.999885,53.22903821249793,10.39841515013054,37.36215,0,0.07,-1,-1,4,10,-9999,3279.030885125,-0.4645233154296875,-0.78173828125,-0.889129638671875,3279.020890125,0.5363228993081424,0.0506026578687796,0.4112629452828104,-2.984677314758301,0.5605261921882629,-1.719628095626831,-0.3379434943199158,-0.3439150750637054,0.1389539241790771,XArbitraryZVertical,0.1902628101953591,0.07796394695765772,0.2642749120489996,0.9422741427444503,0.04636344686150551,-0.399767279624939,-0.9154433608055115,0,0,0,-1,-1,3275.76422025,walking,2,2022-05-12T10:40:09.383+02:00,2022-05-11T22:15:20.957+02:00,845,0.8961411,0.765882,1.695994,639.5442,0,0,2022-05-12T10:40:11.941+02:00,674037611.9405705,0,-2.540001,100.9383,1,0.94
2022-05-12T10:40:12.661+02:00,1652344810.999885,53.22903821249793,10.39841515013054,37.36215,0,0.07,-1,-1,4,10,-9999,3279.040878666667,-0.426239013671875,-0.804412841796875,-0.9038238525390625,3279.030885125,0.5190831191713973,0.06367468506180156,0.3782459205501904,-3.434420585632324,0.7440046072006226,-1.845146417617798,-0.503728985786438,-0.3792894780635834,0.06596487760543823,XArbitraryZVertical,0.173585393510026,0.07844002535277195,0.2577176579840255,0.9472576642835778,0.05913378670811653,-0.3692909479141235,-0.9274305701255798,0,0,0,-1,-1,3275.76422025,walking,2,2022-05-12T10:40:09.383+02:00,2022-05-11T22:15:20.957+02:00,845,0.8961411,0.765882,1.695994,639.5442,0,0,2022-05-12T10:40:11.941+02:00,674037611.9405705,0,-2.540001,100.9383,1,0.94
2022-05-12T10:40:12.671+02:00,1652344810.999885,53.22903821249793,10.39841515013054,37.36215,0,0.07,-1,-1,4,10,-9999,3279.050873666667,-0.421234130859375,-0.7672119140625,-0.9204864501953125,3279.040878666667,0.5015301978808613,0.07801749580258249,0.3398726252200428,-4.009283065795898,0.9072100520133972,-1.983249187469482,-0.523156464099884,-0.4746769070625305,0.03891289234161377,XArbitraryZVertical,0.1541673740839896,0.07916916486348333,0.2507739042765704,0.9524060679839885,0.07348007708787918,-0.3333670198917389,-0.9399293065071106,0,0,0,-1,-1,3275.76422025,walking,2,2022-05-12T10:40:09.383+02:00,2022-05-11T22:15:20.957+02:00,845,0.8961411,0.765882,1.695994,639.5442,0,0,2022-05-12T10:40:11.941+02:00,674037611.9405705,0,-2.540001,100.9383,1,0.94
2022-05-12T10:40:12.681+02:00,1652344810.999885,53.22903821249793,10.39841515013054,37.36215,0,0.07,-1,-1,4,10,-9999,3279.060868666667,-0.44970703125,-0.7056121826171875,-0.93133544921875,3279.050873666667,0.4838589376156906,0.09361969817337405,0.2951498345031544,-4.619626522064209,1.113832354545593,-2.130964040756226,-0.5031978487968445,-0.4958593845367432,0.0426565408706665,XArbitraryZVertical,0.131512708294597,0.08012490220412359,0.243392714666077,0.9576244652693582,0.08944066613912582,-0.2908832132816315,-0.9525688290596008,0,0,0,-1,-1,3275.76422025,walking,2,2022-05-12T10:40:09.383+02:00,2022-05-11T22:15:20.957+02:00,845,0.8961411,0.765882,1.695994,639.5442,0,0,2022-05-12T10:40:11.941+02:00,674037611.9405705,0,-2.540001,100.9383,1,0.94
2022-05-12T10:40:12.691+02:00,1652344810.999885,53.22903821249793,10.39841515013054,37.36215,0,0.07,-1,-1,4,10,-9999,3279.070863666667,-0.4354095458984375,-0.6175537109375,-0.96063232421875,3279.060868666667,0.4663194697236598,0.1109949336229218,0.2439101436302473,-5.220611572265625,1.43696916103363,-2.288239240646362,-0.5364893078804016,-0.4990096092224121,0.03765642642974854,XArbitraryZVertical,0.1054578942489623,0.08163221730812156,0.235549089383833,0.962668954967788,0.1074885800480843,-0.2414988726377487,-0.9644296169281006,0,0,0,-1,-1,3275.76422025,walking,2,2022-05-12T10:40:09.383+02:00,2022-05-11T22:15:20.957+02:00,845,0.8961411,0.765882,1.695994,639.5442,0,0,2022-05-12T10:40:11.941+02:00,674037611.9405705,0,-2.540001,100.9383,1,0.94
2022-05-12T10:40:12.701+02:00,1652344810.999885,53.22903821249793,10.39841515013054,37.36215,0,0.07,-1,-1,4,10,-9999,3279.080858666667,-0.40087890625,-0.4355010986328125,-1.003128051757812,3279.070863666667,0.4487435793603108,0.1302809341558152,0.1875628162720002,-5.510295867919922,1.701078534126282,-2.49583101272583,-0.5863591432571411,-0.483746200799942,0.03384321928024292,XArbitraryZVertical,0.07668362738696199,0.08397491690712176,0.2269893380353378,0.9672350875900053,0.1276342421770096,-0.1864650100469589,-0.97413569688797,0,0,0,-1,-1,3275.76422025,walking,2,2022-05-12T10:40:09.383+02:00,2022-05-11T22:15:20.957+02:00,845,0.8961411,0.765882,1.695994,639.5442,0,0,2022-05-12T10:40:11.941+02:00,674037611.9405705,0,-2.540001,100.9383,1,0.94
2022-05-12T10:40:12.711+02:00,1652344810.999885,53.22903821249793,10.39841515013054,37.36215,0,0.07,-1,-1,4,10,-9999,3279.090854666667,-0.368316650390625,-0.3928985595703125,-1.003692626953125,3279.080858666667,0.4304616129939705,0.1518599344308381,0.1290751967010891,-5.548575878143311,2.011741638183594,-2.700871467590332,-0.5600678324699402,-0.3988091647624969,-0.004533767700195312,XArbitraryZVertical,0.04665595824084703,0.08768674113344671,0.217293563565442,0.9710395210415446,0.150018498301506,-0.1287170946598053,-0.9802685379981995,0,0,0,-1,-1,3275.76422025,walking,2,2022-05-12T10:40:09.383+02:00,2022-05-11T22:15:20.957+02:00,845,0.8961411,0.765882,1.695994,639.5442,0,0,2022-05-12T10:40:11.941+02:00,674037611.9405705,0,-2.540001,100.9383,1,0.94
2022-05-12T10:40:12.721+02:00,1652344810.999885,53.22903821249793,10.39841515013054,37.36215,0,0.07,-1,-1,4,10,-9999,3279.100849666667,-0.4422607421875,-0.250579833984375,-1.12677001953125,3279.090854666667,0.412606580194221,0.1756404773846255,0.06881568370991485,-5.763913154602051,2.353296995162964,-2.767565965652466,-0.5484400987625122,-0.3164461255073547,-0.02673357725143433,XArbitraryZVertical,0.01558620094094343,0.09281639615226363,0.2068860508052644,0.9738276658312196,0.1743252128362656,-0.06876138597726822,-0.9822843670845032,0,0,0,-1,-1,3275.76422025,walking,2,2022-05-12T10:40:09.383+02:00,2022-05-11T22:15:20.957+02:00,845,0.8961411,0.765882,1.695994,639.5442,0,0,2022-05-12T10:40:11.941+02:00,674037611.9405705,0,-2.540001,100.9383,1,0.94
2022-05-12T10:40:12.731+02:00,1652344810.999885,53.22903821249793,10.39841515013054,37.36215,0,0.07,-1,-1,4,10,-9999,3279.110844666667,-0.2423858642578125,-0.0195770263671875,-1.120376586914062,3279.100849666667,0.394193263185502,0.2030595042066707,0.008779196010947538,-5.438615322113037,3.17375922203064,-3.056583166122437,-0.6193989515304565,-0.3683260083198547,-0.05641120672225952,XArbitraryZVertical,-0.01556509175278726,0.1002472785993781,0.195248964748397,0.9754928521049168,0.2016591429710388,-0.008779083378612995,-0.9794164299964905,0,0,0,-1,-1,3275.76422025,walking,2,2022-05-12T10:40:09.383+02:00,2022-05-11T22:15:20.957+02:00,845,0.8961411,0.765882,1.695994,639.5442,0,0,2022-05-12T10:40:11.941+02:00,674037611.9405705,0,-2.540001,100.9383,1,0.94
2022-05-12T10:40:12.741+02:00,1652344810.999885,53.22903821249793,10.39841515013054,37.36215,0,0.07,-1,-1,4,10,-9999,3279.120839666667,-0.2071380615234375,0.083648681640625,-1.236495971679688,3279.110844666667,0.3753007716975857,0.233945646579301,-0.04934466107301285,-5.005803108215332,3.20974063873291,-3.174870729446411,-0.5696700215339661,-0.1452712714672089,-0.1469702124595642,XArbitraryZVertical,-0.0458361721117017,0.1100518715232212,0.1823912583697813,0.9759719584502193,0.2315353155136108,0.0493246391415596,-0.9715752601623535,0,0,0,-1,-1,3275.76422025,walking,2,2022-05-12T10:40:09.383+02:00,2022-05-11T22:15:20.957+02:00,845,0.8961411,0.765882,1.695994,639.5442,0,0,2022-05-12T10:40:11.941+02:00,674037611.9405705,0,-2.540001,100.9383,1,0.94
2022-05-12T10:40:12.751+02:00,1652344810.999885,53.22903821249793,10.39841515013054,37.36215,0,0.07,-1,-1,4,10,-9999,3279.130834666667,-0.18695068359375,0.1128387451171875,-1.222366333007812,3279.120839666667,0.3550906916694203,0.2662257525031482,-0.1028549505889966,-4.436141490936279,3.494196176528931,-3.33691668510437,-0.4925212860107422,-0.08018161356449127,-0.2413166761398315,XArbitraryZVertical,-0.07355836970730624,0.1214625679786056,0.1681049809560113,0.9754880347571309,0.2617016136646271,0.1026736944913864,-0.9596720337867737,0,0,0,-1,-1,3275.76422025,walking,2,2022-05-12T10:40:09.383+02:00,2022-05-11T22:15:20.957+02:00,845,0.8961411,0.765882,1.695994,639.5442,0,0,2022-05-12T10:40:11.941+02:00,674037611.9405705,0,-2.540001,100.9383,1,0.94
2022-05-12T10:40:12.766+02:00,1652344810.999885,53.22903821249793,10.39841515013054,37.36215,0,0.07,-1,-1,4,10,-9999,3279.140829666667,-0.2042694091796875,0.1367950439453125,-1.20550537109375,3279.130834666667,0.3342407446761367,0.2989208110597576,-0.1530660079629674,-4.07045841217041,3.61951470375061,-3.420472621917725,-0.4758756756782532,-0.03331249952316284,-0.2807074785232544,XArbitraryZVertical,-0.09924937048598546,0.13382365014801,0.1527811869769131,0.9741143778398087,0.2910459637641907,0.1524690091609955,-0.9444816112518311,0,0,0,-1,-1,3275.76422025,walking,2,2022-05-12T10:40:09.383+02:00,2022-05-11T22:15:20.957+02:00,845,0.8961411,0.765882,1.695994,639.5442,0,0,2022-05-12T10:40:11.941+02:00,674037611.9405705,0,-2.540001,100.9383,1,0.94
2022-05-12T10:40:12.782+02:00,1652344810.999885,53.22903821249793,10.39841515013054,37.36215,0,0.07,-1,-1,4,10,-9999,3279.150824666667,-0.2397308349609375,0.2397308349609375,-1.166015625,3279.140829666667,0.3130386450828418,0.3320962853053659,-0.2015480750309553,-3.886420726776123,3.827756881713867,-3.547760009765625,-0.5113968849182129,-0.09360305964946747,-0.2953478693962097,XArbitraryZVertical,-0.1236411870331747,0.1469708536709184,0.136531902849397,0.9718393001738846,0.319426029920578,0.2001863121986389,-0.9262248277664185,0,0,0,-1,-1,3275.76422025,walking,2,2022-05-12T10:40:09.383+02:00,2022-05-11T22:15:20.957+02:00,845,0.8961411,0.765882,1.695994,639.5442,0,0,2022-05-12T10:40:11.941+02:00,674037611.9405705,0,-2.540001,100.9383,1,0.94
2022-05-12T10:40:12.785+02:00,1652344810.999885,53.22903821249793,10.39841515013054,37.36215,0,0.07,-1,-1,4,10,-9999,3279.160819666667,-0.24053955078125,0.3088836669921875,-1.110153198242188,3279.150824666667,0.2919848982873037,0.3665949261840759,-0.2495662078666099,-3.728625774383545,4.022000789642334,-3.608556747436523,-0.5762007236480713,-0.06583064794540405,-0.2864999771118164,XArbitraryZVertical,-0.1473825882680001,0.1611292329659949,0.1194809810158287,0.9685248115422144,0.3473341464996338,0.2469836324453354,-0.904631495475769,0,0,0,-1,-1,3275.76422025,walking,2,2022-05-12T10:40:09.383+02:00,2022-05-11T22:15:20.957+02:00,845,0.8961411,0.765882,1.695994,639.5442,0,0,2022-05-12T10:40:11.941+02:00,674037611.9405705,0,-2.540001,100.9383,1,0.94
2022-05-12T10:40:12.791+02:00,1652344810.999885,53.22903821249793,10.39841515013054,37.36215,0,0.07,-1,-1,4,10,-9999,3279.170814666667,-0.212982177734375,0.4048614501953125,-1.005386352539062,3279.160819666667,0.2717002626000368,0.402940016786917,-0.2968440015444484,-3.594151258468628,4.292394161224365,-3.572905778884888,-0.6209160089492798,-0.009498298168182373,-0.2709096074104309,XArbitraryZVertical,-0.1703551393512777,0.1764639278591164,0.1019153171445569,0.9640814331758809,0.37497478723526,0.29250368475914,-0.8796792030334473,0,0,0,-1,-1,3275.76422025,walking,2,2022-05-12T10:40:09.383+02:00,2022-05-11T22:15:20.957+02:00,845,0.8961411,0.765882,1.695994,639.5442,0,0,2022-05-12T10:40:11.941+02:00,674037611.9405705,0,-2.540001,100.9383,1,0.94
2022-05-12T10:40:12.801+02:00,1652344810.999885,53.22903821249793,10.39841515013054,37.36215,0,0.07,-1,-1,4,10,-9999,3279.180809666667,-0.1528472900390625,0.47259521484375,-0.8941192626953125,3279.170814666667,0.2526843423177603,0.4414370422614555,-0.34396554593663,-3.548909664154053,4.659684181213379,-3.550596237182617,-0.6284710168838501,0.0126921534538269,-0.2014487981796265,XArbitraryZVertical,-0.1928332138965948,0.1929405944138463,0.08396728122140849,0.9584043743698009,0.4022135734558105,0.3372229933738708,-0.8511785864830017,0,0,0,-1,-1,3275.76422025,walking,2,2022-05-12T10:40:09.383+02:00,2022-05-11T22:15:20.957+02:00,845,0.8961411,0.765882,1.695994,639.5442,0,0,2022-05-12T10:40:11.941+02:00,674037611.9405705,0,-2.540001,100.9383,1,0.94
2022-05-12T10:40:12.811+02:00,1652344810.999885,53.22903821249793,10.39841515013054,37.36215,0,0.07,-1,-1,4,10,-9999,3279.190804666667,-0.0590667724609375,0.5843505859375,-0.7479400634765625,3279.180809666667,0.2359613826715353,0.4830399036646541,-0.3914646910940283,-3.604812145233154,4.899019241333008,-3.486995697021484,-0.6220551729202271,0.05670559406280518,-0.1383459568023682,XArbitraryZVertical,-0.21514284266175,0.2107529488279754,0.06591517346050398,0.9512897156678204,0.4293365776538849,0.3815427124500275,-0.8185935020446777,0,0,0,-1,-1,3275.76422025,walking,2,2022-05-12T10:40:09.383+02:00,2022-05-11T22:15:20.957+02:00,845,0.8961411,0.765882,1.695994,639.5442,0,0,2022-05-12T10:40:11.941+02:00,674037611.9405705,0,-2.540001,100.9383,1,0.94
2022-05-12T10:40:12.821+02:00,1652344810.999885,53.22903821249793,10.39841515013054,37.36215,0,0.07,-1,-1,4,10,-9999,3279.200799666667,-0.0086212158203125,0.6888885498046875,-0.658538818359375,3279.190804666667,0.2229702328883043,0.5277215843757352,-0.4406578695325132,-3.877633571624756,5.090516090393066,-3.368902921676636,-0.5606096386909485,0.09684246778488159,-0.04036837816238403,XArbitraryZVertical,-0.237991558330598,0.229451586701601,0.04816116438936418,0.9425458107110513,0.455461174249649,0.4265345931053162,-0.7814239859580994,0,0,0,-1,-1,3275.76422025,walking,2,2022-05-12T10:40:09.383+02:00,2022-05-11T22:15:20.957+02:00,845,0.8961411,0.765882,1.695994,639.5442,0,0,2022-05-12T10:40:11.941+02:00,674037611.9405705,0,-2.540001,100.9383,1,0.94
2022-05-12T10:40:12.831+02:00,1652344810.999885,53.22903821249793,10.39841515013054,37.36215,0,0.07,-1,-1,4,10,-9999,3279.210794666667,0.05731201171875,0.82470703125,-0.5530548095703125,3279.200799666667,0.215227985385031,0.5764157208625929,-0.4920644663018828,-4.155583381652832,5.335697650909424,-3.198004961013794,-0.5082232356071472,0.1662870645523071,0.04043412208557129,XArbitraryZVertical,-0.2617704700987193,0.2489997303022184,0.03104842524958922,0.931939590560814,0.4803605377674103,0.4724464416503906,-0.7389507293701172,0,0,0,-1,-1,3275.76422025,walking,2,2022-05-12T10:40:09.383+02:00,2022-05-11T22:15:20.957+02:00,845,0.8961411,0.765882,1.695994,639.5442,0,0,2022-05-12T10:40:11.941+02:00,674037611.9405705,0,-2.540001,100.9383,1,0.94
2022-05-12T10:40:12.841+02:00,1652344810.999885,53.22903821249793,10.39841515013054,37.36215,0,0.07,-1,-1,4,10,-9999,3279.220789666667,0.12890625,0.9539947509765625,-0.48095703125,3279.210794666667,0.2139934252276132,0.6299833974805955,-0.5446304152641056,-4.354624271392822,5.486972808837891,-2.928817272186279,-0.4860883355140686,0.2365220189094543,0.08723270893096924,XArbitraryZVertical,-0.2861324992069286,0.2693759815847269,0.01494653364954565,0.9194245479214933,0.5038951635360718,0.5181019902229309,-0.6911295652389526,0,0,0,-1,-1,3275.76422025,walking,2,2022-05-12T10:40:09.383+02:00,2022-05-11T22:15:20.957+02:00,845,0.8961411,0.765882,1.695994,639.5442,0,0,2022-05-12T10:40:11.941+02:00,674037611.9405705,0,-2.540001,100.9383,1,0.94
2022-05-12T10:40:12.851+02:00,1652344810.999885,53.22903821249793,10.39841515013054,37.36215,0,0.07,-1,-1,4,10,-9999,3279.230784666667,0.1407623291015625,1.025741577148438,-0.3772430419921875,3279.220789666667,0.2195050510441389,0.6885856879932412,-0.5961133017312772,-4.33363151550293,5.664138317108154,-2.644770860671997,-0.4285720586776733,0.3313161730766296,0.1249006390571594,XArbitraryZVertical,-0.3101065603904907,0.2904297610703504,3.433775896889729e-05,0.9052538759812466,0.5258466601371765,0.5614303946495056,-0.6389689445495605,0,0,0,-1,-1,3275.76422025,walking,2,2022-05-12T10:40:09.383+02:00,2022-05-11T22:15:20.957+02:00,845,0.8961411,0.765882,1.695994,639.5442,0,0,2022-05-12T10:40:11.941+02:00,674037611.9405705,0,-2.540001,100.9383,1,0.94
2022-05-12T10:40:12.861+02:00,1652344810.999885,53.22903821249793,10.39841515013054,37.36215,0,0.07,-1,-1,4,10,-9999,3279.240779666667,0.24908447265625,1.146530151367188,-0.2616424560546875,3279.230784666667,0.2306051707809449,0.7524750060048178,-0.6445325294732329,-4.114665508270264,5.791024684906006,-2.379363775253296,-0.4161930084228516,0.3892728090286255,0.1450256109237671,XArbitraryZVertical,-0.3327028054783867,0.3123059352427831,-0.01410482892927145,0.8897051120706113,0.5463349223136902,0.6008248329162598,-0.5835477113723755,0,0,0,-1,-1,3275.76422025,walking,2,2022-05-12T10:40:09.383+02:00,2022-05-11T22:15:20.957+02:00,845,0.8961411,0.765882,1.695994,639.5442,0,0,2022-05-12T10:40:11.941+02:00,674037611.9405705,0,-2.540001,100.9383,1,0.94
2022-05-12T10:40:12.871+02:00,1652344810.999885,53.22903821249793,10.39841515013054,37.36215,0,0.07,-1,-1,4,10,-9999,3279.250774666667,0.270172119140625,1.200286865234375,-0.1526641845703125,3279.240779666667,0.2455991773532613,0.8199170139682022,-0.6879465951559165,-3.674790620803833,5.85476016998291,-2.103816509246826,-0.3675387501716614,0.452359139919281,0.2094255089759827,XArbitraryZVertical,-0.3529190509188671,0.3345133746565326,-0.02763758875541805,0.8733757405456545,0.5648040771484375,0.634952187538147,-0.5270978808403015,0,0,0,-1,-1,3275.76422025,walking,2,2022-05-12T10:40:09.383+02:00,2022-05-11T22:15:20.957+02:00,845,0.8961411,0.765882,1.695994,639.5442,0,0,2022-05-12T10:40:11.941+02:00,674037611.9405705,0,-2.540001,100.9383,1,0.94
2022-05-12T10:40:12.881+02:00,1652344810.999885,53.22903821249793,10.39841515013054,37.36215,0,0.07,-1,-1,4,10,-9999,3279.260769666667,0.4130096435546875,1.297714233398438,-0.0406494140625,3279.250774666667,0.2624428383486159,0.8901596013490308,-0.7252657687179442,-3.137484312057495,5.961446285247803,-1.828837037086487,-0.3072538375854492,0.5180626511573792,0.2501317262649536,XArbitraryZVertical,-0.3700938693011017,0.3571765618819891,-0.04099451112374027,0.8566067185766686,0.5815760493278503,0.6633343696594238,-0.4709108769893646,0,0,0,-1,-1,3275.76422025,walking,2,2022-05-12T10:40:09.383+02:00,2022-05-11T22:15:20.957+02:00,845,0.8961411,0.765882,1.695994,639.5442,0,0,2022-05-12T10:40:11.941+02:00,674037611.9405705,0,-2.540001,100.9383,1,0.94
2022-05-12T10:40:12.891+02:00,1652344810.999885,53.22903821249793,10.39841515013054,37.36215,0,0.07,-1,-1,4,10,-9999,3279.270764666667,0.541168212890625,1.325698852539062,0.0438995361328125,3279.260769666667,0.2788393834300301,0.9599937796471675,-0.7550640482300902,-2.365988492965698,5.745536327362061,-1.459391355514526,-0.2878857254981995,0.5524428486824036,0.3299191296100616,XArbitraryZVertical,-0.3834516577750346,0.3796529918872752,-0.05398782609624465,0.8401867866318747,0.5965554118156433,0.6853353381156921,-0.4176568686962128,0,0,0,-1,-1,3275.76422025,walking,2,2022-05-12T10:40:09.383+02:00,2022-05-11T22:15:20.957+02:00,845,0.8961411,0.765882,1.695994,639.5442,0,0,2022-05-12T10:40:11.941+02:00,674037611.9405705,0,-2.540001,100.9383,1,0.94
2022-05-12T10:40:12.901+02:00,1652344810.999885,53.22903821249793,10.39841515013054,37.36215,0,0.07,-1,-1,4,10,-9999,3279.280759666667,0.5181884765625,1.182083129882812,0.1106414794921875,3279.270764666667,0.2925317794432988,1.027306832228947,-0.7776802538541011,-1.799663186073303,5.845036029815674,-1.274556279182434,-0.06817048788070679,0.6469439268112183,0.3761041760444641,XArbitraryZVertical,-0.3929343214755769,0.4017030861686379,-0.06683258271595818,0.8244821648419889,0.6098724007606506,0.7016283869743347,-0.3684745132923126,0,0,0,-1,-1,3275.76422025,walking,2,2022-05-12T10:40:09.383+02:00,2022-05-11T22:15:20.957+02:00,845,0.8961411,0.765882,1.695994,639.5442,0,0,2022-05-12T10:40:11.941+02:00,674037611.9405705,0,-2.540001,100.9383,1,0.94
2022-05-12T10:40:12.911+02:00,1652344810.999885,53.22903821249793,10.39841515013054,37.36215,0,0.07,-1,-1,4,10,-9999,3279.290754666667,0.5491180419921875,1.145034790039062,0.17999267578125,3279.280759666667,0.3029288341596215,1.091716389658158,-0.7947576280147304,-1.178282499313354,5.608468532562256,-0.9720443487167358,-0.153521716594696,0.521414041519165,0.391321063041687,XArbitraryZVertical,-0.3992063024713085,0.4233104846586344,-0.07970207161985082,0.8093765121294463,0.6215999722480774,0.7136938571929932,-0.322885125875473,0,0,0,-1,-1,3275.76422025,walking,2,2022-05-12T10:40:09.383+02:00,2022-05-11T22:15:20.957+02:00,845,0.8961411,0.765882,1.695994,639.5442,0,0,2022-05-12T10:40:11.941+02:00,674037611.9405705,0,-2.540001,100.9383,1,0.94
2022-05-12T10:40:12.921+02:00,1652344810.999885,53.22903821249793,10.39841515013054,37.36215,0,0.07,-1,-1,4,10,-9999,3279.300749666667,0.64862060546875,1.1553955078125,0.2777099609375,3279.290754666667,0.3097822614914808,1.151908619632485,-0.8065941530916743,-0.6819778680801392,5.425017356872559,-0.7330456376075745,-0.07958465814590454,0.4419909715652466,0.4271121323108673,XArbitraryZVertical,-0.4024807339113077,0.4441660984568421,-0.09218097888587409,0.7951278988065139,0.6321355700492859,0.7219346761703491,-0.2814514636993408,0,0,0,-1,-1,3275.76422025,walking,2,2022-05-12T10:40:09.383+02:00,2022-05-11T22:15:20.957+02:00,845,0.8961411,0.765882,1.695994,639.5442,0,0,2022-05-12T10:40:11.941+02:00,674037611.9405705,0,-2.540001,100.9383,1,0.94
2022-05-12T10:40:12.931+02:00,1652344810.999885,53.22903821249793,10.39841515013054,37.36215,0,0.07,-1,-1,4,10,-9999,3279.310744666667,0.705841064453125,1.10821533203125,0.38018798828125,3279.300749666667,0.3127677394185284,1.206429981657421,-0.8143617389464408,-0.3417264819145203,5.030203819274902,-0.5600411295890808,-0.05718410015106201,0.420753538608551,0.4614683389663696,XArbitraryZVertical,-0.4032814296041126,0.4637609709372584,-0.104145205925916,0.7819486311312042,0.6412748694419861,0.7272877097129822,-0.2445797026157379,0,0,0,-1,-1,3275.76422025,walking,2,2022-05-12T10:40:09.383+02:00,2022-05-11T22:15:20.957+02:00,845,0.8961411,0.765882,1.695994,639.5442,0,0,2022-05-12T10:40:11.941+02:00,674037611.9405705,0,-2.540001,100.9383,1,0.94
