loggingTime(txt),locationTimestamp_since1970(s),locationLatitude(WGS84),locationLongitude(WGS84),locationAltitude(m),locationSpeed(m/s),locationSpeedAccuracy(m/s),locationCourse(°),locationCourseAccuracy(°),locationVerticalAccuracy(m),locationHorizontalAccuracy(m),locationFloor(Z),accelerometerTimestamp_sinceReboot(s),accelerometerAccelerationX(G),accelerometerAccelerationY(G),accelerometerAccelerationZ(G),motionTimestamp_sinceReboot(s),motionYaw(rad),motionRoll(rad),motionPitch(rad),motionRotationRateX(rad/s),motionRotationRateY(rad/s),motionRotationRateZ(rad/s),motionUserAccelerationX(G),motionUserAccelerationY(G),motionUserAccelerationZ(G),motionAttitudeReferenceFrame(txt),motionQuaternionX(R),motionQuaternionY(R),motionQuaternionZ(R),motionQuaternionW(R),motionGravityX(G),motionGravityY(G),motionGravityZ(G),motionMagneticFieldX(µT),motionMagneticFieldY(µT),motionMagneticFieldZ(µT),motionHeading(°),motionMagneticFieldCalibrationAccuracy(Z),activityTimestamp_sinceReboot(s),activity(txt),activityActivityConfidence(Z),activityActivityStartDate(txt),pedometerStartDate(txt),pedometerNumberofSteps(N),pedometerAverageActivePace(s/m),pedometerCurrentPace(s/m),pedometerCurrentCadence(steps/s),pedometerDistance(m),pedometerFloorAscended(N),pedometerFloorDescended(N),pedometerEndDate(txt),altimeterTimestamp_sinceReboot(s),altimeterReset(bool),altimeterRelativeAltitude(m),altimeterPressure(kPa),batteryState(N),batteryLevel(R)
2022-05-12T10:41:04.913+02:00,1652344845.000011,53.22887063429163,10.3984035242292,36.81001,1.413575,0.764814,166.4408364120522,26.87362846743479,2.400000095367432,7.999579855010836,-9999,3324.02831,0.0452728271484375,-0.7433624267578125,-0.5881500244140625,3324.023312,2.138900309675296,0.05584140304379168,0.8147749499706837,0.05837586149573326,-0.04791826382279396,-0.105898030102253,-0.01604118943214417,0.0008712410926818848,0.08668112754821777,XArbitraryZVertical,0.1678699108853849,0.359636330029326,0.8101692885140992,0.4314013317180487,0.03828909248113632,-0.7275712490081787,-0.6849628090858459,0,0,0,-1,-1,3298.778609,walking,2,2022-05-12T10:40:32.398+02:00,2022-05-11T22:15:20.957+02:00,914,0.8930088,0.8197976,1.729005,688.5342,0,0,2022-05-12T10:41:03.043+02:00,674037663.0431966,0,-3.630001,100.9501,1,0.94
2022-05-12T10:41:04.917+02:00,1652344845.000011,53.22887063429163,10.3984035242292,36.81001,1.413575,0.764814,166.4408364120522,26.87362846743479,2.400000095367432,7.999579855010836,-9999,3324.038305,0.0480804443359375,-0.7469940185546875,-0.593505859375,3324.033307,2.137284449848656,0.05626400161512604,0.8149246900679555,-0.02194587327539921,-0.1052380129694939,-0.1120099946856499,0.006700992584228516,-0.01568865776062012,0.09668803215026855,XArbitraryZVertical,0.1680231238466223,0.3596516250056735,0.8098309965498235,0.4319639842790591,0.03857243061065674,-0.7276739478111267,-0.6848378777503967,0,0,0,-1,-1,3298.778609,walking,2,2022-05-12T10:40:32.398+02:00,2022-05-11T22:15:20.957+02:00,914,0.8930088,0.8197976,1.729005,688.5342,0,0,2022-05-12T10:41:03.043+02:00,674037663.0431966,0,-3.630001,100.9501,1,0.94
2022-05-12T10:41:04.919+02:00,1652344845.000011,53.22887063429163,10.3984035242292,36.81001,1.413575,0.764814,166.4408364120522,26.87362846743479,2.400000095367432,7.999579855010836,-9999,3324.0483,0.046905517578125,-0.73992919921875,-0.6073150634765625,3324.043302,2.135790339163946,0.05602229042978552,0.8142236715567555,-0.1088325679302216,-0.1616064757108688,-0.1075420081615448,0.009645581245422363,-0.01980125904083252,0.09185069799423218,XArbitraryZVertical,0.1682311336152833,0.3591936912326283,0.8096050067381027,0.4326871473371084,0.03843545168638229,-0.7271929383277893,-0.6853563785552979,0,0,0,-1,-1,3298.778609,walking,2,2022-05-12T10:40:32.398+02:00,2022-05-11T22:15:20.957+02:00,914,0.8930088,0.8197976,1.729005,688.5342,0,0,2022-05-12T10:41:03.043+02:00,674037663.0431966,0,-3.630001,100.9501,1,0.94
2022-05-12T10:41:04.931+02:00,1652344845.000011,53.22887063429163,10.3984035242292,36.81001,1.413575,0.764814,166.4408364120522,26.87362846743479,2.400000095367432,7.999579855010836,-9999,3324.058295,0.0220947265625,-0.755218505859375,-0.6289520263671875,3324.053297,2.134751382852595,0.05500879775286449,0.812959698622295,-0.1421706527471542,-0.1589113026857376,-0.06806656718254089,0.009114798158407211,-0.01360464096069336,0.07899725437164307,XArbitraryZVertical,0.1685418870784888,0.358381918885195,0.8095058563151128,0.4334239544438621,0.03779132664203644,-0.7263246774673462,-0.6863120794296265,0,0,0,-1,-1,3298.778609,walking,2,2022-05-12T10:40:32.398+02:00,2022-05-11T22:15:20.957+02:00,914,0.8930088,0.8197976,1.729005,688.5342,0,0,2022-05-12T10:41:03.043+02:00,674037663.0431966,0,-3.630001,100.9501,1,0.94
2022-05-12T10:41:04.933+02:00,1652344845.000011,53.22887063429163,10.3984035242292,36.81001,1.413575,0.764814,166.4408364120522,26.87362846743479,2.400000095367432,7.999579855010836,-9999,3324.06829,0.037811279296875,-0.7494049072265625,-0.6382293701171875,3324.063292,2.13405604363584,0.05396037538500301,0.8112540214808361,-0.1845503300428391,-0.1605627238750458,-0.04770324006676674,-0.01504320278763771,-0.03006738424301147,0.05863559246063232,XArbitraryZVertical,0.1687046935628369,0.3574143635271052,0.809551303109074,0.4340742391744379,0.03713852539658546,-0.7251512408256531,-0.6875873804092407,0,0,0,-1,-1,3298.778609,walking,2,2022-05-12T10:40:32.398+02:00,2022-05-11T22:15:20.957+02:00,914,0.8930088,0.8197976,1.729005,688.5342,0,0,2022-05-12T10:41:03.043+02:00,674037663.0431966,0,-3.630001,100.9501,1,0.94
2022-05-12T10:41:04.935+02:00,1652344845.000011,53.22887063429163,10.3984035242292,36.81001,1.413575,0.764814,166.4408364120522,26.87362846743479,2.400000095367432,7.999579855010836,-9999,3324.078285,0.0216827392578125,-0.7501373291015625,-0.6644744873046875,3324.073287,2.133526695376508,0.05266247623891843,0.8092609233680599,-0.2140839248895645,-0.1745606958866119,-0.04606499522924423,0.001489784568548203,-0.02562767267227173,0.05084782838821411,XArbitraryZVertical,0.168873303237483,0.3562910614882572,0.809658858274343,0.4347311075552257,0.03632208332419395,-0.7237774133682251,-0.6890769600868225,0,0,0,-1,-1,3298.778609,walking,2,2022-05-12T10:40:32.398+02:00,2022-05-11T22:15:20.957+02:00,914,0.8930088,0.8197976,1.729005,688.5342,0,0,2022-05-12T10:41:03.043+02:00,674037663.0431966,0,-3.630001,100.9501,1,0.94
2022-05-12T10:41:04.937+02:00,1652344845.000011,53.22887063429163,10.3984035242292,36.81001,1.413575,0.764814,166.4408364120522,26.87362846743479,2.400000095367432,7.999579855010836,-9999,3324.088279791667,0.0205535888671875,-0.7413330078125,-0.6848602294921875,3324.083282,2.132995898011317,0.05142260537185232,0.8072366062405235,-0.2020011693239212,-0.1578887701034546,-0.0562923327088356,-0.01385959982872009,-0.02775847911834717,0.02610898017883301,XArbitraryZVertical,0.1690112165553916,0.35516692367785,0.8097753537946212,0.4353800183247606,0.03554292768239975,-0.7223790287971497,-0.690583348274231,0,0,0,-1,-1,3298.778609,walking,2,2022-05-12T10:40:32.398+02:00,2022-05-11T22:15:20.957+02:00,914,0.8930088,0.8197976,1.729005,688.5342,0,0,2022-05-12T10:41:03.043+02:00,674037663.0431966,0,-3.630001,100.9501,1,0.94
2022-05-12T10:41:04.947+02:00,1652344845.000011,53.22887063429163,10.3984035242292,36.81001,1.413575,0.764814,166.4408364120522,26.87362846743479,2.400000095367432,7.999579855010836,-9999,3324.098274791667,-0.006134033203125,-0.747772216796875,-0.6871490478515625,3324.093276791667,2.132242596340895,0.05040525031607729,0.8053987305728575,-0.1917810887098312,-0.1566734313964844,-0.0845416784286499,-0.01435297727584839,-0.02022624015808105,0.007083892822265625,XArbitraryZVertical,0.1691402592609347,0.3541463187420699,0.8098303385466246,0.4360584658296136,0.03490717336535454,-0.7211069464683533,-0.6919439435005188,0,0,0,-1,-1,3298.778609,walking,2,2022-05-12T10:40:32.398+02:00,2022-05-11T22:15:20.957+02:00,914,0.8930088,0.8197976,1.729005,688.5342,0,0,2022-05-12T10:41:03.043+02:00,674037663.0431966,0,-3.630001,100.9501,1,0.94
2022-05-12T10:41:04.962+02:00,1652344845.000011,53.22887063429163,10.3984035242292,36.81001,1.413575,0.764814,166.4408364120522,26.87362846743479,2.400000095367432,7.999579855010836,-9999,3324.108269791667,0.0248565673828125,-0.7185516357421875,-0.7040252685546875,3324.103271791667,2.131051033891031,0.05006932093209084,0.8035209806156209,-0.1792032420635223,-0.104431539773941,-0.08720563352108002,-0.0408758819103241,-0.02796769142150879,0.006157815456390381,XArbitraryZVertical,0.169061083952235,0.3532208935292154,0.8098529604916543,0.4367970259506384,0.03474243357777596,-0.7198047041893005,-0.6933066844940186,0,0,0,-1,-1,3298.778609,walking,2,2022-05-12T10:40:32.398+02:00,2022-05-11T22:15:20.957+02:00,914,0.8930088,0.8197976,1.729005,688.5342,0,0,2022-05-12T10:41:03.043+02:00,674037663.0431966,0,-3.630001,100.9501,1,0.94
2022-05-12T10:41:04.966+02:00,1652344845.000011,53.22887063429163,10.3984035242292,36.81001,1.413575,0.764814,166.4408364120522,26.87362846743479,2.400000095367432,7.999579855010836,-9999,3324.118264791667,0.0274658203125,-0.7236480712890625,-0.6999359130859375,3324.113266791667,2.129695473781614,0.04998730743555009,0.8020777180956071,-0.1443782150745392,-0.1128406003117561,-0.1220100969076157,-0.009880304336547852,0.0002502202987670898,-0.00967860221862793,XArbitraryZVertical,0.1690056668241411,0.3525107910988259,0.8097883201437074,0.4375115393473049,0.03473744913935661,-0.7188020944595337,-0.6943464279174805,0,0,0,-1,-1,3298.778609,walking,2,2022-05-12T10:40:32.398+02:00,2022-05-11T22:15:20.957+02:00,914,0.8930088,0.8197976,1.729005,688.5342,0,0,2022-05-12T10:41:03.043+02:00,674037663.0431966,0,-3.630001,100.9501,1,0.94
2022-05-12T10:41:04.976+02:00,1652344845.000011,53.22887063429163,10.3984035242292,36.81001,1.413575,0.764814,166.4408364120522,26.87362846743479,2.400000095367432,7.999579855010836,-9999,3324.128259791667,0.0213623046875,-0.7018585205078125,-0.6974029541015625,3324.123261791667,2.127921660613549,0.05009874736284348,0.800902176384451,-0.1251344829797745,-0.1227012202143669,-0.1437614560127258,-0.007390707731246948,-0.005663871765136719,-0.004749715328216553,XArbitraryZVertical,0.1690054983088558,0.3519149530910375,0.8096032233385327,0.4383330482552592,0.03485711663961411,-0.7179843783378601,-0.6951860189437866,0,0,0,-1,-1,3298.778609,walking,2,2022-05-12T10:40:32.398+02:00,2022-05-11T22:15:20.957+02:00,914,0.8930088,0.8197976,1.729005,688.5342,0,0,2022-05-12T10:41:03.043+02:00,674037663.0431966,0,-3.630001,100.9501,1,0.94
2022-05-12T10:41:04.986+02:00,1652344845.000011,53.22887063429163,10.3984035242292,36.81001,1.413575,0.764814,166.4408364120522,26.87362846743479,2.400000095367432,7.999579855010836,-9999,3324.138254791667,0.0213775634765625,-0.67889404296875,-0.697052001953125,3324.133256791667,2.125835689920635,0.0503153004132004,0.7997542110556933,-0.1302335262298584,-0.1364416033029556,-0.1569453775882721,-0.01368618011474609,0.01532614231109619,-0.001401662826538086,XArbitraryZVertical,0.1690228978992363,0.3513270730241084,0.8093527447036978,0.4392593151287083,0.03504908457398415,-0.717184841632843,-0.6960011124610901,0,0,0,-1,-1,3298.778609,walking,2,2022-05-12T10:40:32.398+02:00,2022-05-11T22:15:20.957+02:00,914,0.8930088,0.8197976,1.729005,688.5342,0,0,2022-05-12T10:41:03.043+02:00,674037663.0431966,0,-3.630001,100.9501,1,0.94
2022-05-12T10:41:04.996+02:00,1652344845.000011,53.22887063429163,10.3984035242292,36.81001,1.413575,0.764814,166.4408364120522,26.87362846743479,2.400000095367432,7.999579855010836,-9999,3324.148249791667,0.0383758544921875,-0.683563232421875,-0.6915435791015625,3324.143251791667,2.123553730458779,0.05025817864500803,0.798405806039607,-0.1623571068048477,-0.2043887078762054,-0.1814661622047424,-0.01367971301078796,0.03735029697418213,-8.344650268554688e-05,XArbitraryZVertical,0.1691384282929763,0.350582377290377,0.809067582555264,0.4403340586754696,0.03505788370966911,-0.7162445187568665,-0.6969683766365051,0,0,0,-1,-1,3298.778609,walking,2,2022-05-12T10:40:32.398+02:00,2022-05-11T22:15:20.957+02:00,914,0.8930088,0.8197976,1.729005,688.5342,0,0,2022-05-12T10:41:03.043+02:00,674037663.0431966,0,-3.630001,100.9501,1,0.94
2022-05-12T10:41:05.006+02:00,1652344845.000011,53.22887063429163,10.3984035242292,36.81001,1.413575,0.764814,166.4408364120522,26.87362846743479,2.400000095367432,7.999579855010836,-9999,3324.158244791667,-0.006072998046875,-0.6981201171875,-0.6894683837890625,3324.153246791667,2.120400489148427,0.05006002633704741,0.7963958484141964,-0.2760022580623627,-0.306227833032608,-0.3241163790225983,0.003384735435247421,0.03127700090408325,0.006868302822113037,XArbitraryZVertical,0.169310047388439,0.3494685522912116,0.8086844495013895,0.4418545597472422,0.03499174118041992,-0.7148404121398926,-0.6984117031097412,0,0,0,-1,-1,3298.778609,walking,2,2022-05-12T10:40:32.398+02:00,2022-05-11T22:15:20.957+02:00,914,0.8930088,0.8197976,1.729005,688.5342,0,0,2022-05-12T10:41:03.043+02:00,674037663.0431966,0,-3.630001,100.9501,1,0.94
2022-05-12T10:41:05.016+02:00,1652344845.000011,53.22887063429163,10.3984035242292,36.81001,1.413575,0.764814,166.4408364120522,26.87362846743479,2.400000095367432,7.999579855010836,-9999,3324.168239791667,0.035919189453125,-0.693695068359375,-0.7030792236328125,3324.163241791667,2.116373811072865,0.05022032806513099,0.7933425293815302,-0.3156364858150482,-0.2934550344944,-0.2649002075195312,-0.04128548875451088,0.01458168029785156,0.01111447811126709,XArbitraryZVertical,0.1692454408905524,0.3479434749031078,0.8083042542097821,0.4437742627168736,0.03521309792995453,-0.7127019166946411,-0.7005826234817505,0,0,0,-1,-1,3298.778609,walking,2,2022-05-12T10:40:32.398+02:00,2022-05-11T22:15:20.957+02:00,914,0.8930088,0.8197976,1.729005,688.5342,0,0,2022-05-12T10:41:03.043+02:00,674037663.0431966,0,-3.630001,100.9501,1,0.94
2022-05-12T10:41:05.026+02:00,1652344845.000011,53.22887063429163,10.3984035242292,36.81001,1.413575,0.764814,166.4408364120522,26.87362846743479,2.400000095367432,7.999579855010836,-9999,3324.178234791667,-0.041229248046875,-0.743682861328125,-0.7328643798828125,3324.173236791667,2.112769821271305,0.04975804553289048,0.7899176645899925,-0.3391533195972443,-0.2701317667961121,-0.2580834329128265,0.0009093880653381348,0.01660007238388062,-4.637241363525391e-05,XArbitraryZVertical,0.1692673463256199,0.3461679127024924,0.8080193061871009,0.4456695535203667,0.03501043096184731,-0.7102953195571899,-0.7030326724052429,0,0,0,-1,-1,3298.778609,walking,2,2022-05-12T10:40:32.398+02:00,2022-05-11T22:15:20.957+02:00,914,0.8930088,0.8197976,1.729005,688.5342,0,0,2022-05-12T10:41:03.043+02:00,674037663.0431966,0,-3.630001,100.9501,1,0.94
2022-05-12T10:41:05.038+02:00,1652344845.000011,53.22887063429163,10.3984035242292,36.81001,1.413575,0.764814,166.4408364120522,26.87362846743479,2.400000095367432,7.999579855010836,-9999,3324.188229791667,-0.1555023193359375,-0.7754669189453125,-0.7475738525390625,3324.183231791667,2.110752334783025,0.05036137753571814,0.7866094274346129,-0.3046379387378693,0.1061404123902321,-0.05025621503591537,-0.07678130269050598,-0.03572022914886475,-0.02750986814498901,XArbitraryZVertical,0.1686063287401535,0.3448111634282486,0.808153938915893,0.4467262782609056,0.03555267676711082,-0.7079627513885498,-0.7053543329238892,0,0,0,-1,-1,3298.778609,walking,2,2022-05-12T10:40:32.398+02:00,2022-05-11T22:15:20.957+02:00,914,0.8930088,0.8197976,1.729005,688.5342,0,0,2022-05-12T10:41:03.043+02:00,674037663.0431966,0,-3.630001,100.9501,1,0.94
2022-05-12T10:41:05.048+02:00,1652344845.000011,53.22887063429163,10.3984035242292,36.81001,1.413575,0.764814,166.4408364120522,26.87362846743479,2.400000095367432,7.999579855010836,-9999,3324.198224791667,-0.0305633544921875,-0.6947021484375,-0.7185821533203125,3324.193226791667,2.11101372545586,0.05244668563807503,0.7833903076182686,-0.3154474496841431,0.3020005524158478,0.02288557589054108,-0.192644476890564,-0.06978154182434082,-0.04002273082733154,XArbitraryZVertical,0.1669718542982209,0.3440129578717329,0.8089039984286714,0.4465982447105955,0.03714276477694511,-0.7056856155395508,-0.7075509428977966,0,0,0,-1,-1,3298.778609,walking,2,2022-05-12T10:40:32.398+02:00,2022-05-11T22:15:20.957+02:00,914,0.8930088,0.8197976,1.729005,688.5342,0,0,2022-05-12T10:41:03.043+02:00,674037663.0431966,0,-3.630001,100.9501,1,0.94
2022-05-12T10:41:05.056+02:00,1652344845.000011,53.22887063429163,10.3984035242292,36.81001,1.413575,0.764814,166.4408364120522,26.87362846743479,2.400000095367432,7.999579855010836,-9999,3324.208219791667,0.0721435546875,-0.736083984375,-0.690673828125,3324.203221791667,2.110521531196969,0.05535627720244402,0.7804643094572116,-0.2347030490636826,0.1759946495294571,-0.1181719452142715,-0.06987810134887695,0.008907139301300049,-0.009083449840545654,XArbitraryZVertical,0.1651996829349786,0.3434528073472971,0.8095026081375125,0.4466035830055842,0.0393153615295887,-0.7036094069480896,-0.7094984650611877,0,0,0,-1,-1,3298.778609,walking,2,2022-05-12T10:40:32.398+02:00,2022-05-11T22:15:20.957+02:00,914,0.8930088,0.8197976,1.729005,688.5342,0,0,2022-05-12T10:41:03.043+02:00,674037663.0431966,0,-3.630001,100.9501,1,0.94
2022-05-12T10:41:05.066+02:00,1652344845.000011,53.22887063429163,10.3984035242292,36.81001,1.413575,0.764814,166.4408364120522,26.87362846743479,2.400000095367432,7.999579855010836,-9999,3324.218213791667,0.020111083984375,-0.7357330322265625,-0.6739044189453125,3324.213216791667,2.108176176511356,0.05775660376830599,0.7788354429287072,-0.08543233573436737,-0.004027038812637329,-0.2126875370740891,0.03105980157852173,-0.03363311290740967,0.01987171173095703,XArbitraryZVertical,0.1642515498081109,0.3431453558264427,0.8094348082881879,0.4473122252526812,0.04108438268303871,-0.7024510502815247,-0.7105453610420227,0,0,0,-1,-1,3298.778609,walking,2,2022-05-12T10:40:32.398+02:00,2022-05-11T22:15:20.957+02:00,914,0.8930088,0.8197976,1.729005,688.5342,0,0,2022-05-12T10:41:03.043+02:00,674037663.0431966,0,-3.630001,100.9501,1,0.94
2022-05-12T10:41:05.076+02:00,1652344845.000011,53.22887063429163,10.3984035242292,36.81001,1.413575,0.764814,166.4408364120522,26.87362846743479,2.400000095367432,7.999579855010836,-9999,3324.228208791667,-0.0545806884765625,-0.6961669921875,-0.67718505859375,3324.223211791667,2.105351933353272,0.0595859819887328,0.7781458935164991,-0.02209144830703735,-0.004979651421308517,-0.2000806629657745,-0.0223013199865818,-0.03377306461334229,0.0370481014251709,XArbitraryZVertical,0.1638347682215974,0.3430481226632022,0.8090615428380031,0.4482138209592326,0.04241300001740456,-0.7019600868225098,-0.7109522819519043,0,0,0,-1,-1,3298.778609,walking,2,2022-05-12T10:40:32.398+02:00,2022-05-11T22:15:20.957+02:00,914,0.8930088,0.8197976,1.729005,688.5342,0,0,2022-05-12T10:41:03.043+02:00,674037663.0431966,0,-3.630001,100.9501,1,0.94
2022-05-12T10:41:05.086+02:00,1652344845.000011,53.22887063429163,10.3984035242292,36.81001,1.413575,0.764814,166.4408364120522,26.87362846743479,2.400000095367432,7.999579855010836,-9999,3324.238203791667,-0.025360107421875,-0.789764404296875,-0.6569976806640625,3324.233206791667,2.10121289724898,0.06266954107107256,0.7776544111080311,-0.04040301218628883,0.015664242208004,-0.3968868255615234,-0.09920674562454224,0.005442798137664795,0.03397750854492188,XArbitraryZVertical,0.1631827161463111,0.3432057488416098,0.8084622690716287,0.4494108865065836,0.04462666064500809,-0.7016099691390991,-0.7111624479293823,0,0,0,-1,-1,3298.778609,walking,2,2022-05-12T10:40:32.398+02:00,2022-05-11T22:15:20.957+02:00,914,0.8930088,0.8197976,1.729005,688.5342,0,0,2022-05-12T10:41:03.043+02:00,674037663.0431966,0,-3.630001,100.9501,1,0.94
2022-05-12T10:41:05.096+02:00,1652344845.000011,53.22887063429163,10.3984035242292,36.81001,1.413575,0.764814,166.4408364120522,26.87362846743479,2.400000095367432,7.999579855010836,-9999,3324.248198791667,0.016998291015625,-0.7772674560546875,-0.6555633544921875,3324.243201791667,2.096031305849615,0.06655803418335221,0.776912570728725,-0.05804672092199326,-0.001194899901747704,-0.3756811320781708,-0.07278576493263245,-0.08868342638015747,0.05450516939163208,XArbitraryZVertical,0.1623261157100051,0.3433640814779514,0.8077287191882715,0.4509167098017857,0.04742627218365669,-0.7010811567306519,-0.7115026712417603,0,0,0,-1,-1,3298.778609,walking,2,2022-05-12T10:40:32.398+02:00,2022-05-11T22:15:20.957+02:00,914,0.8930088,0.8197976,1.729005,688.5342,0,0,2022-05-12T10:41:03.043+02:00,674037663.0431966,0,-3.630001,100.9501,1,0.94
2022-05-12T10:41:05.106+02:00,1652344845.000011,53.22887063429163,10.3984035242292,36.81001,1.413575,0.764814,166.4408364120522,26.87362846743479,2.400000095367432,7.999579855010836,-9999,3324.258193791667,0.00494384765625,-0.76885986328125,-0.66473388671875,3324.253196791667,2.090595365994683,0.07046855296856022,0.7759151972278615,-0.0669931173324585,-0.004033629782497883,-0.4072253704071045,-0.03325855731964111,-0.07689797878265381,0.05644571781158447,XArbitraryZVertical,0.1614443668207457,0.3434112503533892,0.806972822929903,0.4525476143871264,0.05025745183229446,-0.7003695964813232,-0.7120088338851929,0,0,0,-1,-1,3298.778609,walking,2,2022-05-12T10:40:32.398+02:00,2022-05-11T22:15:20.957+02:00,914,0.8930088,0.8197976,1.729005,688.5342,0,0,2022-05-12T10:41:03.043+02:00,674037663.0431966,0,-3.630001,100.9501,1,0.94
2022-05-12T10:41:05.116+02:00,1652344845.000011,53.22887063429163,10.3984035242292,36.81001,1.413575,0.764814,166.4408364120522,26.87362846743479,2.400000095367432,7.999579855010836,-9999,3324.268188791667,-0.018096923828125,-0.7895050048828125,-0.7059173583984375,3324.263191791667,2.084559326407977,0.07465959617460163,0.7746146376712365,-0.1079852879047394,0.007169756107032299,-0.4440726041793823,-0.04836452007293701,-0.06941932439804077,0.04796600341796875,XArbitraryZVertical,0.1604802484379343,0.343360217012202,0.8061428477650119,0.454404662135737,0.05330895632505417,-0.6994407176971436,-0.7126997113227844,0,0,0,-1,-1,3298.778609,walking,2,2022-05-12T10:40:32.398+02:00,2022-05-11T22:15:20.957+02:00,914,0.8930088,0.8197976,1.729005,688.5342,0,0,2022-05-12T10:41:03.043+02:00,674037663.0431966,0,-3.630001,100.9501,1,0.94
2022-05-12T10:41:05.126+02:00,1652344845.000011,53.22887063429163,10.3984035242292,36.81001,1.413575,0.764814,166.4408364120522,26.87362846743479,2.400000095367432,7.999579855010836,-9999,3324.278183791667,-0.0049285888671875,-0.7564697265625,-0.7323760986328125,3324.273186791667,2.078758757203583,0.07909076194126075,0.7730535403640949,-0.1432582587003708,0.05199515074491501,-0.4122080504894257,-0.07464903593063354,-0.09118098020553589,0.007626950740814209,XArbitraryZVertical,0.1593158146738204,0.3432876578860298,0.8054165800691593,0.4561537613791978,0.0565527155995369,-0.6983241438865662,-0.7135441303253174,0,0,0,-1,-1,3298.778609,walking,2,2022-05-12T10:40:32.398+02:00,2022-05-11T22:15:20.957+02:00,914,0.8930088,0.8197976,1.729005,688.5342,0,0,2022-05-12T10:41:03.043+02:00,674037663.0431966,0,-3.630001,100.9501,1,0.94
2022-05-12T10:41:05.136+02:00,1652344845.000011,53.22887063429163,10.3984035242292,36.81001,1.413575,0.764814,166.4408364120522,26.87362846743479,2.400000095367432,7.999579855010836,-9999,3324.288178791667,0.0152740478515625,-0.75177001953125,-0.7565765380859375,3324.283181791667,2.072963302749872,0.08360337245285346,0.770816861608021,-0.2092708200216293,0.02194564044475555,-0.4395869374275208,-0.06483033299446106,-0.05974841117858887,-0.0175396203994751,XArbitraryZVertical,0.157952907594194,0.3429762842909865,0.8047909872183893,0.457962431091023,0.05990235134959221,-0.6967214345932007,-0.7148362994194031,0,0,0,-1,-1,3298.778609,walking,2,2022-05-12T10:40:32.398+02:00,2022-05-11T22:15:20.957+02:00,914,0.8930088,0.8197976,1.729005,688.5342,0,0,2022-05-12T10:41:03.043+02:00,674037663.0431966,0,-3.630001,100.9501,1,0.94
2022-05-12T10:41:05.146+02:00,1652344845.000011,53.22887063429163,10.3984035242292,36.81001,1.413575,0.764814,166.4408364120522,26.87362846743479,2.400000095367432,7.999579855010836,-9999,3324.298173791667,0.00830078125,-0.7414703369140625,-0.774261474609375,3324.293176791667,2.067130420368463,0.08781146925159239,0.7680630297486262,-0.2587706744670868,0.008243809454143047,-0.4411135613918304,-0.04780328273773193,-0.05702680349349976,-0.04008984565734863,XArbitraryZVertical,0.1565896840376682,0.3423980010650318,0.8041995533469321,0.4598985042555812,0.06307794898748398,-0.6947433352470398,-0.7164865732192993,0,0,0,-1,-1,3298.778609,walking,2,2022-05-12T10:40:32.398+02:00,2022-05-11T22:15:20.957+02:00,914,0.8930088,0.8197976,1.729005,688.5342,0,0,2022-05-12T10:41:03.043+02:00,674037663.0431966,0,-3.630001,100.9501,1,0.94
2022-05-12T10:41:05.156+02:00,1652344845.000011,53.22887063429163,10.3984035242292,36.81001,1.413575,0.764814,166.4408364120522,26.87362846743479,2.400000095367432,7.999579855010836,-9999,3324.308168791667,0.0151214599609375,-0.72760009765625,-0.779266357421875,3324.303171791667,2.061120953648373,0.09212972609424822,0.7648840238333681,-0.2740553617477417,0.004635225981473923,-0.4684788882732391,-0.0580727756023407,-0.04901713132858276,-0.05585825443267822,XArbitraryZVertical,0.1551031297252241,0.3416745454508944,0.8036267205267646,0.4619369773618711,0.06637417525053024,-0.6924533247947693,-0.7184030413627625,0,0,0,-1,-1,3298.778609,walking,2,2022-05-12T10:40:32.398+02:00,2022-05-11T22:15:20.957+02:00,914,0.8930088,0.8197976,1.729005,688.5342,0,0,2022-05-12T10:41:03.043+02:00,674037663.0431966,0,-3.630001,100.9501,1,0.94
2022-05-12T10:41:05.166+02:00,1652344845.000011,53.22887063429163,10.3984035242292,36.81001,1.413575,0.764814,166.4408364120522,26.87362846743479,2.400000095367432,7.999579855010836,-9999,3324.318163791667,0.00860595703125,-0.704498291015625,-0.77197265625,3324.313166791667,2.054989216081345,0.09642057401706394,0.7616770732300109,-0.2677850723266602,0.006525536999106407,-0.4704919755458832,-0.05454748868942261,-0.03746414184570312,-0.05894792079925537,XArbitraryZVertical,0.1536354558375997,0.3409354742068512,0.803013418711787,0.4640353250684815,0.06966954469680786,-0.6901360750198364,-0.7203183174133301,0,0,0,-1,-1,3298.778609,walking,2,2022-05-12T10:40:32.398+02:00,2022-05-11T22:15:20.957+02:00,914,0.8930088,0.8197976,1.729005,688.5342,0,0,2022-05-12T10:41:03.043+02:00,674037663.0431966,0,-3.630001,100.9501,1,0.94
2022-05-12T10:41:05.176+02:00,1652344845.000011,53.22887063429163,10.3984035242292,36.81001,1.413575,0.764814,166.4408364120522,26.87362846743479,2.400000095367432,7.999579855010836,-9999,3324.328158791667,0.01116943359375,-0.698150634765625,-0.759490966796875,3324.323161791667,2.048840350072647,0.1007614445775384,0.7585448136577794,-0.2488689124584198,0.007850726135075092,-0.4733639061450958,-0.06440618634223938,-0.01663249731063843,-0.04981619119644165,XArbitraryZVertical,0.1521630412104762,0.3402473647280115,0.8023745461590231,0.4661259848700673,0.07301277667284012,-0.6878659725189209,-0.722156286239624,0,0,0,-1,-1,3298.778609,walking,2,2022-05-12T10:40:32.398+02:00,2022-05-11T22:15:20.957+02:00,914,0.8930088,0.8197976,1.729005,688.5342,0,0,2022-05-12T10:41:03.043+02:00,674037663.0431966,0,-3.630001,100.9501,1,0.94
2022-05-12T10:41:05.186+02:00,1652344845.000011,53.22887063429163,10.3984035242292,36.81001,1.413575,0.764814,166.4408364120522,26.87362846743479,2.400000095367432,7.999579855010836,-9999,3324.338153791667,0.0136566162109375,-0.6926116943359375,-0.747772216796875,3324.333156791667,2.042542873835362,0.1051847188958001,0.755713407978148,-0.2121894061565399,0.006792186293751001,-0.4883008897304535,-0.06524047255516052,-0.01234275102615356,-0.03573060035705566,XArbitraryZVertical,0.1507524009557196,0.3396963485496436,0.8016492473745189,0.4682293739834936,0.07641051709651947,-0.6858080625534058,-0.723760187625885,0,0,0,-1,-1,3298.778609,walking,2,2022-05-12T10:40:32.398+02:00,2022-05-11T22:15:20.957+02:00,914,0.8930088,0.8197976,1.729005,688.5342,0,0,2022-05-12T10:41:03.043+02:00,674037663.0431966,0,-3.630001,100.9501,1,0.94
2022-05-12T10:41:05.196+02:00,1652344845.000011,53.22887063429163,10.3984035242292,36.81001,1.413575,0.764814,166.4408364120522,26.87362846743479,2.400000095367432,7.999579855010836,-9999,3324.348148791667,0.0145416259765625,-0.680450439453125,-0.7348785400390625,3324.343151791667,2.036130086843735,0.1097059836815647,0.7531908223674639,-0.1796687543392181,0.01609567366540432,-0.4893794655799866,-0.0662139505147934,-0.008641839027404785,-0.0226474404335022,XArbitraryZVertical,0.1493952049378396,0.3392915746340471,0.8008460450513361,0.4703274914396663,0.07987119257450104,-0.6839699745178223,-0.7251245975494385,0,0,0,-1,-1,3298.778609,walking,2,2022-05-12T10:40:32.398+02:00,2022-05-11T22:15:20.957+02:00,914,0.8930088,0.8197976,1.729005,688.5342,0,0,2022-05-12T10:41:03.043+02:00,674037663.0431966,0,-3.630001,100.9501,1,0.94
2022-05-12T10:41:05.206+02:00,1652344845.000011,53.22887063429163,10.3984035242292,36.81001,1.413575,0.764814,166.4408364120522,26.87362846743479,2.400000095367432,7.999579855010836,-9999,3324.358143791667,0.01629638671875,-0.6768646240234375,-0.72845458984375,3324.353146791667,2.029713716652127,0.1143581905730088,0.7510020516706942,-0.142246887087822,0.03488760441541672,-0.4891732037067413,-0.06887213885784149,0.00192105770111084,-0.008647680282592773,XArbitraryZVertical,0.1480673867063501,0.3390585229543285,0.7999910437035356,0.4723661554945544,0.08341437578201294,-0.6823716163635254,-0.7262307405471802,0,0,0,-1,-1,3298.778609,walking,2,2022-05-12T10:40:32.398+02:00,2022-05-11T22:15:20.957+02:00,914,0.8930088,0.8197976,1.729005,688.5342,0,0,2022-05-12T10:41:03.043+02:00,674037663.0431966,0,-3.630001,100.9501,1,0.94
2022-05-12T10:41:05.216+02:00,1652344845.000011,53.22887063429163,10.3984035242292,36.81001,1.413575,0.764814,166.4408364120522,26.87362846743479,2.400000095367432,7.999579855010836,-9999,3324.368138791667,0.0243377685546875,-0.671600341796875,-0.722900390625,3324.363141791667,2.023208816567662,0.1192840028192831,0.7491685101079048,-0.103624127805233,0.0579492449760437,-0.4988889396190643,-0.07084237784147263,0.004165410995483398,-0.001402318477630615,XArbitraryZVertical,0.1467337034964317,0.339032716373016,0.7990726206587995,0.4743511780902694,0.08713936805725098,-0.6810301542282104,-0.7270520925521851,0,0,0,-1,-1,3298.778609,walking,2,2022-05-12T10:40:32.398+02:00,2022-05-11T22:15:20.957+02:00,914,0.8930088,0.8197976,1.729005,688.5342,0,0,2022-05-12T10:41:03.043+02:00,674037663.0431966,0,-3.630001,100.9501,1,0.94
2022-05-12T10:41:05.226+02:00,1652344845.000011,53.22887063429163,10.3984035242292,36.81001,1.413575,0.764814,166.4408364120522,26.87362846743479,2.400000095367432,7.999579855010836,-9999,3324.378133791667,0.04241943359375,-0.6676788330078125,-0.713623046875,3324.373136791667,2.016655192256271,0.1244057683401776,0.7475626230150889,-0.09137195348739624,0.07290269434452057,-0.4929429590702057,-0.06665921211242676,0.008252859115600586,0.004780292510986328,XArbitraryZVertical,0.1453878250848796,0.3391490961517832,0.7981130089617943,0.4762940917694568,0.09099759161472321,-0.6798533201217651,-0.7276805639266968,0,0,0,-1,-1,3298.778609,walking,2,2022-05-12T10:40:32.398+02:00,2022-05-11T22:15:20.957+02:00,914,0.8930088,0.8197976,1.729005,688.5342,0,0,2022-05-12T10:41:03.043+02:00,674037663.0431966,0,-3.630001,100.9501,1,0.94
2022-05-12T10:41:05.236+02:00,1652344845.000011,53.22887063429163,10.3984035242292,36.81001,1.413575,0.764814,166.4408364120522,26.87362846743479,2.400000095367432,7.999579855010836,-9999,3324.388128791667,0.0711669921875,-0.6697998046875,-0.7117767333984375,3324.383131791667,2.010121705133067,0.1296373303357985,0.7459684160879106,-0.09767645597457886,0.07791396230459213,-0.4981494247913361,-0.0525231659412384,0.01100438833236694,0.01464539766311646,XArbitraryZVertical,0.1439979417028217,0.3393087768323364,0.7971524423041801,0.4782072627609241,0.09494321793317795,-0.678683340549469,-0.7282682657241821,0,0,0,-1,-1,3298.778609,walking,2,2022-05-12T10:40:32.398+02:00,2022-05-11T22:15:20.957+02:00,914,0.8930088,0.8197976,1.729005,688.5342,0,0,2022-05-12T10:41:03.043+02:00,674037663.0431966,0,-3.630001,100.9501,1,0.94
2022-05-12T10:41:05.246+02:00,1652344845.000011,53.22887063429163,10.3984035242292,36.81001,1.413575,0.764814,166.4408364120522,26.87362846743479,2.400000095367432,7.999579855010836,-9999,3324.398123791667,0.076812744140625,-0.674957275390625,-0.723358154296875,3324.393126791667,2.003552078087522,0.1347299277007565,0.7441469530084411,-0.125108614563942,0.04977873712778091,-0.5053186416625977,-0.02764904499053955,0.007544577121734619,0.01722264289855957,XArbitraryZVertical,0.1426106856979555,0.3393561624613727,0.7961921168647657,0.4801852537872887,0.0988166406750679,-0.6773445010185242,-0.7289991974830627,0,0,0,-1,-1,3298.778609,walking,2,2022-05-12T10:40:32.398+02:00,2022-05-11T22:15:20.957+02:00,914,0.8930088,0.8197976,1.729005,688.5342,0,0,2022-05-12T10:41:03.043+02:00,674037663.0431966,0,-3.630001,100.9501,1,0.94
2022-05-12T10:41:05.256+02:00,1652344845.000011,53.22887063429163,10.3984035242292,36.81001,1.413575,0.764814,166.4408364120522,26.87362846743479,2.400000095367432,7.999579855010836,-9999,3324.408118791667,0.0572509765625,-0.6813201904296875,-0.736785888671875,3324.403121791667,1.99695646758785,0.1395804240149004,0.7419254388991692,-0.1710571944713593,0.02963165752589703,-0.5180991888046265,-0.02574720978736877,0.0007511377334594727,0.006641626358032227,XArbitraryZVertical,0.141218714627097,0.3392012199060198,0.7952495579533415,0.4822636182627025,0.1025605723261833,-0.675708532333374,-0.7299996018409729,0,0,0,-1,-1,3298.778609,walking,2,2022-05-12T10:40:32.398+02:00,2022-05-11T22:15:20.957+02:00,914,0.8930088,0.8197976,1.729005,688.5342,0,0,2022-05-12T10:41:03.043+02:00,674037663.0431966,0,-3.630001,100.9501,1,0.94
2022-05-12T10:41:05.266+02:00,1652344845.000011,53.22887063429163,10.3984035242292,36.81001,1.413575,0.764814,166.4408364120522,26.87362846743479,2.400000095367432,7.999579855010836,-9999,3324.418113791667,0.036956787109375,-0.697509765625,-0.7426605224609375,3324.413116791667,1.990330308799169,0.1443836200389526,0.7391364194202499,-0.2321732342243195,0.03357373550534248,-0.5289379954338074,-0.04908484220504761,-0.007670402526855469,-0.005425095558166504,XArbitraryZVertical,0.1396989158009664,0.3388272546219526,0.7943580841723624,0.4844332352160566,0.1063364371657372,-0.6736499071121216,-0.7313606142997742,0,0,0,-1,-1,3298.778609,walking,2,2022-05-12T10:40:32.398+02:00,2022-05-11T22:15:20.957+02:00,914,0.8930088,0.8197976,1.729005,688.5342,0,0,2022-05-12T10:41:03.043+02:00,674037663.0431966,0,-3.630001,100.9501,1,0.94
2022-05-12T10:41:05.276+02:00,1652344845.000011,53.22887063429163,10.3984035242292,36.81001,1.413575,0.764814,166.4408364120522,26.87362846743479,2.400000095367432,7.999579855010836,-9999,3324.428108791667,0.02374267578125,-0.70538330078125,-0.7346343994140625,3324.423111791667,1.983711132648269,0.1491824172791222,0.735770175354593,-0.2825197577476501,0.03325948119163513,-0.5381235480308533,-0.07322388142347336,-0.02635151147842407,-0.009580075740814209,XArbitraryZVertical,0.1380225444259588,0.3382449644219193,0.7935284235475913,0.4866752393108386,0.1101812720298767,-0.6711583137512207,-0.733080267906189,0,0,0,-1,-1,3298.778609,walking,2,2022-05-12T10:40:32.398+02:00,2022-05-11T22:15:20.957+02:00,914,0.8930088,0.8197976,1.729005,688.5342,0,0,2022-05-12T10:41:03.043+02:00,674037663.0431966,0,-3.630001,100.9501,1,0.94
2022-05-12T10:41:05.286+02:00,1652344845.000011,53.22887063429163,10.3984035242292,36.81001,1.413575,0.764814,166.4408364120522,26.87362846743479,2.400000095367432,7.999579855010836,-9999,3324.438103791667,-0.001953125,-0.701568603515625,-0.7217864990234375,3324.433106791667,1.977033549308163,0.1539557910069285,0.7318287246282882,-0.3373759984970093,0.02402090653777122,-0.5603215098381042,-0.09034076333045959,-0.03715217113494873,0.0005201101303100586,XArbitraryZVertical,0.136206677535697,0.3374471080608039,0.7927398945797499,0.4890203278278703,0.1140840575098991,-0.6682312488555908,-0.735154390335083,0,0,0,-1,-1,3298.778609,walking,2,2022-05-12T10:40:32.398+02:00,2022-05-11T22:15:20.957+02:00,914,0.8930088,0.8197976,1.729005,688.5342,0,0,2022-05-12T10:41:03.043+02:00,674037663.0431966,0,-3.630001,100.9501,1,0.94
2022-05-12T10:41:05.296+02:00,1652344845.000011,53.22887063429163,10.3984035242292,36.81001,1.413575,0.764814,166.4408364120522,26.87362846743479,2.400000095367432,7.999579855010836,-9999,3324.448098791667,-0.05084228515625,-0.709259033203125,-0.6920928955078125,3324.443101791667,1.970134483360793,0.1587548260649666,0.727165764649123,-0.4160170257091522,0.01746021024882793,-0.600619912147522,-0.1200545877218246,-0.03681379556655884,0.01588082313537598,XArbitraryZVertical,0.1342161207943694,0.3363814405488955,0.7919709832281018,0.4915440803639293,0.118102066218853,-0.6647549867630005,-0.7376671433448792,0,0,0,-1,-1,3298.778609,walking,2,2022-05-12T10:40:32.398+02:00,2022-05-11T22:15:20.957+02:00,914,0.8930088,0.8197976,1.729005,688.5342,0,0,2022-05-12T10:41:03.043+02:00,674037663.0431966,0,-3.630001,100.9501,1,0.94
2022-05-12T10:41:05.306+02:00,1652344845.000011,53.22887063429163,10.3984035242292,36.81001,1.413575,0.764814,166.4408364120522,26.87362846743479,2.400000095367432,7.999579855010836,-9999,3324.458093791667,-0.1034393310546875,-0.7333984375,-0.6710052490234375,3324.453096791667,1.962828318112532,0.1638720058460341,0.7215454547079696,-0.5087128877639771,0.04242248833179474,-0.6622179746627808,-0.1733245104551315,-0.0487133264541626,0.04863476753234863,XArbitraryZVertical,0.1318983619425347,0.3350209842686199,0.7912193673275116,0.494303270397863,0.1224828585982323,-0.6605457663536072,-0.7407275438308716,0,0,0,-1,-1,3298.778609,walking,2,2022-05-12T10:40:32.398+02:00,2022-05-11T22:15:20.957+02:00,914,0.8930088,0.8197976,1.729005,688.5342,0,0,2022-05-12T10:41:03.043+02:00,674037663.0431966,0,-3.630001,100.9501,1,0.94
2022-05-12T10:41:05.316+02:00,1652344845.000011,53.22887063429163,10.3984035242292,36.81001,1.413575,0.764814,166.4408364120522,26.87362846743479,2.400000095367432,7.999579855010836,-9999,3324.468088791667,-0.15008544921875,-0.753814697265625,-0.6559906005859375,3324.463091791667,1.95495208404533,0.1697468106176739,0.714856738505479,-0.6029115915298462,0.09648092836141586,-0.728484570980072,-0.2310145944356918,-0.07788932323455811,0.07332825660705566,XArbitraryZVertical,0.1290708143934022,0.333427750062073,0.7904770601448905,0.4973055276172085,0.1275758892297745,-0.6555092334747314,-0.7443333268165588,0,0,0,-1,-1,3298.778609,walking,2,2022-05-12T10:40:32.398+02:00,2022-05-11T22:15:20.957+02:00,914,0.8930088,0.8197976,1.729005,688.5342,0,0,2022-05-12T10:41:03.043+02:00,674037663.0431966,0,-3.630001,100.9501,1,0.94
2022-05-12T10:41:05.326+02:00,1652344845.000011,53.22887063429163,10.3984035242292,36.81001,1.413575,0.764814,166.4408364120522,26.87362846743479,2.400000095367432,7.999579855010836,-9999,3324.478083791667,-0.192657470703125,-0.774993896484375,-0.64312744140625,3324.473086791667,1.946488072213418,0.1765800204752516,0.7069770674187191,-0.7228099703788757,0.1652464121580124,-0.8085035085678101,-0.2836471199989319,-0.1042764186859131,0.09251552820205688,XArbitraryZVertical,0.1256165035224584,0.3316135346611959,0.7897524656170568,0.5005437288742842,0.1335622668266296,-0.6495383381843567,-0.7485058903694153,0,0,0,-1,-1,3298.778609,walking,2,2022-05-12T10:40:32.398+02:00,2022-05-11T22:15:20.957+02:00,914,0.8930088,0.8197976,1.729005,688.5342,0,0,2022-05-12T10:41:03.043+02:00,674037663.0431966,0,-3.630001,100.9501,1,0.94
2022-05-12T10:41:05.336+02:00,1652344845.000011,53.22887063429163,10.3984035242292,36.81001,1.413575,0.764814,166.4408364120522,26.87362846743479,2.400000095367432,7.999579855010836,-9999,3324.488078791667,-0.2190704345703125,-0.811920166015625,-0.661529541015625,3324.483080791667,1.937405957046684,0.1844330752892853,0.6975330028779038,-0.8762703537940979,0.2324827015399933,-0.8877759575843811,-0.3332117199897766,-0.1326650977134705,0.1103035807609558,XArbitraryZVertical,0.1214042518691478,0.3294626100442546,0.7890660305383655,0.5040736035928597,0.1405548751354218,-0.6423288583755493,-0.7534307837486267,0,0,0,-1,-1,3298.778609,walking,2,2022-05-12T10:40:32.398+02:00,2022-05-11T22:15:20.957+02:00,914,0.8930088,0.8197976,1.729005,688.5342,0,0,2022-05-12T10:41:03.043+02:00,674037663.0431966,0,-3.630001,100.9501,1,0.94
2022-05-12T10:41:05.346+02:00,1652344845.000011,53.22887063429163,10.3984035242292,36.81001,1.413575,0.764814,166.4408364120522,26.87362846743479,2.400000095367432,7.999579855010836,-9999,3324.498073791667,-0.2509613037109375,-0.8449859619140625,-0.6871795654296875,3324.493075791667,1.927835626060779,0.1931836818639984,0.6863706953843549,-1.028746008872986,0.2937358915805817,-0.9813074469566345,-0.3675795197486877,-0.178186297416687,0.09763216972351074,XArbitraryZVertical,0.1164060928097747,0.3269080092007273,0.7884341459944569,0.5078902336753197,0.1485096961259842,-0.6337339282035828,-0.7591615319252014,0,0,0,-1,-1,3298.778609,walking,2,2022-05-12T10:40:32.398+02:00,2022-05-11T22:15:20.957+02:00,914,0.8930088,0.8197976,1.729005,688.5342,0,0,2022-05-12T10:41:03.043+02:00,674037663.0431966,0,-3.630001,100.9501,1,0.94
2022-05-12T10:41:05.356+02:00,1652344845.000011,53.22887063429163,10.3984035242292,36.81001,1.413575,0.764814,166.4408364120522,26.87362846743479,2.400000095367432,7.999579855010836,-9999,3324.508068791667,-0.290283203125,-0.86456298828125,-0.70440673828125,3324.503070791667,1.917496122567477,0.203089344227321,0.6733931457402774,-1.187979102134705,0.3926736414432526,-1.106210589408875,-0.4086285829544067,-0.221343994140625,0.07846510410308838,XArbitraryZVertical,0.1105250557927735,0.3239783381923042,0.7877786144080079,0.5120812412656155,0.1576679050922394,-0.6236420273780823,-0.7656444907188416,0,0,0,-1,-1,3298.778609,walking,2,2022-05-12T10:40:32.398+02:00,2022-05-11T22:15:20.957+02:00,914,0.8930088,0.8197976,1.729005,688.5342,0,0,2022-05-12T10:41:03.043+02:00,674037663.0431966,0,-3.630001,100.9501,1,0.94
2022-05-12T10:41:05.366+02:00,1652344845.000011,53.22887063429163,10.3984035242292,36.81001,1.413575,0.764814,166.4408364120522,26.87362846743479,2.400000095367432,7.999579855010836,-9999,3324.518063791667,-0.302276611328125,-0.8839874267578125,-0.7285614013671875,3324.513065791667,1.906273423330759,0.2146671516590165,0.6587252984761964,-1.300992369651794,0.5397053360939026,-1.226019024848938,-0.4587348401546478,-0.2524536848068237,0.06821626424789429,XArbitraryZVertical,0.1035955359089586,0.320868437535589,0.7870432264873383,0.5165989450130626,0.168452262878418,-0.612109363079071,-0.77262282371521,0,0,0,-1,-1,3298.778609,walking,2,2022-05-12T10:40:32.398+02:00,2022-05-11T22:15:20.957+02:00,914,0.8930088,0.8197976,1.729005,688.5342,0,0,2022-05-12T10:41:03.043+02:00,674037663.0431966,0,-3.630001,100.9501,1,0.94
2022-05-12T10:41:05.376+02:00,1652344845.000011,53.22887063429163,10.3984035242292,36.81001,1.413575,0.764814,166.4408364120522,26.87362846743479,2.400000095367432,7.999579855010836,-9999,3324.528058791667,-0.2841949462890625,-0.8832244873046875,-0.751617431640625,3324.523060791667,1.894093241010943,0.2280215715469907,0.6428384431079863,-1.361687660217285,0.6549397706985474,-1.371865749359131,-0.4832064211368561,-0.284517765045166,0.05111837387084961,XArbitraryZVertical,0.09570917310957164,0.3178048981830983,0.7861174733603664,0.5214012688003754,0.1809304505586624,-0.5994697213172913,-0.7796795964241028,0,0,0,-1,-1,3298.778609,walking,2,2022-05-12T10:40:32.398+02:00,2022-05-11T22:15:20.957+02:00,914,0.8930088,0.8197976,1.729005,688.5342,0,0,2022-05-12T10:41:03.043+02:00,674037663.0431966,0,-3.630001,100.9501,1,0.94
2022-05-12T10:41:05.386+02:00,1652344845.000011,53.22887063429163,10.3984035242292,36.81001,1.413575,0.764814,166.4408364120522,26.87362846743479,2.400000095367432,7.999579855010836,-9999,3324.538053791667,-0.216094970703125,-0.8637847900390625,-0.775299072265625,3324.533055791667,1.879916927635785,0.2429711080213583,0.6258220207607438,-1.402172446250916,0.6306470036506653,-1.660167098045349,-0.4791861772537231,-0.2974608540534973,0.03505873680114746,XArbitraryZVertical,0.08711589829360708,0.3147583455664451,0.7846615077725778,0.5269198244599295,0.1949918419122696,-0.585763692855835,-0.7866759896278381,0,0,0,-1,-1,3298.778609,walking,2,2022-05-12T10:40:32.398+02:00,2022-05-11T22:15:20.957+02:00,914,0.8930088,0.8197976,1.729005,688.5342,0,0,2022-05-12T10:41:03.043+02:00,674037663.0431966,0,-3.630001,100.9501,1,0.94
2022-05-12T10:41:05.396+02:00,1652344845.000011,53.22887063429163,10.3984035242292,36.81001,1.413575,0.764814,166.4408364120522,26.87362846743479,2.400000095367432,7.999579855010836,-9999,3324.548048791667,-0.2781524658203125,-0.8538360595703125,-0.7970123291015625,3324.543050791667,1.863364011539568,0.2589654678367833,0.6078491790895609,-1.396241664886475,0.6783894896507263,-1.861111044883728,-0.4263053834438324,-0.2926816344261169,0.01820755004882812,XArbitraryZVertical,0.07812790040480037,0.3116774137216782,0.7824778090855322,0.5333683627772364,0.2102110534906387,-0.5711032152175903,-0.7935064435005188,0,0,0,-1,-1,3298.778609,walking,2,2022-05-12T10:40:32.398+02:00,2022-05-11T22:15:20.957+02:00,914,0.8930088,0.8197976,1.729005,688.5342,0,0,2022-05-12T10:41:03.043+02:00,674037663.0431966,0,-3.630001,100.9501,1,0.94
2022-05-12T10:41:05.406+02:00,1652344845.000011,53.22887063429163,10.3984035242292,36.81001,1.413575,0.764814,166.4408364120522,26.87362846743479,2.400000095367432,7.999579855010836,-9999,3324.558043791667,-0.276947021484375,-0.8359832763671875,-0.795928955078125,3324.553045791667,1.844334169514117,0.276895423334938,0.5890663765483619,-1.397365212440491,0.7578456997871399,-2.175816535949707,-0.505448579788208,-0.2982510924339294,0.00277632474899292,XArbitraryZVertical,0.06844388578319043,0.3089032369888729,0.7795001511426325,0.540623564503945,0.2272966951131821,-0.5555849671363831,-0.7997884750366211,0,0,0,-1,-1,3298.778609,walking,2,2022-05-12T10:40:32.398+02:00,2022-05-11T22:15:20.957+02:00,914,0.8930088,0.8197976,1.729005,688.5342,0,0,2022-05-12T10:41:03.043+02:00,674037663.0431966,0,-3.630001,100.9501,1,0.94
2022-05-12T10:41:05.416+02:00,1652344845.000011,53.22887063429163,10.3984035242292,36.81001,1.413575,0.764814,166.4408364120522,26.87362846743479,2.400000095367432,7.999579855010836,-9999,3324.568038791667,-0.2536468505859375,-0.8173980712890625,-0.812713623046875,3324.563040791667,1.822274974840942,0.2971544095708608,0.5692871704790056,-1.351201415061951,0.8889265060424805,-2.490604639053345,-0.5235680341720581,-0.2969515323638916,0.009442329406738281,XArbitraryZVertical,0.05793335362152143,0.3065259915553497,0.7755252298611797,0.5488591262307861,0.2466216236352921,-0.5390318036079407,-0.805371105670929,0,0,0,-1,-1,3298.778609,walking,2,2022-05-12T10:40:32.398+02:00,2022-05-11T22:15:20.957+02:00,914,0.8930088,0.8197976,1.729005,688.5342,0,0,2022-05-12T10:41:03.043+02:00,674037663.0431966,0,-3.630001,100.9501,1,0.94
2022-05-12T10:41:05.426+02:00,1652344845.000011,53.22887063429163,10.3984035242292,36.81001,1.413575,0.764814,166.4408364120522,26.87362846743479,2.400000095367432,7.999579855010836,-9999,3324.578033791667,-0.2189178466796875,-0.8192901611328125,-0.830322265625,3324.573035791667,1.797241419070831,0.320116790064942,0.5484170654460863,-1.321648597717285,1.064935922622681,-2.828553199768066,-0.5221765041351318,-0.2960609793663025,-0.002713859081268311,XArbitraryZVertical,0.04641233478403727,0.3047066617121023,0.7704809201559396,0.5579954787906919,0.2685302495956421,-0.52133709192276,-0.8099994659423828,0,0,0,-1,-1,3298.778609,walking,2,2022-05-12T10:40:32.398+02:00,2022-05-11T22:15:20.957+02:00,914,0.8930088,0.8197976,1.729005,688.5342,0,0,2022-05-12T10:41:03.043+02:00,674037663.0431966,0,-3.630001,100.9501,1,0.94
2022-05-12T10:41:05.436+02:00,1652344845.000011,53.22887063429163,10.3984035242292,36.81001,1.413575,0.764814,166.4408364120522,26.87362846743479,2.400000095367432,7.999579855010836,-9999,3324.588028791667,-0.17059326171875,-0.816558837890625,-0.8520355224609375,3324.583030791667,1.769305934182517,0.3458672787897252,0.5264740050548941,-1.261316180229187,1.235875725746155,-3.143469333648682,-0.5120222568511963,-0.3168021440505981,-0.01693695783615112,XArbitraryZVertical,0.03385154271568569,0.3035811745868199,0.7642680966660735,0.5679672997232348,0.2931050658226013,-0.5024879574775696,-0.8133850693702698,0,0,0,-1,-1,3298.778609,walking,2,2022-05-12T10:40:32.398+02:00,2022-05-11T22:15:20.957+02:00,914,0.8930088,0.8197976,1.729005,688.5342,0,0,2022-05-12T10:41:03.043+02:00,674037663.0431966,0,-3.630001,100.9501,1,0.94
2022-05-12T10:41:05.446+02:00,1652344845.000011,53.22887063429163,10.3984035242292,36.81001,1.413575,0.764814,166.4408364120522,26.87362846743479,2.400000095367432,7.999579855010836,-9999,3324.598023791667,-0.1063995361328125,-0.824920654296875,-0.8850860595703125,3324.593025791667,1.738946380518285,0.3741825232161574,0.5033050713067296,-1.203785181045532,1.442194938659668,-3.433846235275269,-0.4907784461975098,-0.3342354297637939,-0.03665488958358765,XArbitraryZVertical,0.0202340925309778,0.3031507513723825,0.7568970642484421,0.5786165170563042,0.3201858103275299,-0.4823233783245087,-0.8153803944587708,0,0,0,-1,-1,3298.778609,walking,2,2022-05-12T10:40:32.398+02:00,2022-05-11T22:15:20.957+02:00,914,0.8930088,0.8197976,1.729005,688.5342,0,0,2022-05-12T10:41:03.043+02:00,674037663.0431966,0,-3.630001,100.9501,1,0.94
2022-05-12T10:41:05.456+02:00,1652344845.000011,53.22887063429163,10.3984035242292,36.81001,1.413575,0.764814,166.4408364120522,26.87362846743479,2.400000095367432,7.999579855010836,-9999,3324.608018791667,-0.01812744140625,-0.7971954345703125,-0.838287353515625,3324.603020791667,1.706608008204326,0.4043858595452269,0.4789042153166312,-1.177854537963867,1.535831689834595,-3.698384284973145,-0.4555897116661072,-0.3641136288642883,-0.06916743516921997,XArbitraryZVertical,0.005771556112377582,0.3033273948423533,0.7483635866165068,0.5898399553787361,0.3491908013820648,-0.4608069360256195,-0.8159183859825134,0,0,0,-1,-1,3298.778609,walking,2,2022-05-12T10:40:32.398+02:00,2022-05-11T22:15:20.957+02:00,914,0.8930088,0.8197976,1.729005,688.5342,0,0,2022-05-12T10:41:03.043+02:00,674037663.0431966,0,-3.630001,100.9501,1,0.94
2022-05-12T10:41:05.466+02:00,1652344845.000011,53.22887063429163,10.3984035242292,36.81001,1.413575,0.764814,166.4408364120522,26.87362846743479,2.400000095367432,7.999579855010836,-9999,3324.618013791667,0.052398681640625,-0.78533935546875,-0.8550872802734375,3324.613015791667,1.674107065990364,0.4335694566520388,0.4522376299856219,-1.324482083320618,1.466278672218323,-3.781168222427368,-0.3960062265396118,-0.3602160513401031,-0.02204185724258423,XArbitraryZVertical,-0.009055428223994657,0.3029775346471892,0.7391197007305517,0.6015186841621109,0.3778793811798096,-0.4369793236255646,-0.8162451982498169,0,0,0,-1,-1,3298.778609,walking,2,2022-05-12T10:40:32.398+02:00,2022-05-11T22:15:20.957+02:00,914,0.8930088,0.8197976,1.729005,688.5342,0,0,2022-05-12T10:41:03.043+02:00,674037663.0431966,0,-3.630001,100.9501,1,0.94
2022-05-12T10:41:05.476+02:00,1652344845.000011,53.22887063429163,10.3984035242292,36.81001,1.413575,0.764814,166.4408364120522,26.87362846743479,2.400000095367432,7.999579855010836,-9999,3324.628008791667,0.0262908935546875,-0.7604217529296875,-0.83868408203125,3324.623010791667,1.641904020311751,0.4624879425856313,0.4229194964011997,-1.45903217792511,1.605961203575134,-4.027299404144287,-0.3544662594795227,-0.3749147951602936,-0.03899133205413818,XArbitraryZVertical,-0.02474726486306419,0.3022246205062231,0.729233583673535,0.6134054602789744,0.4068655371665955,-0.4104244709014893,-0.8160957098007202,0,0,0,-1,-1,3298.778609,walking,2,2022-05-12T10:40:32.398+02:00,2022-05-11T22:15:20.957+02:00,914,0.8930088,0.8197976,1.729005,688.5342,0,0,2022-05-12T10:41:03.043+02:00,674037663.0431966,0,-3.630001,100.9501,1,0.94
2022-05-12T10:41:05.486+02:00,1652344845.000011,53.22887063429163,10.3984035242292,36.81001,1.413575,0.764814,166.4408364120522,26.87362846743479,2.400000095367432,7.999579855010836,-9999,3324.638003791667,0.0729522705078125,-0.70941162109375,-0.83154296875,3324.633005791667,1.610095364240745,0.4915748075591343,0.3897563625303145,-1.760257959365845,1.684124231338501,-4.200479984283447,-0.4103229939937592,-0.3804585635662079,-0.02321100234985352,XArbitraryZVertical,-0.04190186784261683,0.3008451988499914,0.7186204800485725,0.6255566135400875,0.4366144835948944,-0.3799630701541901,-0.8154727816581726,0,0,0,-1,-1,3298.778609,walking,2,2022-05-12T10:40:32.398+02:00,2022-05-11T22:15:20.957+02:00,914,0.8930088,0.8197976,1.729005,688.5342,0,0,2022-05-12T10:41:03.043+02:00,674037663.0431966,0,-3.630001,100.9501,1,0.94
2022-05-12T10:41:05.496+02:00,1652344845.000011,53.22887063429163,10.3984035242292,36.81001,1.413575,0.764814,166.4408364120522,26.87362846743479,2.400000095367432,7.999579855010836,-9999,3324.647998791667,0.0532073974609375,-0.680694580078125,-0.8758544921875,3324.643000791667,1.580148832627621,0.5212226405978811,0.3519304144536697,-2.135532140731812,2.042037963867188,-4.366438388824463,-0.3944686651229858,-0.3647009432315826,-0.01748383045196533,XArbitraryZVertical,-0.06117987827025644,0.2987098995310775,0.7075638486104876,0.6374817045943982,0.4674215316772461,-0.3447105586528778,-0.8140588402748108,0,0,0,-1,-1,3298.778609,walking,2,2022-05-12T10:40:32.398+02:00,2022-05-11T22:15:20.957+02:00,914,0.8930088,0.8197976,1.729005,688.5342,0,0,2022-05-12T10:41:03.043+02:00,674037663.0431966,0,-3.630001,100.9501,1,0.94
2022-05-12T10:41:05.506+02:00,1652344845.000011,53.22887063429163,10.3984035242292,36.81001,1.413575,0.764814,166.4408364120522,26.87362846743479,2.400000095367432,7.999579855010836,-9999,3324.657993791667,0.1260223388671875,-0.552764892578125,-0.827484130859375,3324.652995791667,1.552192709514999,0.5520380548343037,0.3095558511350833,-2.463788032531738,2.275901317596436,-4.511240005493164,-0.4462892711162567,-0.3760587871074677,-0.06486731767654419,XArbitraryZVertical,-0.08277014723738867,0.2960669976247521,0.6959094248151052,0.64900210486121,0.499497264623642,-0.304635614156723,-0.8109868764877319,0,0,0,-1,-1,3298.778609,walking,2,2022-05-12T10:40:32.398+02:00,2022-05-11T22:15:20.957+02:00,914,0.8930088,0.8197976,1.729005,688.5342,0,0,2022-05-12T10:41:03.043+02:00,674037663.0431966,0,-3.630001,100.9501,1,0.94
2022-05-12T10:41:05.516+02:00,1652344845.000011,53.22887063429163,10.3984035242292,36.81001,1.413575,0.764814,166.4408364120522,26.87362846743479,2.400000095367432,7.999579855010836,-9999,3324.667988791667,0.2306671142578125,-0.4142913818359375,-0.840545654296875,3324.662990791667,1.527221960998634,0.5820664468236638,0.2627086312107939,-2.854475736618042,2.332552671432495,-4.564823150634766,-0.4048664569854736,-0.2930675148963928,-0.02081543207168579,XArbitraryZVertical,-0.1060891280246254,0.2922514196436913,0.6838947887397318,0.6600169532471329,0.5308893918991089,-0.2596971988677979,-0.8066684007644653,0,0,0,-1,-1,3298.778609,walking,2,2022-05-12T10:40:32.398+02:00,2022-05-11T22:15:20.957+02:00,914,0.8930088,0.8197976,1.729005,688.5342,0,0,2022-05-12T10:41:03.043+02:00,674037663.0431966,0,-3.630001,100.9501,1,0.94
2022-05-12T10:41:05.526+02:00,1652344845.000011,53.22887063429163,10.3984035242292,36.81001,1.413575,0.764814,166.4408364120522,26.87362846743479,2.400000095367432,7.999579855010836,-9999,3324.677983791667,0.263824462890625,-0.2678985595703125,-0.85858154296875,3324.672985791667,1.505196421631376,0.6111141209177047,0.2120437123860952,-3.100067377090454,2.413336038589478,-4.690808296203613,-0.3302616477012634,-0.2038329094648361,-0.03987950086593628,XArbitraryZVertical,-0.1308059989038071,0.2873271354808873,0.6714517488665986,0.6704369053984121,0.5609292387962341,-0.2104582786560059,-0.8006657958030701,0,0,0,-1,-1,3298.778609,walking,2,2022-05-12T10:40:32.398+02:00,2022-05-11T22:15:20.957+02:00,914,0.8930088,0.8197976,1.729005,688.5342,0,0,2022-05-12T10:41:03.043+02:00,674037663.0431966,0,-3.630001,100.9501,1,0.94
2022-05-12T10:41:05.542+02:00,1652344845.000011,53.22887063429163,10.3984035242292,36.81001,1.413575,0.764814,166.4408364120522,26.87362846743479,2.400000095367432,7.999579855010836,-9999,3324.687978791667,0.297637939453125,-0.08331298828125,-0.83660888671875,3324.682980791667,1.48532823242925,0.6392775294315242,0.1590505626075338,-3.196842670440674,2.456730127334595,-4.663918972015381,-0.32526034116745,-0.109517514705658,-0.06618356704711914,XArbitraryZVertical,-0.1562651132246153,0.2817488373065568,0.6583600064907821,0.680265428023196,0.5890854001045227,-0.1583808213472366,-0.7923976182937622,0,0,0,-1,-1,3298.778609,walking,2,2022-05-12T10:40:32.398+02:00,2022-05-11T22:15:20.957+02:00,914,0.8930088,0.8197976,1.729005,688.5342,0,0,2022-05-12T10:41:03.043+02:00,674037663.0431966,0,-3.630001,100.9501,1,0.94
2022-05-12T10:41:05.558+02:00,1652344845.000011,53.22887063429163,10.3984035242292,36.81001,1.413575,0.764814,166.4408364120522,26.87362846743479,2.400000095367432,7.999579855010836,-9999,3324.697973791667,0.340179443359375,0.1231536865234375,-0.8047943115234375,3324.692975791667,1.467788293849157,0.6660007392637367,0.1057097302407756,-3.154651880264282,2.433329582214355,-4.603416919708252,-0.3167590498924255,0.02220023423433304,-0.05469876527786255,XArbitraryZVertical,-0.1815523279517927,0.2758330947274343,0.6449129837897289,0.6892330362864905,0.6143974661827087,-0.1055129617452621,-0.781909704208374,0,0,0,-1,-1,3298.778609,walking,2,2022-05-12T10:40:32.398+02:00,2022-05-11T22:15:20.957+02:00,914,0.8930088,0.8197976,1.729005,688.5342,0,0,2022-05-12T10:41:03.043+02:00,674037663.0431966,0,-3.630001,100.9501,1,0.94
2022-05-12T10:41:05.561+02:00,1652344845.000011,53.22887063429163,10.3984035242292,36.81001,1.413575,0.764814,166.4408364120522,26.87362846743479,2.400000095367432,7.999579855010836,-9999,3324.707968791667,0.397247314453125,0.3756103515625,-0.7663726806640625,3324.702970791667,1.451030651340111,0.6923783910931578,0.05312593788095607,-2.916078805923462,2.596272945404053,-4.575913906097412,-0.2972891330718994,0.1762548983097076,-0.03614997863769531,XArbitraryZVertical,-0.2063715302473381,0.2703494460445836,0.6306784363426526,0.6975433582732523,0.6374690532684326,-0.05310095101594925,-0.7686439156532288,0,0,0,-1,-1,3298.778609,walking,2,2022-05-12T10:40:32.398+02:00,2022-05-11T22:15:20.957+02:00,914,0.8930088,0.8197976,1.729005,688.5342,0,0,2022-05-12T10:41:03.043+02:00,674037663.0431966,0,-3.630001,100.9501,1,0.94
2022-05-12T10:41:05.566+02:00,1652344845.000011,53.22887063429163,10.3984035242292,36.81001,1.413575,0.764814,166.4408364120522,26.87362846743479,2.400000095367432,7.999579855010836,-9999,3324.717963791667,0.4637451171875,0.479461669921875,-0.718719482421875,3324.712965791667,1.435252601237197,0.7190586621305408,0.003052660538342748,-2.673795461654663,2.693567752838135,-4.326799869537354,-0.2614258527755737,0.3786632716655731,-0.01394963264465332,XArbitraryZVertical,-0.2302885897275808,0.2659997546405603,0.61595693528597,0.7048463232530925,0.6586735844612122,-0.003052655840292573,-0.752422571182251,0,0,0,-1,-1,3298.778609,walking,2,2022-05-12T10:40:32.398+02:00,2022-05-11T22:15:20.957+02:00,914,0.8930088,0.8197976,1.729005,688.5342,0,0,2022-05-12T10:41:03.043+02:00,674037663.0431966,0,-3.630001,100.9501,1,0.94
