loggingTime(txt),locationTimestamp_since1970(s),locationLatitude(WGS84),locationLongitude(WGS84),locationAltitude(m),locationSpeed(m/s),locationSpeedAccuracy(m/s),locationCourse(°),locationCourseAccuracy(°),locationVerticalAccuracy(m),locationHorizontalAccuracy(m),locationFloor(Z),accelerometerTimestamp_sinceReboot(s),accelerometerAccelerationX(G),accelerometerAccelerationY(G),accelerometerAccelerationZ(G),motionTimestamp_sinceReboot(s),motionYaw(rad),motionRoll(rad),motionPitch(rad),motionRotationRateX(rad/s),motionRotationRateY(rad/s),motionRotationRateZ(rad/s),motionUserAccelerationX(G),motionUserAccelerationY(G),motionUserAccelerationZ(G),motionAttitudeReferenceFrame(txt),motionQuaternionX(R),motionQuaternionY(R),motionQuaternionZ(R),motionQuaternionW(R),motionGravityX(G),motionGravityY(G),motionGravityZ(G),motionMagneticFieldX(µT),motionMagneticFieldY(µT),motionMagneticFieldZ(µT),motionHeading(°),motionMagneticFieldCalibrationAccuracy(Z),activityTimestamp_sinceReboot(s),activity(txt),activityActivityConfidence(Z),activityActivityStartDate(txt),pedometerStartDate(txt),pedometerNumberofSteps(N),pedometerAverageActivePace(s/m),pedometerCurrentPace(s/m),pedometerCurrentCadence(steps/s),pedometerDistance(m),pedometerFloorAscended(N),pedometerFloorDescended(N),pedometerEndDate(txt),altimeterTimestamp_sinceReboot(s),altimeterReset(bool),altimeterRelativeAltitude(m),altimeterPressure(kPa),batteryState(N),batteryLevel(R)
2022-05-12T10:41:53.344+02:00,1652344910.999881,53.22899248921613,10.39847172797695,38.14962,0,0.84,204.2578125,98.21611218916738,4,5,-9999,3364.605276125,0.03118896484375,-0.630523681640625,-0.7717742919921875,3364.595281125,-1.300747202761152,0.03333615408649516,0.6923652637172568,0.03803347423672676,-0.07415406405925751,-0.1002178490161896,0.02315688133239746,0.005913197994232178,0.01726597547531128,XArbitraryZVertical,-0.2794975384043168,0.1929398989238038,0.5649833568359101,-0.7519635755471515,0.0256553627550602,-0.6383596062660217,-0.7693106532096863,0,0,0,-1,-1,3362.922261416667,walking,2,2022-05-12T10:41:51.615+02:00,2022-05-11T22:15:20.957+02:00,965,0.8971741,0.7273178,1.766518,725.3952,0,0,2022-05-12T10:41:51.615+02:00,674037711.6148489,0,-3.23,100.9488,1,0.93
2022-05-12T10:41:53.348+02:00,1652344910.999881,53.22899248921613,10.39847172797695,38.14962,0,0.84,204.2578125,98.21611218916738,4,5,-9999,3364.615271125,0.033355712890625,-0.635223388671875,-0.76947021484375,3364.605276125,-1.30204768259873,0.03357523929652741,0.6926564027080178,0.0278344638645649,-0.06093872711062431,-0.08506385982036591,0.01539557799696922,0.01771873235702515,0.002501964569091797,XArbitraryZVertical,-0.2795480311851473,0.1931154176467288,0.5654070429404158,-0.7515811105965919,0.02583305165171623,-0.6385836601257324,-0.7691186666488647,0,0,0,-1,-1,3362.922261416667,walking,2,2022-05-12T10:41:51.615+02:00,2022-05-11T22:15:20.957+02:00,965,0.8971741,0.7273178,1.766518,725.3952,0,0,2022-05-12T10:41:51.615+02:00,674037711.6148489,0,-3.23,100.9488,1,0.93
2022-05-12T10:41:53.360+02:00,1652344910.999881,53.22899248921613,10.39847172797695,38.14962,0,0.84,204.2578125,98.21611218916738,4,5,-9999,3364.625266125,0.0372161865234375,-0.639862060546875,-0.7717437744140625,3364.615271125,-1.303071957036008,0.03357085890245312,0.6928319041013078,0.01595143973827362,-0.07014713436365128,-0.06973284482955933,0.005362419411540031,0.008194983005523682,-0.002767443656921387,XArbitraryZVertical,-0.2795131709241818,0.1933106393377667,0.5657733268026814,-0.7512682017939804,0.02582591958343983,-0.6387187242507935,-0.7690067887306213,0,0,0,-1,-1,3362.922261416667,walking,2,2022-05-12T10:41:51.615+02:00,2022-05-11T22:15:20.957+02:00,965,0.8971741,0.7273178,1.766518,725.3952,0,0,2022-05-12T10:41:51.615+02:00,674037711.6148489,0,-3.23,100.9488,1,0.93
2022-05-12T10:41:53.362+02:00,1652344910.999881,53.22899248921613,10.39847172797695,38.14962,0,0.84,204.2578125,98.21611218916738,4,5,-9999,3364.635261125,0.0476531982421875,-0.6440582275390625,-0.7731475830078125,3364.625266125,-1.303951954225996,0.03344918966306042,0.6929963824253516,0.001642941497266293,-0.07103610038757324,-0.06253751367330551,0.007626235485076904,0.003621816635131836,-0.0005651712417602539,XArbitraryZVertical,-0.2794548273004372,0.1935265150335946,0.5661028332730091,-0.7509862262255537,0.02572884410619736,-0.6388452649116516,-0.768904983997345,0,0,0,-1,-1,3362.922261416667,walking,2,2022-05-12T10:41:51.615+02:00,2022-05-11T22:15:20.957+02:00,965,0.8971741,0.7273178,1.766518,725.3952,0,0,2022-05-12T10:41:51.615+02:00,674037711.6148489,0,-3.23,100.9488,1,0.93
2022-05-12T10:41:53.363+02:00,1652344910.999881,53.22899248921613,10.39847172797695,38.14962,0,0.84,204.2578125,98.21611218916738,4,5,-9999,3364.645256125,0.0426483154296875,-0.63568115234375,-0.7803955078125,3364.635261125,-1.30499425105684,0.03366735421913249,0.6930674707416983,-0.03089050017297268,-0.05644970014691353,-0.06501851230859756,0.01132050156593323,-0.0009621977806091309,-0.002889811992645264,XArbitraryZVertical,-0.2794421650230262,0.1936107072175271,0.5664558836700773,-0.750702940385636,0.02589506283402443,-0.6388999819755554,-0.7688539624214172,0,0,0,-1,-1,3362.922261416667,walking,2,2022-05-12T10:41:51.615+02:00,2022-05-11T22:15:20.957+02:00,965,0.8971741,0.7273178,1.766518,725.3952,0,0,2022-05-12T10:41:51.615+02:00,674037711.6148489,0,-3.23,100.9488,1,0.93
2022-05-12T10:41:53.364+02:00,1652344910.999881,53.22899248921613,10.39847172797695,38.14962,0,0.84,204.2578125,98.21611218916738,4,5,-9999,3364.655251125,0.036834716796875,-0.6368255615234375,-0.783172607421875,3364.645256125,-1.306046501543951,0.03394337056210336,0.6928477127029727,-0.04168915376067162,-0.06535278260707855,-0.06518909335136414,0.02154055051505566,-0.005327403545379639,-0.004160463809967041,XArbitraryZVertical,-0.2793368130704729,0.1935909081584733,0.566836290920985,-0.7504599484378064,0.02611204050481319,-0.6387308835983276,-0.7689869999885559,0,0,0,-1,-1,3362.922261416667,walking,2,2022-05-12T10:41:51.615+02:00,2022-05-11T22:15:20.957+02:00,965,0.8971741,0.7273178,1.766518,725.3952,0,0,2022-05-12T10:41:51.615+02:00,674037711.6148489,0,-3.23,100.9488,1,0.93
2022-05-12T10:41:53.366+02:00,1652344910.999881,53.22899248921613,10.39847172797695,38.14962,0,0.84,204.2578125,98.21611218916738,4,5,-9999,3364.665246125,0.03936767578125,-0.62957763671875,-0.779510498046875,3364.655251125,-1.306962441690604,0.034038095021863,0.6924695338774376,-0.04823147505521774,-0.06345927715301514,-0.05235398188233376,0.01645460538566113,0.002758681774139404,-0.01116955280303955,XArbitraryZVertical,-0.2791344546757858,0.1935743020890363,0.5672081133354826,-0.7502585601391172,0.02619310095906258,-0.6384398341178894,-0.7692258954048157,0,0,0,-1,-1,3362.922261416667,walking,2,2022-05-12T10:41:51.615+02:00,2022-05-11T22:15:20.957+02:00,965,0.8971741,0.7273178,1.766518,725.3952,0,0,2022-05-12T10:41:51.615+02:00,674037711.6148489,0,-3.23,100.9488,1,0.93
2022-05-12T10:41:53.369+02:00,1652344910.999881,53.22899248921613,10.39847172797695,38.14962,0,0.84,204.2578125,98.21611218916738,4,5,-9999,3364.675241125,0.0372467041015625,-0.6308441162109375,-0.778411865234375,3364.665246125,-1.307772979975265,0.03404396174303482,0.692065984829892,-0.04637108743190765,-0.07402849197387695,-0.04738885164260864,0.01062771677970886,0.001303553581237793,-0.01368939876556396,XArbitraryZVertical,-0.2789077184453767,0.1935688282230235,0.5675554968003826,-0.7500816086950948,0.02620638161897659,-0.6381292343139648,-0.769483208656311,0,0,0,-1,-1,3362.922261416667,walking,2,2022-05-12T10:41:51.615+02:00,2022-05-11T22:15:20.957+02:00,965,0.8971741,0.7273178,1.766518,725.3952,0,0,2022-05-12T10:41:51.615+02:00,674037711.6148489,0,-3.23,100.9488,1,0.93
2022-05-12T10:41:53.379+02:00,1652344910.999881,53.22899248921613,10.39847172797695,38.14962,0,0.84,204.2578125,98.21611218916738,4,5,-9999,3364.685236125,0.037994384765625,-0.6339263916015625,-0.7806549072265625,3364.675241125,-1.308533552698758,0.03398807162614677,0.691629619418305,-0.04857964813709259,-0.07071392238140106,-0.04490651935338974,0.01319420337677002,0.008215427398681641,-0.009747564792633057,XArbitraryZVertical,-0.2786561273514983,0.1935698970270023,0.5678962636232503,-0.7499169951229385,0.02617283537983894,-0.6377931833267212,-0.7697629332542419,0,0,0,-1,-1,3362.922261416667,walking,2,2022-05-12T10:41:51.615+02:00,2022-05-11T22:15:20.957+02:00,965,0.8971741,0.7273178,1.766518,725.3952,0,0,2022-05-12T10:41:51.615+02:00,674037711.6148489,0,-3.23,100.9488,1,0.93
2022-05-12T10:41:53.391+02:00,1652344910.999881,53.22899248921613,10.39847172797695,38.14962,0,0.84,204.2578125,98.21611218916738,4,5,-9999,3364.695231125,0.0455780029296875,-0.635528564453125,-0.7823944091796875,3364.685236125,-1.309251792700564,0.03381321221760346,0.6911085606575949,-0.03659406304359436,-0.07569956034421921,-0.04850957542657852,0.01119661331176758,0.00654757022857666,-0.008312344551086426,XArbitraryZVertical,-0.2783434122919023,0.1935851096461212,0.5682469243437231,-0.7497635280227433,0.02604946680366993,-0.6373917460441589,-0.7700995206832886,0,0,0,-1,-1,3362.922261416667,walking,2,2022-05-12T10:41:51.615+02:00,2022-05-11T22:15:20.957+02:00,965,0.8971741,0.7273178,1.766518,725.3952,0,0,2022-05-12T10:41:51.615+02:00,674037711.6148489,0,-3.23,100.9488,1,0.93
2022-05-12T10:41:53.399+02:00,1652344910.999881,53.22899248921613,10.39847172797695,38.14962,0,0.84,204.2578125,98.21611218916738,4,5,-9999,3364.705226125,0.040863037109375,-0.6392669677734375,-0.781646728515625,3364.695231125,-1.309939282966502,0.03351617361590958,0.6907355744389218,-0.02599787525832653,-0.07768308371305466,-0.05311737954616547,0.01216506958007812,0.003177821636199951,-0.01031011343002319,XArbitraryZVertical,-0.2780539168360051,0.1936843936255758,0.5685867379474067,-0.7495876491107696,0.02582868002355099,-0.637104332447052,-0.7703447341918945,0,0,0,-1,-1,3362.922261416667,walking,2,2022-05-12T10:41:51.615+02:00,2022-05-11T22:15:20.957+02:00,965,0.8971741,0.7273178,1.766518,725.3952,0,0,2022-05-12T10:41:51.615+02:00,674037711.6148489,0,-3.23,100.9488,1,0.93
2022-05-12T10:41:53.409+02:00,1652344910.999881,53.22899248921613,10.39847172797695,38.14962,0,0.84,204.2578125,98.21611218916738,4,5,-9999,3364.715221125,0.037750244140625,-0.6455841064453125,-0.7716217041015625,3364.705226125,-1.31059858731102,0.03320703342125116,0.6904612398788892,-0.02826329320669174,-0.08197928965091705,-0.04383333399891853,0.01998102478682995,0.001364231109619141,-0.0118669867515564,XArbitraryZVertical,-0.277800274811455,0.1938126290265688,0.5689067630552974,-0.7494056896881168,0.02559633553028107,-0.6368928551673889,-0.7705273628234863,0,0,0,-1,-1,3362.922261416667,walking,2,2022-05-12T10:41:51.615+02:00,2022-05-11T22:15:20.957+02:00,965,0.8971741,0.7273178,1.766518,725.3952,0,0,2022-05-12T10:41:51.615+02:00,674037711.6148489,0,-3.23,100.9488,1,0.93
2022-05-12T10:41:53.419+02:00,1652344910.999881,53.22899248921613,10.39847172797695,38.14962,0,0.84,204.2578125,98.21611218916738,4,5,-9999,3364.725217125,0.04412841796875,-0.6476898193359375,-0.76068115234375,3364.715221125,-1.311276218918524,0.03277937176649422,0.6902094615469543,-0.02172869443893433,-0.1032371819019318,-0.05135330185294151,0.01559033803641796,-0.002568304538726807,-0.01094824075698853,XArbitraryZVertical,-0.2775194255492548,0.193994211753122,0.5692475314145271,-0.7492038827895715,0.025272062048316,-0.6366987228393555,-0.7706984281539917,0,0,0,-1,-1,3362.922261416667,walking,2,2022-05-12T10:41:51.615+02:00,2022-05-11T22:15:20.957+02:00,965,0.8971741,0.7273178,1.766518,725.3952,0,0,2022-05-12T10:41:51.615+02:00,674037711.6148489,0,-3.23,100.9488,1,0.93
2022-05-12T10:41:53.429+02:00,1652344910.999881,53.22899248921613,10.39847172797695,38.14962,0,0.84,204.2578125,98.21611218916738,4,5,-9999,3364.735212125,0.0411376953125,-0.6359710693359375,-0.74932861328125,3364.725217125,-1.312332359505892,0.03249616709766248,0.6900593479098528,-0.0119486004114151,-0.119306892156601,-0.08822590112686157,0.01269271969795227,-0.009001255035400391,-0.0008205771446228027,XArbitraryZVertical,-0.2772805689797255,0.1942033449590383,0.569698751737825,-0.7488951498749523,0.02505690231919289,-0.6365829706192017,-0.7708010673522949,0,0,0,-1,-1,3362.922261416667,walking,2,2022-05-12T10:41:51.615+02:00,2022-05-11T22:15:20.957+02:00,965,0.8971741,0.7273178,1.766518,725.3952,0,0,2022-05-12T10:41:51.615+02:00,674037711.6148489,0,-3.23,100.9488,1,0.93
2022-05-12T10:41:53.439+02:00,1652344910.999881,53.22899248921613,10.39847172797695,38.14962,0,0.84,204.2578125,98.21611218916738,4,5,-9999,3364.745207125,0.0350494384765625,-0.62579345703125,-0.7442474365234375,3364.735212125,-1.313756090005924,0.03220887804694232,0.6898056334413302,-0.02387290634214878,-0.1399186998605728,-0.1099732741713524,0.01928713917732239,-0.011302649974823,0.01028859615325928,XArbitraryZVertical,-0.2769662241134078,0.1944347139555983,0.5702992260281051,-0.7484943937277823,0.02484066039323807,-0.6363872885704041,-0.7709696888923645,0,0,0,-1,-1,3362.922261416667,walking,2,2022-05-12T10:41:51.615+02:00,2022-05-11T22:15:20.957+02:00,965,0.8971741,0.7273178,1.766518,725.3952,0,0,2022-05-12T10:41:51.615+02:00,674037711.6148489,0,-3.23,100.9488,1,0.93
2022-05-12T10:41:53.449+02:00,1652344910.999881,53.22899248921613,10.39847172797695,38.14962,0,0.84,204.2578125,98.21611218916738,4,5,-9999,3364.755202125,0.03985595703125,-0.63482666015625,-0.7523345947265625,3364.745207125,-1.315339542933193,0.0318483934230808,0.6894317745268189,-0.03371405228972435,-0.1460923552513123,-0.1203133314847946,0.01656675338745117,0.0001276731491088867,0.02188777923583984,XArbitraryZVertical,-0.2765706983482373,0.1946804511575393,0.5709823735841074,-0.7480557921313221,0.02457030862569809,-0.6360988616943359,-0.7712163329124451,0,0,0,-1,-1,3362.922261416667,walking,2,2022-05-12T10:41:51.615+02:00,2022-05-11T22:15:20.957+02:00,965,0.8971741,0.7273178,1.766518,725.3952,0,0,2022-05-12T10:41:51.615+02:00,674037711.6148489,0,-3.23,100.9488,1,0.93
2022-05-12T10:41:53.459+02:00,1652344910.999881,53.22899248921613,10.39847172797695,38.14962,0,0.84,204.2578125,98.21611218916738,4,5,-9999,3364.765197125,0.03826904296875,-0.6414642333984375,-0.7651214599609375,3364.755202125,-1.316989673147987,0.03153854203004451,0.6889791536013377,-0.03790373727679253,-0.1409636437892914,-0.1209189295768738,0.01070839166641235,0.009956002235412598,0.02726417779922485,XArbitraryZVertical,-0.2761537135025422,0.1948931236038191,0.5716916281837512,-0.7476126020877737,0.02434042096138,-0.6357495188713074,-0.7715116143226624,0,0,0,-1,-1,3362.922261416667,walking,2,2022-05-12T10:41:51.615+02:00,2022-05-11T22:15:20.957+02:00,965,0.8971741,0.7273178,1.766518,725.3952,0,0,2022-05-12T10:41:51.615+02:00,674037711.6148489,0,-3.23,100.9488,1,0.93
2022-05-12T10:41:53.469+02:00,1652344910.999881,53.22899248921613,10.39847172797695,38.14962,0,0.84,204.2578125,98.21611218916738,4,5,-9999,3364.775192125,0.026641845703125,-0.64501953125,-0.7865142822265625,3364.765197125,-1.318560882456984,0.03122252956020244,0.6884513323972575,-0.0483047142624855,-0.138931930065155,-0.1116117164492607,0.01574826054275036,0.0005153417587280273,0.01951998472213745,XArbitraryZVertical,-0.2757146139998188,0.1950748323757203,0.5723800198451843,-0.7472004055674905,0.02410708554089069,-0.635342001914978,-0.7718545198440552,0,0,0,-1,-1,3362.922261416667,walking,2,2022-05-12T10:41:51.615+02:00,2022-05-11T22:15:20.957+02:00,965,0.8971741,0.7273178,1.766518,725.3952,0,0,2022-05-12T10:41:51.615+02:00,674037711.6148489,0,-3.23,100.9488,1,0.93
2022-05-12T10:41:53.479+02:00,1652344910.999881,53.22899248921613,10.39847172797695,38.14962,0,0.84,204.2578125,98.21611218916738,4,5,-9999,3364.785187125,0.0218353271484375,-0.63726806640625,-0.8066253662109375,3364.775192125,-1.320028770424696,0.03089046646103798,0.6878534302930599,-0.05837518721818924,-0.1333286464214325,-0.1053144037723541,0.01440590620040894,-0.00658416748046875,0.007120609283447266,XArbitraryZVertical,-0.2752548900288731,0.1952273357448491,0.5730392632850906,-0.7468247454494914,0.02386250905692577,-0.6348801851272583,-0.7722420692443848,0,0,0,-1,-1,3362.922261416667,walking,2,2022-05-12T10:41:51.615+02:00,2022-05-11T22:15:20.957+02:00,965,0.8971741,0.7273178,1.766518,725.3952,0,0,2022-05-12T10:41:51.615+02:00,674037711.6148489,0,-3.23,100.9488,1,0.93
2022-05-12T10:41:53.489+02:00,1652344910.999881,53.22899248921613,10.39847172797695,38.14962,0,0.84,204.2578125,98.21611218916738,4,5,-9999,3364.795182125,0.0126953125,-0.63311767578125,-0.820465087890625,3364.785187125,-1.321471858696327,0.03062506200417226,0.6871575410670938,-0.06951955705881119,-0.1291228979825974,-0.1027157604694366,0.00297015905380249,-0.0106772780418396,-0.013824462890625,XArbitraryZVertical,-0.2747803220453198,0.1953225000757058,0.5736903994201048,-0.7464746553807402,0.02367107383906841,-0.63434237241745,-0.7726898193359375,0,0,0,-1,-1,3362.922261416667,walking,2,2022-05-12T10:41:51.615+02:00,2022-05-11T22:15:20.957+02:00,965,0.8971741,0.7273178,1.766518,725.3952,0,0,2022-05-12T10:41:51.615+02:00,674037711.6148489,0,-3.23,100.9488,1,0.93
2022-05-12T10:41:53.499+02:00,1652344910.999881,53.22899248921613,10.39847172797695,38.14962,0,0.84,204.2578125,98.21611218916738,4,5,-9999,3364.805177125,0.0142669677734375,-0.6263275146484375,-0.8242340087890625,3364.795182125,-1.322899505657052,0.03038135184809999,0.686421521737519,-0.0687730684876442,-0.1188966333866119,-0.1016321182250977,-0.001662254333496094,-0.003494977951049805,-0.03346335887908936,XArbitraryZVertical,-0.2742986005419972,0.1953952086602002,0.5743368263247055,-0.7461355919709988,0.02349693514406681,-0.6337732076644897,-0.7731620073318481,0,0,0,-1,-1,3362.922261416667,walking,2,2022-05-12T10:41:51.615+02:00,2022-05-11T22:15:20.957+02:00,965,0.8971741,0.7273178,1.766518,725.3952,0,0,2022-05-12T10:41:51.615+02:00,674037711.6148489,0,-3.23,100.9488,1,0.93
2022-05-12T10:41:53.509+02:00,1652344910.999881,53.22899248921613,10.39847172797695,38.14962,0,0.84,204.2578125,98.21611218916738,4,5,-9999,3364.815172125,0.0231475830078125,-0.622100830078125,-0.8225860595703125,3364.805177125,-1.324269847547849,0.03023785865420399,0.6858164222137665,-0.05999016016721725,-0.09920535236597061,-0.1006458178162575,-0.01070287823677063,0.0001872777938842773,-0.04691648483276367,XArbitraryZVertical,-0.2738996695595992,0.1954602246982777,0.5749335425629861,-0.7458055267671763,0.02339758351445198,-0.6333050727844238,-0.7735485434532166,0,0,0,-1,-1,3362.922261416667,walking,2,2022-05-12T10:41:51.615+02:00,2022-05-11T22:15:20.957+02:00,965,0.8971741,0.7273178,1.766518,725.3952,0,0,2022-05-12T10:41:51.615+02:00,674037711.6148489,0,-3.23,100.9488,1,0.93
2022-05-12T10:41:53.519+02:00,1652344910.999881,53.22899248921613,10.39847172797695,38.14962,0,0.84,204.2578125,98.21611218916738,4,5,-9999,3364.825167125,0.0288848876953125,-0.618377685546875,-0.8183441162109375,3364.815172125,-1.325654792484555,0.03031189701721675,0.6853534066326167,-0.05161904543638229,-0.08428685367107391,-0.09717598557472229,-0.009197384119033813,0.006619036197662354,-0.05039417743682861,XArbitraryZVertical,-0.2736144328164479,0.1954871783046952,0.5754902045518598,-0.745473731356691,0.02346373908221722,-0.6329466700553894,-0.7738398313522339,0,0,0,-1,-1,3362.922261416667,walking,2,2022-05-12T10:41:51.615+02:00,2022-05-11T22:15:20.957+02:00,965,0.8971741,0.7273178,1.766518,725.3952,0,0,2022-05-12T10:41:51.615+02:00,674037711.6148489,0,-3.23,100.9488,1,0.93
2022-05-12T10:41:53.532+02:00,1652344910.999881,53.22899248921613,10.39847172797695,38.14962,0,0.84,204.2578125,98.21611218916738,4,5,-9999,3364.835162125,0.0322113037109375,-0.622711181640625,-0.8184356689453125,3364.825167125,-1.326974998941332,0.03047025807889038,0.6849672620745338,-0.03561794385313988,-0.06778904050588608,-0.0965571254491806,-0.0004467666149139404,0.01054674386978149,-0.04850572347640991,XArbitraryZVertical,-0.2733882932997028,0.1954960095646323,0.5760026391843821,-0.7451585041704182,0.02359372936189175,-0.6326476335525513,-0.7740802764892578,0,0,0,-1,-1,3362.922261416667,walking,2,2022-05-12T10:41:51.615+02:00,2022-05-11T22:15:20.957+02:00,965,0.8971741,0.7273178,1.766518,725.3952,0,0,2022-05-12T10:41:51.615+02:00,674037711.6148489,0,-3.23,100.9488,1,0.93
2022-05-12T10:41:53.540+02:00,1652344910.999881,53.22899248921613,10.39847172797695,38.14962,0,0.84,204.2578125,98.21611218916738,4,5,-9999,3364.845157125,0.0291290283203125,-0.62158203125,-0.8144989013671875,3364.835162125,-1.328270680809157,0.03071336280549625,0.6847371049559607,-0.0218451414257288,-0.05877317488193512,-0.09860457479953766,0.005097895860671997,0.0140916109085083,-0.04412400722503662,XArbitraryZVertical,-0.2732466736171453,0.1955152680196427,0.5764771654580314,-0.744838387809416,0.02378638088703156,-0.6324694156646729,-0.7742200493812561,0,0,0,-1,-1,3362.922261416667,walking,2,2022-05-12T10:41:51.615+02:00,2022-05-11T22:15:20.957+02:00,965,0.8971741,0.7273178,1.766518,725.3952,0,0,2022-05-12T10:41:51.615+02:00,674037711.6148489,0,-3.23,100.9488,1,0.93
2022-05-12T10:41:53.549+02:00,1652344910.999881,53.22899248921613,10.39847172797695,38.14962,0,0.84,204.2578125,98.21611218916738,4,5,-9999,3364.855152125,0.032562255859375,-0.6219940185546875,-0.8039093017578125,3364.845157125,-1.329645710781232,0.03110931134112047,0.6845782255015024,-0.01745541766285896,-0.04974765703082085,-0.105475053191185,0.008114635944366455,0.009635031223297119,-0.04412460327148438,XArbitraryZVertical,-0.2731677867530618,0.19550923652416,0.5769524077342294,-0.7445008073380158,0.02409605495631695,-0.6323463320732117,-0.7743110060691833,0,0,0,-1,-1,3362.922261416667,walking,2,2022-05-12T10:41:51.615+02:00,2022-05-11T22:15:20.957+02:00,965,0.8971741,0.7273178,1.766518,725.3952,0,0,2022-05-12T10:41:51.615+02:00,674037711.6148489,0,-3.23,100.9488,1,0.93
2022-05-12T10:41:53.559+02:00,1652344910.999881,53.22899248921613,10.39847172797695,38.14962,0,0.84,204.2578125,98.21611218916738,4,5,-9999,3364.865148125,0.0446014404296875,-0.624420166015625,-0.7946014404296875,3364.855152125,-1.331130126313312,0.03160908558059631,0.6844125344935049,-0.01878806389868259,-0.04978280887007713,-0.1198918223381042,0.004642069339752197,0.0106358528137207,-0.04009526968002319,XArbitraryZVertical,-0.2731057967160891,0.1954774402044359,0.5774547114144502,-0.7441424260065803,0.02448634430766106,-0.6322179436683655,-0.7744035720825195,0,0,0,-1,-1,3362.922261416667,walking,2,2022-05-12T10:41:51.615+02:00,2022-05-11T22:15:20.957+02:00,965,0.8971741,0.7273178,1.766518,725.3952,0,0,2022-05-12T10:41:51.615+02:00,674037711.6148489,0,-3.23,100.9488,1,0.93
2022-05-12T10:41:53.569+02:00,1652344910.999881,53.22899248921613,10.39847172797695,38.14962,0,0.84,204.2578125,98.21611218916738,4,5,-9999,3364.875143125,0.04632568359375,-0.622802734375,-0.7906036376953125,3364.865148125,-1.332734706824255,0.03209976269364575,0.6842349241749918,-0.007164997514337301,-0.05753613635897636,-0.1279312968254089,0.007691711187362671,0.01008623838424683,-0.02940559387207031,XArbitraryZVertical,-0.2730252405435036,0.1954619912624432,0.5780040446393759,-0.7437493567695986,0.02486992627382278,-0.6320803165435791,-0.7745036482810974,0,0,0,-1,-1,3362.922261416667,walking,2,2022-05-12T10:41:51.615+02:00,2022-05-11T22:15:20.957+02:00,965,0.8971741,0.7273178,1.766518,725.3952,0,0,2022-05-12T10:41:51.615+02:00,674037711.6148489,0,-3.23,100.9488,1,0.93
2022-05-12T10:41:53.579+02:00,1652344910.999881,53.22899248921613,10.39847172797695,38.14962,0,0.84,204.2578125,98.21611218916738,4,5,-9999,3364.885138125,0.0509033203125,-0.6237335205078125,-0.78668212890625,3364.875143125,-1.334376484223244,0.03260731395741241,0.6840787037686983,-0.003269858192652464,-0.04702117666602135,-0.1298306584358215,0.0193345844745636,0.007538974285125732,-0.02001172304153442,XArbitraryZVertical,-0.2729539829122102,0.1954515040121235,0.5785622594683191,-0.7433442477749331,0.0252662431448698,-0.6319592595100403,-0.7745896577835083,0,0,0,-1,-1,3362.922261416667,walking,2,2022-05-12T10:41:51.615+02:00,2022-05-11T22:15:20.957+02:00,965,0.8971741,0.7273178,1.766518,725.3952,0,0,2022-05-12T10:41:51.615+02:00,674037711.6148489,0,-3.23,100.9488,1,0.93
2022-05-12T10:41:53.589+02:00,1652344910.999881,53.22899248921613,10.39847172797695,38.14962,0,0.84,204.2578125,98.21611218916738,4,5,-9999,3364.895133125,0.0474395751953125,-0.6228179931640625,-0.7846527099609375,3364.885138125,-1.335956522152739,0.03310182166713899,0.6839282632694755,0.001467905472964048,-0.04591942951083183,-0.1225573047995567,0.02067261748015881,0.009039878845214844,-0.01593148708343506,XArbitraryZVertical,-0.2728873147553006,0.1954392135202438,0.5790984199314579,-0.7429542774213711,0.02565242536365986,-0.6318426728248596,-0.7746720314025879,0,0,0,-1,-1,3362.922261416667,walking,2,2022-05-12T10:41:51.615+02:00,2022-05-11T22:15:20.957+02:00,965,0.8971741,0.7273178,1.766518,725.3952,0,0,2022-05-12T10:41:51.615+02:00,674037711.6148489,0,-3.23,100.9488,1,0.93
2022-05-12T10:41:53.599+02:00,1652344910.999881,53.22899248921613,10.39847172797695,38.14962,0,0.84,204.2578125,98.21611218916738,4,5,-9999,3364.905128125,0.03985595703125,-0.6235809326171875,-0.7834014892578125,3364.895133125,-1.337401562733518,0.03351074680699906,0.6837308933106099,-0.0009965840727090836,-0.04250925034284592,-0.1109326109290123,0.02492931485176086,0.007956027984619141,-0.01189595460891724,XArbitraryZVertical,-0.2727919469252853,0.1954264325082091,0.5796010214289781,-0.7426006644627999,0.02597338519990444,-0.6316896677017212,-0.774786114692688,0,0,0,-1,-1,3362.922261416667,walking,2,2022-05-12T10:41:51.615+02:00,2022-05-11T22:15:20.957+02:00,965,0.8971741,0.7273178,1.766518,725.3952,0,0,2022-05-12T10:41:51.615+02:00,674037711.6148489,0,-3.23,100.9488,1,0.93
2022-05-12T10:41:53.609+02:00,1652344910.999881,53.22899248921613,10.39847172797695,38.14962,0,0.84,204.2578125,98.21611218916738,4,5,-9999,3364.915123125,0.038604736328125,-0.6244354248046875,-0.77484130859375,3364.905128125,-1.338751400702916,0.03393451222759373,0.6834431381863735,-0.01165169291198254,-0.03575560823082924,-0.1039209067821503,0.02113106660544872,0.008648514747619629,-0.009695947170257568,XArbitraryZVertical,-0.2726771162364109,0.1953685018011883,0.580076024280381,-0.7422871046487541,0.02630787529051304,-0.6314665675163269,-0.7749567031860352,0,0,0,-1,-1,3362.922261416667,walking,2,2022-05-12T10:41:51.615+02:00,2022-05-11T22:15:20.957+02:00,965,0.8971741,0.7273178,1.766518,725.3952,0,0,2022-05-12T10:41:51.615+02:00,674037711.6148489,0,-3.23,100.9488,1,0.93
2022-05-12T10:41:53.619+02:00,1652344910.999881,53.22899248921613,10.39847172797695,38.14962,0,0.84,204.2578125,98.21611218916738,4,5,-9999,3364.925118125,0.0372467041015625,-0.620208740234375,-0.7676849365234375,3364.915123125,-1.340081531918921,0.03438682576897405,0.6830551151059208,-0.02558162435889244,-0.04091255366802216,-0.1056519597768784,0.01318851113319397,0.007584631443023682,-0.008211910724639893,XArbitraryZVertical,-0.2725358490465978,0.1952676121738648,0.5805507282335867,-0.7419944064451308,0.02666682004928589,-0.6311656832695007,-0.7751895189285278,0,0,0,-1,-1,3362.922261416667,walking,2,2022-05-12T10:41:51.615+02:00,2022-05-11T22:15:20.957+02:00,965,0.8971741,0.7273178,1.766518,725.3952,0,0,2022-05-12T10:41:51.615+02:00,674037711.6148489,0,-3.23,100.9488,1,0.93
2022-05-12T10:41:53.629+02:00,1652344910.999881,53.22899248921613,10.39847172797695,38.14962,0,0.84,204.2578125,98.21611218916738,4,5,-9999,3364.935113125,0.0348052978515625,-0.61749267578125,-0.7569122314453125,3364.925118125,-1.341471928666566,0.03486858815075217,0.6825892392504392,-0.03374387696385384,-0.04255585744976997,-0.110728345811367,0.01155358552932739,0.006368696689605713,0.000629127025604248,XArbitraryZVertical,-0.272368920958507,0.1951409148362659,0.5810522545149821,-0.7416964045672241,0.02705052122473717,-0.6308042407035828,-0.7754703760147095,0,0,0,-1,-1,3362.922261416667,walking,2,2022-05-12T10:41:51.615+02:00,2022-05-11T22:15:20.957+02:00,965,0.8971741,0.7273178,1.766518,725.3952,0,0,2022-05-12T10:41:51.615+02:00,674037711.6148489,0,-3.23,100.9488,1,0.93
2022-05-12T10:41:53.639+02:00,1652344910.999881,53.22899248921613,10.39847172797695,38.14962,0,0.84,204.2578125,98.21611218916738,4,5,-9999,3364.945108125,0.0340576171875,-0.616668701171875,-0.750152587890625,3364.935113125,-1.342892583536738,0.03533212644499685,0.6820316510946624,-0.04029498621821404,-0.04316199198365211,-0.1115094497799873,0.00982367992401123,0.01016265153884888,0.008124232292175293,XArbitraryZVertical,-0.2721603881286054,0.1949978280028246,0.581577503437407,-0.7413988209233784,0.02742239832878113,-0.6303715109825134,-0.7758091688156128,0,0,0,-1,-1,3362.922261416667,walking,2,2022-05-12T10:41:51.615+02:00,2022-05-11T22:15:20.957+02:00,965,0.8971741,0.7273178,1.766518,725.3952,0,0,2022-05-12T10:41:51.615+02:00,674037711.6148489,0,-3.23,100.9488,1,0.93
2022-05-12T10:41:53.649+02:00,1652344910.999881,53.22899248921613,10.39847172797695,38.14962,0,0.84,204.2578125,98.21611218916738,4,5,-9999,3364.955103125,0.0357818603515625,-0.6207733154296875,-0.7437896728515625,3364.945108125,-1.344349748673553,0.0358130429433137,0.6814521718606235,-0.04198735952377319,-0.04414722695946693,-0.1143338680267334,0.006996124982833862,0.01242876052856445,0.0192486047744751,XArbitraryZVertical,-0.2719456560675472,0.1948465159958062,0.5821162232982404,-0.7410945621326986,0.02780856937170029,-0.629921555519104,-0.7761607766151428,0,0,0,-1,-1,3362.922261416667,walking,2,2022-05-12T10:41:51.615+02:00,2022-05-11T22:15:20.957+02:00,965,0.8971741,0.7273178,1.766518,725.3952,0,0,2022-05-12T10:41:51.615+02:00,674037711.6148489,0,-3.23,100.9488,1,0.93
2022-05-12T10:41:53.659+02:00,1652344910.999881,53.22899248921613,10.39847172797695,38.14962,0,0.84,204.2578125,98.21611218916738,4,5,-9999,3364.965098125,0.035552978515625,-0.633209228515625,-0.747650146484375,3364.955103125,-1.345893943701712,0.03634307230956394,0.6808688845424599,-0.05219126120209694,-0.0575123019516468,-0.1207432970404625,0.005823701620101929,0.01279962062835693,0.02636045217514038,XArbitraryZVertical,-0.2717357218579855,0.1946874402843068,0.5826808124608557,-0.7407696216351063,0.02823329903185368,-0.6294683814048767,-0.7765129804611206,0,0,0,-1,-1,3362.922261416667,walking,2,2022-05-12T10:41:51.615+02:00,2022-05-11T22:15:20.957+02:00,965,0.8971741,0.7273178,1.766518,725.3952,0,0,2022-05-12T10:41:51.615+02:00,674037711.6148489,0,-3.23,100.9488,1,0.93
2022-05-12T10:41:53.669+02:00,1652344910.999881,53.22899248921613,10.39847172797695,38.14962,0,0.84,204.2578125,98.21611218916738,4,5,-9999,3364.975093125,0.0362396240234375,-0.634033203125,-0.753631591796875,3364.965098125,-1.347666032154902,0.03687354790677497,0.6801841435821238,-0.06231873109936714,-0.06784562766551971,-0.150729164481163,0.007120130583643913,0.008162856101989746,0.03313881158828735,XArbitraryZVertical,-0.271466987707239,0.1945288141399417,0.5833408309955512,-0.7403902065436297,0.028661098331213,-0.6289361715316772,-0.7769284248352051,0,0,0,-1,-1,3362.922261416667,walking,2,2022-05-12T10:41:51.615+02:00,2022-05-11T22:15:20.957+02:00,965,0.8971741,0.7273178,1.766518,725.3952,0,0,2022-05-12T10:41:51.615+02:00,674037711.6148489,0,-3.23,100.9488,1,0.93
2022-05-12T10:41:53.679+02:00,1652344910.999881,53.22899248921613,10.39847172797695,38.14962,0,0.84,204.2578125,98.21611218916738,4,5,-9999,3364.985088125,0.0427703857421875,-0.6368255615234375,-0.7601776123046875,3364.975093125,-1.34969139143929,0.03748559210226287,0.6793651401372415,-0.0831582322716713,-0.0818629115819931,-0.1530655473470688,0.006396442651748657,-0.004910111427307129,0.02977514266967773,XArbitraryZVertical,-0.2711487801786281,0.1943340101092953,0.5840981860677458,-0.739960846899184,0.02915590442717075,-0.6282992362976074,-0.7774252891540527,0,0,0,-1,-1,3362.922261416667,walking,2,2022-05-12T10:41:51.615+02:00,2022-05-11T22:15:20.957+02:00,965,0.8971741,0.7273178,1.766518,725.3952,0,0,2022-05-12T10:41:51.615+02:00,674037711.6148489,0,-3.23,100.9488,1,0.93
2022-05-12T10:41:53.689+02:00,1652344910.999881,53.22899248921613,10.39847172797695,38.14962,0,0.84,204.2578125,98.21611218916738,4,5,-9999,3364.995083125,0.0515899658203125,-0.640533447265625,-0.7752532958984375,3364.985088125,-1.351741086423367,0.03791504022198758,0.6783597967252553,-0.1066715493798256,-0.1021093279123306,-0.1607612818479538,0.006725311279296875,-0.006516516208648682,0.02441191673278809,XArbitraryZVertical,-0.2707073108780335,0.1941540827141121,0.5849097218971678,-0.7395285689010116,0.02951369434595108,-0.6275168061256409,-0.7780435085296631,0,0,0,-1,-1,3362.922261416667,walking,2,2022-05-12T10:41:51.615+02:00,2022-05-11T22:15:20.957+02:00,965,0.8971741,0.7273178,1.766518,725.3952,0,0,2022-05-12T10:41:51.615+02:00,674037711.6148489,0,-3.23,100.9488,1,0.93
2022-05-12T10:41:53.699+02:00,1652344910.999881,53.22899248921613,10.39847172797695,38.14962,0,0.84,204.2578125,98.21611218916738,4,5,-9999,3365.005079125,0.0549468994140625,-0.6398773193359375,-0.7935791015625,3364.995083125,-1.35368718475128,0.03812350525533745,0.6770129234892852,-0.142141655087471,-0.1176571249961853,-0.1386911273002625,0.01306170225143433,-0.01035809516906738,0.01870357990264893,XArbitraryZVertical,-0.270086936726989,0.1939393240497013,0.5857504619027162,-0.7391461811899791,0.02970807440578938,-0.6264675259590149,-0.7788811922073364,0,0,0,-1,-1,3362.922261416667,walking,2,2022-05-12T10:41:51.615+02:00,2022-05-11T22:15:20.957+02:00,965,0.8971741,0.7273178,1.766518,725.3952,0,0,2022-05-12T10:41:51.615+02:00,674037711.6148489,0,-3.23,100.9488,1,0.93
2022-05-12T10:41:53.709+02:00,1652344910.999881,53.22899248921613,10.39847172797695,38.14962,0,0.84,204.2578125,98.21611218916738,4,5,-9999,3365.015074125,0.058624267578125,-0.644805908203125,-0.812347412109375,3365.005079125,-1.355181980330321,0.03780643960509875,0.675396461963546,-0.1731031984090805,-0.143787607550621,-0.1009269133210182,0.02208998799324036,-0.01532679796218872,0.004648208618164062,XArbitraryZVertical,-0.2692582166995569,0.1937764005087915,0.5865247974993997,-0.7388770990151017,0.029499351978302,-0.6252067685127258,-0.7799014449119568,0,0,0,-1,-1,3362.922261416667,walking,2,2022-05-12T10:41:51.615+02:00,2022-05-11T22:15:20.957+02:00,965,0.8971741,0.7273178,1.766518,725.3952,0,0,2022-05-12T10:41:51.615+02:00,674037711.6148489,0,-3.23,100.9488,1,0.93
2022-05-12T10:41:53.719+02:00,1652344910.999881,53.22899248921613,10.39847172797695,38.14962,0,0.84,204.2578125,98.21611218916738,4,5,-9999,3365.025069125,0.050567626953125,-0.642333984375,-0.826934814453125,3365.015074125,-1.356241741723147,0.03700900297051427,0.6736643409481414,-0.1684384047985077,-0.1594762802124023,-0.07477706670761108,0.02602881193161011,-0.01602339744567871,-0.01257330179214478,XArbitraryZVertical,-0.2682884457891991,0.1936967506647083,0.5872150268921447,-0.7387025461737343,0.02891744859516621,-0.6238539814949036,-0.7810057401657104,0,0,0,-1,-1,3362.922261416667,walking,2,2022-05-12T10:41:51.615+02:00,2022-05-11T22:15:20.957+02:00,965,0.8971741,0.7273178,1.766518,725.3952,0,0,2022-05-12T10:41:51.615+02:00,674037711.6148489,0,-3.23,100.9488,1,0.93
2022-05-12T10:41:53.729+02:00,1652344910.999881,53.22899248921613,10.39847172797695,38.14962,0,0.84,204.2578125,98.21611218916738,4,5,-9999,3365.035064125,0.0329132080078125,-0.6336517333984375,-0.8262939453125,3365.025069125,-1.35712050986983,0.03582756653232379,0.6723838412919678,-0.08708732575178146,-0.191223219037056,-0.07342398166656494,0.03060033917427063,-0.021953284740448,-0.0305103063583374,XArbitraryZVertical,-0.2673881846359886,0.1938685847435947,0.5878389775592676,-0.7384875785491632,0.02802331000566483,-0.6228527426719666,-0.7818370461463928,0,0,0,-1,-1,3362.922261416667,walking,2,2022-05-12T10:41:51.615+02:00,2022-05-11T22:15:20.957+02:00,965,0.8971741,0.7273178,1.766518,725.3952,0,0,2022-05-12T10:41:51.615+02:00,674037711.6148489,0,-3.23,100.9488,1,0.93
2022-05-12T10:41:53.739+02:00,1652344910.999881,53.22899248921613,10.39847172797695,38.14962,0,0.84,204.2578125,98.21611218916738,4,5,-9999,3365.045059125,0.043121337890625,-0.6152801513671875,-0.8116912841796875,3365.035064125,-1.358040502483419,0.03451156719270255,0.6720657008482065,6.80810771882534e-05,-0.1936032921075821,-0.06151831895112991,0.02356576919555664,-0.0197303295135498,-0.04486346244812012,XArbitraryZVertical,-0.2667956172990736,0.1943822234140935,0.5883893225001245,-0.7381286030119251,0.02700122632086277,-0.6226037740707397,-0.7820712924003601,0,0,0,-1,-1,3362.922261416667,walking,2,2022-05-12T10:41:51.615+02:00,2022-05-11T22:15:20.957+02:00,965,0.8971741,0.7273178,1.766518,725.3952,0,0,2022-05-12T10:41:51.615+02:00,674037711.6148489,0,-3.23,100.9488,1,0.93
2022-05-12T10:41:53.749+02:00,1652344910.999881,53.22899248921613,10.39847172797695,38.14962,0,0.84,204.2578125,98.21611218916738,4,5,-9999,3365.055054125,0.0226593017578125,-0.6052398681640625,-0.801788330078125,3365.045059125,-1.358742349975732,0.03307336693329454,0.6723283799240826,0.03113299049437046,-0.193306490778923,-0.04565294086933136,0.007041573524475098,-0.01084250211715698,-0.04434806108474731,XArbitraryZVertical,-0.2664000215827084,0.1950848897815823,0.5888111605990924,-0.7377495948695583,0.02587101422250271,-0.6228093504905701,-0.7819458246231079,0,0,0,-1,-1,3362.922261416667,walking,2,2022-05-12T10:41:51.615+02:00,2022-05-11T22:15:20.957+02:00,965,0.8971741,0.7273178,1.766518,725.3952,0,0,2022-05-12T10:41:51.615+02:00,674037711.6148489,0,-3.23,100.9488,1,0.93
2022-05-12T10:41:53.759+02:00,1652344910.999881,53.22899248921613,10.39847172797695,38.14962,0,0.84,204.2578125,98.21611218916738,4,5,-9999,3365.065049125,0.01373291015625,-0.5947723388671875,-0.792083740234375,3365.055054125,-1.359360852172605,0.03159065383385852,0.6727360257320412,0.02797714434564114,-0.1874451339244843,-0.03956441953778267,0.01841717958450317,0.007847964763641357,-0.02996170520782471,XArbitraryZVertical,-0.2660518732170719,0.1958357146682347,0.5891919310028385,-0.7373723135190221,0.02470356598496437,-0.6231282353401184,-0.781729519367218,0,0,0,-1,-1,3362.922261416667,walking,2,2022-05-12T10:41:51.615+02:00,2022-05-11T22:15:20.957+02:00,965,0.8971741,0.7273178,1.766518,725.3952,0,0,2022-05-12T10:41:51.615+02:00,674037711.6148489,0,-3.23,100.9488,1,0.93
2022-05-12T10:41:53.769+02:00,1652344910.999881,53.22899248921613,10.39847172797695,38.14962,0,0.84,204.2578125,98.21611218916738,4,5,-9999,3365.075044125,0.008056640625,-0.58660888671875,-0.785888671875,3365.065049125,-1.359972086900837,0.03008982658147805,0.6731254543329674,0.03119770437479019,-0.200057327747345,-0.04628144204616547,-0.0008642971515655518,0.01819276809692383,-0.02026516199111938,XArbitraryZVertical,-0.2656919231281769,0.1965864804544319,0.589574131848067,-0.7369967011561849,0.0235229954123497,-0.6234327554702759,-0.7815231084823608,0,0,0,-1,-1,3362.922261416667,walking,2,2022-05-12T10:41:51.615+02:00,2022-05-11T22:15:20.957+02:00,965,0.8971741,0.7273178,1.766518,725.3952,0,0,2022-05-12T10:41:51.615+02:00,674037711.6148489,0,-3.23,100.9488,1,0.93
2022-05-12T10:41:53.779+02:00,1652344910.999881,53.22899248921613,10.39847172797695,38.14962,0,0.84,204.2578125,98.21611218916738,4,5,-9999,3365.085039125,0.0045928955078125,-0.591217041015625,-0.782318115234375,3365.075044125,-1.360850749044894,0.02861392281317848,0.6735009819928383,0.02719896659255028,-0.2227471917867661,-0.0764734297990799,-0.008630543947219849,0.02895385026931763,-0.01076078414916992,XArbitraryZVertical,-0.2653073274765276,0.1973589881092246,0.590052716625484,-0.7365456334120762,0.02236281707882881,-0.6237263083457947,-0.7813228964805603,0,0,0,-1,-1,3362.922261416667,walking,2,2022-05-12T10:41:51.615+02:00,2022-05-11T22:15:20.957+02:00,965,0.8971741,0.7273178,1.766518,725.3952,0,0,2022-05-12T10:41:51.615+02:00,674037711.6148489,0,-3.23,100.9488,1,0.93
2022-05-12T10:41:53.789+02:00,1652344910.999881,53.22899248921613,10.39847172797695,38.14962,0,0.84,204.2578125,98.21611218916738,4,5,-9999,3365.095034125,0.00262451171875,-0.597198486328125,-0.77288818359375,3365.085039125,-1.362146000499023,0.02719968036551907,0.6737912981874054,0.02093830890953541,-0.2400944232940674,-0.1098410487174988,-0.01319685578346252,0.03734421730041504,-0.004715919494628906,XArbitraryZVertical,-0.2648678362707459,0.1981380695545178,0.5906853243955619,-0.7359872838565417,0.02125288918614388,-0.6239532232284546,-0.7811726927757263,0,0,0,-1,-1,3362.922261416667,walking,2,2022-05-12T10:41:51.615+02:00,2022-05-11T22:15:20.957+02:00,965,0.8971741,0.7273178,1.766518,725.3952,0,0,2022-05-12T10:41:51.615+02:00,674037711.6148489,0,-3.23,100.9488,1,0.93
2022-05-12T10:41:53.799+02:00,1652344910.999881,53.22899248921613,10.39847172797695,38.14962,0,0.84,204.2578125,98.21611218916738,4,5,-9999,3365.105029125,0.00299072265625,-0.6035003662109375,-0.7662811279296875,3365.095034125,-1.363859735704652,0.0259738333709201,0.6739256134726482,0.0006514135748147964,-0.2462942749261856,-0.1393962800502777,-0.0157008171081543,0.03284096717834473,-0.001203715801239014,XArbitraryZVertical,-0.2643845032716176,0.1988558942281649,0.5914632520135945,-0.7353423945455678,0.02029309794306755,-0.6240581870079041,-0.7811143398284912,0,0,0,-1,-1,3362.922261416667,walking,2,2022-05-12T10:41:51.615+02:00,2022-05-11T22:15:20.957+02:00,965,0.8971741,0.7273178,1.766518,725.3952,0,0,2022-05-12T10:41:51.615+02:00,674037711.6148489,0,-3.23,100.9488,1,0.93
2022-05-12T10:41:53.809+02:00,1652344910.999881,53.22899248921613,10.39847172797695,38.14962,0,0.84,204.2578125,98.21611218916738,4,5,-9999,3365.115024125,0.0022430419921875,-0.60040283203125,-0.758087158203125,3365.105029125,-1.365905159019886,0.02494266278627875,0.6737001202917635,-0.03922399878501892,-0.2431158423423767,-0.1661889404058456,-0.01686722040176392,0.02668333053588867,0.008387446403503418,XArbitraryZVertical,-0.2637933694723257,0.1994374077076948,0.5923756492593009,-0.7346625826298083,0.01949113421142101,-0.6238819360733032,-0.7812755703926086,0,0,0,-1,-1,3362.922261416667,walking,2,2022-05-12T10:41:51.615+02:00,2022-05-11T22:15:20.957+02:00,965,0.8971741,0.7273178,1.766518,725.3952,0,0,2022-05-12T10:41:51.615+02:00,674037711.6148489,0,-3.23,100.9488,1,0.93
2022-05-12T10:41:53.819+02:00,1652344910.999881,53.22899248921613,10.39847172797695,38.14962,0,0.84,204.2578125,98.21611218916738,4,5,-9999,3365.125019125,0.0033721923828125,-0.6066131591796875,-0.735107421875,3365.115024125,-1.368208070264613,0.0240297644805666,0.6729492518869193,-0.09359429031610489,-0.262262374162674,-0.1825934797525406,-0.01579904556274414,0.01979446411132812,0.01548004150390625,XArbitraryZVertical,-0.2630190932374174,0.1998509780444397,0.5934231107357646,-0.73398206118346,0.01878915168344975,-0.6232949495315552,-0.781761109828949,0,0,0,-1,-1,3362.922261416667,walking,2,2022-05-12T10:41:51.615+02:00,2022-05-11T22:15:20.957+02:00,965,0.8971741,0.7273178,1.766518,725.3952,0,0,2022-05-12T10:41:51.615+02:00,674037711.6148489,0,-3.23,100.9488,1,0.93
2022-05-12T10:41:53.829+02:00,1652344910.999881,53.22899248921613,10.39847172797695,38.14962,0,0.84,204.2578125,98.21611218916738,4,5,-9999,3365.135015,0.007476806640625,-0.6153564453125,-0.717926025390625,3365.125019125,-1.370889732689332,0.02296492541494823,0.6714853720803432,-0.180815726518631,-0.30213862657547,-0.2421985566616058,-0.0157352089881897,0.02174663543701172,0.0246049165725708,XArbitraryZVertical,-0.261901251137632,0.2001542647060379,0.5947054759311319,-0.7332608992994326,0.01797762326896191,-0.6221495866775513,-0.782692015171051,0,0,0,-1,-1,3362.922261416667,walking,2,2022-05-12T10:41:51.615+02:00,2022-05-11T22:15:20.957+02:00,965,0.8971741,0.7273178,1.766518,725.3952,0,0,2022-05-12T10:41:51.615+02:00,674037711.6148489,0,-3.23,100.9488,1,0.93
2022-05-12T10:41:53.839+02:00,1652344910.999881,53.22899248921613,10.39847172797695,38.14962,0,0.84,204.2578125,98.21611218916738,4,5,-9999,3365.14501,-0.1682281494140625,-0.686492919921875,-0.6081390380859375,3365.135015,-1.374311621200937,0.0217885443015211,0.6691033595881104,-0.264867752790451,-0.3971168100833893,-0.3047887086868286,-0.01371753215789795,0.01366961002349854,0.04908466339111328,XArbitraryZVertical,-0.2603411067768662,0.2003160093040973,0.5963708658232831,-0.7324192330432919,0.0170891061425209,-0.6202829480171204,-0.7841920256614685,0,0,0,-1,-1,3362.922261416667,walking,2,2022-05-12T10:41:51.615+02:00,2022-05-11T22:15:20.957+02:00,965,0.8971741,0.7273178,1.766518,725.3952,0,0,2022-05-12T10:41:51.615+02:00,674037711.6148489,0,-3.23,100.9488,1,0.93
2022-05-12T10:41:53.849+02:00,1652344910.999881,53.22899248921613,10.39847172797695,38.14962,0,0.84,204.2578125,98.21611218916738,4,5,-9999,3365.155005,-0.08782958984375,-0.6722259521484375,-0.6815948486328125,3365.14501,-1.381164534176455,0.0211868921565641,0.6643902226736553,-0.7461157441139221,-0.4272910058498383,-0.8739317655563354,-0.009202837944030762,0.001222610473632812,0.06919026374816895,XArbitraryZVertical,-0.2577617327658652,0.2000019142410012,0.5994644126549861,-0.7308903262728074,0.01667904295027256,-0.6165791749954224,-0.7871162295341492,0,0,0,-1,-1,3362.922261416667,walking,2,2022-05-12T10:41:51.615+02:00,2022-05-11T22:15:20.957+02:00,965,0.8971741,0.7273178,1.766518,725.3952,0,0,2022-05-12T10:41:51.615+02:00,674037711.6148489,0,-3.23,100.9488,1,0.93
2022-05-12T10:41:53.859+02:00,1652344910.999881,53.22899248921613,10.39847172797695,38.14962,0,0.84,204.2578125,98.21611218916738,4,5,-9999,3365.165,-0.191802978515625,-0.6019134521484375,-0.605621337890625,3365.155005,-1.389566006352386,0.02396864767588883,0.6566908218110031,-0.7785496115684509,-0.2360494285821915,-0.5322479009628296,-0.1872105300426483,-0.07599377632141113,0.1836503744125366,XArbitraryZVertical,-0.254969397053788,0.197726880190394,0.6030042109439605,-0.7295757769841104,0.01898175477981567,-0.6104992628097534,-0.7917893528938293,0,0,0,-1,-1,3362.922261416667,walking,2,2022-05-12T10:41:51.615+02:00,2022-05-11T22:15:20.957+02:00,965,0.8971741,0.7273178,1.766518,725.3952,0,0,2022-05-12T10:41:51.615+02:00,674037711.6148489,0,-3.23,100.9488,1,0.93
2022-05-12T10:41:53.869+02:00,1652344910.999881,53.22899248921613,10.39847172797695,38.14962,0,0.84,204.2578125,98.21611218916738,4,5,-9999,3365.174995,-0.2758026123046875,-0.748565673828125,-0.594818115234375,3365.165,-1.393469885833331,0.02334540151901462,0.6501435684430072,-0.4954679310321808,-0.2962048351764679,-0.002856539096683264,-0.1064113974571228,-0.06692534685134888,0.1141852736473083,XArbitraryZVertical,-0.2520247541704454,0.1964522865450161,0.605208351429747,-0.7291179873793494,0.01858117990195751,-0.6053006649017334,-0.7957800626754761,0,0,0,-1,-1,3362.922261416667,walking,2,2022-05-12T10:41:51.615+02:00,2022-05-11T22:15:20.957+02:00,965,0.8971741,0.7273178,1.766518,725.3952,0,0,2022-05-12T10:41:51.615+02:00,674037711.6148489,0,-3.23,100.9488,1,0.93
2022-05-12T10:41:53.879+02:00,1652344910.999881,53.22899248921613,10.39847172797695,38.14962,0,0.84,204.2578125,98.21611218916738,4,5,-9999,3365.18499,-0.0638885498046875,-0.7371978759765625,-0.5166168212890625,3365.174995,-1.397145036030018,0.02445917046833629,0.6442760869288851,-0.6780736446380615,-0.02268487960100174,-0.5643011927604675,-0.2113576233386993,-0.001293778419494629,0.1936743855476379,XArbitraryZVertical,-0.2498786297187489,0.1947121911258116,0.6070328637234691,-0.7288066304771773,0.0195540077984333,-0.6006197929382324,-0.7992956638336182,0,0,0,-1,-1,3362.922261416667,walking,2,2022-05-12T10:41:51.615+02:00,2022-05-11T22:15:20.957+02:00,965,0.8971741,0.7273178,1.766518,725.3952,0,0,2022-05-12T10:41:51.615+02:00,674037711.6148489,0,-3.23,100.9488,1,0.93
2022-05-12T10:41:53.889+02:00,1652344910.999881,53.22899248921613,10.39847172797695,38.14962,0,0.84,204.2578125,98.21611218916738,4,5,-9999,3365.194985,-0.2020263671875,-0.70770263671875,-0.49273681640625,3365.18499,-1.404475414320929,0.02769970242778718,0.6364926895200755,-0.8730213046073914,-0.2006020843982697,-0.6443095803260803,-0.2980760633945465,-0.1541872024536133,0.2090588212013245,XArbitraryZVertical,-0.247342160132918,0.1920505652047523,0.6101256739321831,-0.7277946750268633,0.02227284759283066,-0.5943785905838013,-0.8038768768310547,0,0,0,-1,-1,3362.922261416667,walking,2,2022-05-12T10:41:51.615+02:00,2022-05-11T22:15:20.957+02:00,965,0.8971741,0.7273178,1.766518,725.3952,0,0,2022-05-12T10:41:51.615+02:00,674037711.6148489,0,-3.23,100.9488,1,0.93
2022-05-12T10:41:53.899+02:00,1652344910.999881,53.22899248921613,10.39847172797695,38.14962,0,0.84,204.2578125,98.21611218916738,4,5,-9999,3365.20498,-0.28729248046875,-0.84552001953125,-0.5043182373046875,3365.194985,-1.413340077544321,0.030759867339692,0.6258496767870683,-1.260601758956909,-0.2545425295829773,-0.8503950834274292,-0.08881503343582153,-0.1514118909835815,0.2934655547142029,XArbitraryZVertical,-0.2435963439338168,0.1887317157731716,0.6140990920273798,-0.7265834985186127,0.02492588572204113,-0.5857861042022705,-0.8100823163986206,0,0,0,-1,-1,3362.922261416667,walking,2,2022-05-12T10:41:51.615+02:00,2022-05-11T22:15:20.957+02:00,965,0.8971741,0.7273178,1.766518,725.3952,0,0,2022-05-12T10:41:51.615+02:00,674037711.6148489,0,-3.23,100.9488,1,0.93
2022-05-12T10:41:53.909+02:00,1652344910.999881,53.22899248921613,10.39847172797695,38.14962,0,0.84,204.2578125,98.21611218916738,4,5,-9999,3365.214975,-0.244140625,-0.9038543701171875,-0.54193115234375,3365.20498,-1.424698839356549,0.03505748946751091,0.6099045811592463,-1.83124852180481,-0.1958101838827133,-1.041908144950867,-0.2307578325271606,-0.1349135637283325,0.3264622688293457,XArbitraryZVertical,-0.2381288878704098,0.1835622754556792,0.619378037169362,-0.7252382669271293,0.02873083390295506,-0.5727892518043518,-0.8191990256309509,0,0,0,-1,-1,3362.922261416667,walking,2,2022-05-12T10:41:51.615+02:00,2022-05-11T22:15:20.957+02:00,965,0.8971741,0.7273178,1.766518,725.3952,0,0,2022-05-12T10:41:51.615+02:00,674037711.6148489,0,-3.23,100.9488,1,0.93
2022-05-12T10:41:53.919+02:00,1652344910.999881,53.22899248921613,10.39847172797695,38.14962,0,0.84,204.2578125,98.21611218916738,4,5,-9999,3365.22497,-0.2803192138671875,-0.895355224609375,-0.5441436767578125,3365.214975,-1.436829293633509,0.0400358792443611,0.5882100718734604,-2.470320224761963,-0.182697057723999,-1.154623746871948,-0.3205914497375488,-0.2906473875045776,0.3269503712654114,XArbitraryZVertical,-0.2308041228774452,0.1763382530182271,0.6254358835830842,-0.7241990784826871,0.03329836204648018,-0.5548728108406067,-0.8312685489654541,0,0,0,-1,-1,3362.922261416667,walking,2,2022-05-12T10:41:51.615+02:00,2022-05-11T22:15:20.957+02:00,965,0.8971741,0.7273178,1.766518,725.3952,0,0,2022-05-12T10:41:51.615+02:00,674037711.6148489,0,-3.23,100.9488,1,0.93
2022-05-12T10:41:53.929+02:00,1652344910.999881,53.22899248921613,10.39847172797695,38.14962,0,0.84,204.2578125,98.21611218916738,4,5,-9999,3365.234965,-0.3487548828125,-0.92974853515625,-0.6179046630859375,3365.22497,-1.450305564870979,0.04519232109937459,0.5593476540113584,-3.175225496292114,-0.2236089259386063,-1.338210821151733,-0.2824332714080811,-0.3732210993766785,0.3048049807548523,XArbitraryZVertical,-0.2209400558721332,0.1667856899890937,0.6326491026268173,-0.7232725319900584,0.03829203918576241,-0.5306333899497986,-0.8467360734939575,0,0,0,-1,-1,3362.922261416667,walking,2,2022-05-12T10:41:51.615+02:00,2022-05-11T22:15:20.957+02:00,965,0.8971741,0.7273178,1.766518,725.3952,0,0,2022-05-12T10:41:51.615+02:00,674037711.6148489,0,-3.23,100.9488,1,0.93
2022-05-12T10:41:53.939+02:00,1652344910.999881,53.22899248921613,10.39847172797695,38.14962,0,0.84,204.2578125,98.21611218916738,4,5,-9999,3365.24496,-0.381591796875,-0.92755126953125,-0.63433837890625,3365.234965,-1.464059185245374,0.05090597674393228,0.5237591871381536,-3.852030277252197,-0.1024153903126717,-1.369067549705505,-0.3243825435638428,-0.3952164649963379,0.320679783821106,XArbitraryZVertical,-0.2089403505208578,0.1547004081785142,0.6404821392353606,-0.7226302065176053,0.04406274855136871,-0.5001389384269714,-0.8648234009742737,0,0,0,-1,-1,3362.922261416667,walking,2,2022-05-12T10:41:51.615+02:00,2022-05-11T22:15:20.957+02:00,965,0.8971741,0.7273178,1.766518,725.3952,0,0,2022-05-12T10:41:51.615+02:00,674037711.6148489,0,-3.23,100.9488,1,0.93
2022-05-12T10:41:53.949+02:00,1652344910.999881,53.22899248921613,10.39847172797695,38.14962,0,0.84,204.2578125,98.21611218916738,4,5,-9999,3365.254955,-0.4175262451171875,-0.70062255859375,-0.73199462890625,3365.24496,-1.477810306536862,0.05692453250569484,0.4806685933059278,-4.529500961303711,-0.004741231445223093,-1.485321521759033,-0.3992024064064026,-0.4673765897750854,0.267345130443573,XArbitraryZVertical,-0.1944953341300826,0.1398094463835585,0.6488499394080603,-0.7222317460230193,0.05044693127274513,-0.4623721241950989,-0.8852497935295105,0,0,0,-1,-1,3362.922261416667,walking,2,2022-05-12T10:41:51.615+02:00,2022-05-11T22:15:20.957+02:00,965,0.8971741,0.7273178,1.766518,725.3952,0,0,2022-05-12T10:41:51.615+02:00,674037711.6148489,0,-3.23,100.9488,1,0.93
2022-05-12T10:41:53.959+02:00,1652344910.999881,53.22899248921613,10.39847172797695,38.14962,0,0.84,204.2578125,98.21611218916738,4,5,-9999,3365.26495,-0.3669586181640625,-0.610137939453125,-0.7743072509765625,3365.254955,-1.491992049923872,0.06536913161576474,0.4340378600479008,-4.742476463317871,0.3479669988155365,-1.607237219810486,-0.4408579766750336,-0.507013738155365,0.270999014377594,XArbitraryZVertical,-0.1797077166665481,0.1226232881011484,0.6572621566383503,-0.7215782988549982,0.05926555395126343,-0.4205376803874969,-0.9053373336791992,0,0,0,-1,-1,3362.922261416667,walking,2,2022-05-12T10:41:51.615+02:00,2022-05-11T22:15:20.957+02:00,965,0.8971741,0.7273178,1.766518,725.3952,0,0,2022-05-12T10:41:51.615+02:00,674037711.6148489,0,-3.23,100.9488,1,0.93
2022-05-12T10:41:53.969+02:00,1652344911.999883,53.22899248921613,10.39847172797695,38.44656,0,0.78,223.9453125,99.47924639313452,4,5,-9999,3365.274946,-0.445404052734375,-0.63037109375,-0.8593597412109375,3365.26495,-1.505666707347948,0.07384673232998572,0.3838301843136001,-5.07378101348877,0.3575631976127625,-1.612079858779907,-0.4859380722045898,-0.3261480331420898,0.1927154064178467,XArbitraryZVertical,-0.1638736581834641,0.1038769407888455,0.6655610167243845,-0.7206826730014882,0.0684112161397934,-0.3744747042655945,-0.9247100353240967,0,0,0,-1,-1,3362.922261416667,walking,2,2022-05-12T10:41:51.615+02:00,2022-05-11T22:15:20.957+02:00,965,0.8971741,0.7273178,1.766518,725.3952,0,0,2022-05-12T10:41:51.615+02:00,674037711.6148489,0,-3.23,100.9488,1,0.93
2022-05-12T10:41:53.979+02:00,1652344911.999883,53.22899248921613,10.39847172797695,38.44656,0,0.78,223.9453125,99.47924639313452,4,5,-9999,3365.284941,-0.486114501953125,-0.5526885986328125,-0.9192962646484375,3365.274946,-1.519122244802137,0.08324801046708412,0.3295988399973824,-5.610788345336914,0.6715916395187378,-1.76542866230011,-0.4456352293491364,-0.2864746451377869,0.1685883402824402,XArbitraryZVertical,-0.1471250588505482,0.0831049610024521,0.6737349628867959,-0.7193949623621337,0.0786760151386261,-0.3236634731292725,-0.9428955912590027,0,0,0,-1,-1,3362.922261416667,walking,2,2022-05-12T10:41:51.615+02:00,2022-05-11T22:15:20.957+02:00,965,0.8971741,0.7273178,1.766518,725.3952,0,0,2022-05-12T10:41:51.615+02:00,674037711.6148489,0,-3.23,100.9488,1,0.93
2022-05-12T10:41:53.989+02:00,1652344911.999883,53.22899248921613,10.39847172797695,38.44656,0,0.78,223.9453125,99.47924639313452,4,5,-9999,3365.294936,-0.300018310546875,-0.19482421875,-1.036285400390625,3365.284941,-1.533377409753101,0.09475132190515453,0.2707620754092802,-5.64346981048584,0.7740985751152039,-2.002284526824951,-0.5365673899650574,-0.3629054427146912,0.09988552331924438,XArbitraryZVertical,-0.1296505430654821,0.05973380989478053,0.6820316126020207,-0.7172555065657454,0.09116272628307343,-0.2674658298492432,-0.9592452049255371,0,0,0,-1,-1,3362.922261416667,walking,2,2022-05-12T10:41:51.615+02:00,2022-05-11T22:15:20.957+02:00,965,0.8971741,0.7273178,1.766518,725.3952,0,0,2022-05-12T10:41:51.615+02:00,674037711.6148489,0,-3.23,100.9488,1,0.93
2022-05-12T10:41:53.999+02:00,1652344911.999883,53.22899248921613,10.39847172797695,38.44656,0,0.78,223.9453125,99.47924639313452,4,5,-9999,3365.304931,-0.19708251953125,-0.2699737548828125,-1.069198608398438,3365.294936,-1.548087545523541,0.107651298731742,0.214327728923115,-5.385563373565674,0.8402714729309082,-1.883980989456177,-0.5911002159118652,-0.3399982154369354,0.05216693878173828,XArbitraryZVertical,-0.113766408214053,0.03640856449693453,0.6899011240990505,-0.7139803856443395,0.1049851402640343,-0.2126905918121338,-0.9714632630348206,0,0,0,-1,-1,3362.922261416667,walking,2,2022-05-12T10:41:51.615+02:00,2022-05-11T22:15:20.957+02:00,965,0.8971741,0.7273178,1.766518,725.3952,0,0,2022-05-12T10:41:51.615+02:00,674037711.6148489,0,-3.23,100.9488,1,0.93
2022-05-12T10:41:54.009+02:00,1652344911.999883,53.22899248921613,10.39847172797695,38.44656,0,0.78,223.9453125,99.47924639313452,4,5,-9999,3365.314926,-0.3819732666015625,-0.426666259765625,-1.094024658203125,3365.304931,-1.561537487427955,0.1179420444311189,0.1588641880869838,-5.333674907684326,0.8137860298156738,-2.101491451263428,-0.4162059426307678,-0.03662762045860291,-0.05573743581771851,XArbitraryZVertical,-0.0976195610293169,0.01401537538871889,0.6970648189381754,-0.7101934689262971,0.1161870658397675,-0.1581968069076538,-0.9805479645729065,0,0,0,-1,-1,3362.922261416667,walking,2,2022-05-12T10:41:51.615+02:00,2022-05-11T22:15:20.957+02:00,965,0.8971741,0.7273178,1.766518,725.3952,0,0,2022-05-12T10:41:51.615+02:00,674037711.6148489,0,-3.23,100.9488,1,0.93
2022-05-12T10:41:54.020+02:00,1652344911.999883,53.22899248921613,10.39847172797695,38.44656,0,0.78,223.9453125,99.47924639313452,4,5,-9999,3365.324921,-0.382843017578125,-0.3465576171875,-1.10430908203125,3365.314926,-1.577204089240992,0.1291387333775071,0.1026603505683731,-5.489310264587402,1.021373271942139,-2.313836336135864,-0.3251851797103882,-0.1674938350915909,-0.08274656534194946,XArbitraryZVertical,-0.08179957037019325,-0.009099220900235504,0.7046245961869413,-0.7047909256770151,0.1281020790338516,-0.1024801209568977,-0.986452043056488,0,0,0,-1,-1,3362.922261416667,walking,2,2022-05-12T10:41:51.615+02:00,2022-05-11T22:15:20.957+02:00,965,0.8971741,0.7273178,1.766518,725.3952,0,0,2022-05-12T10:41:51.615+02:00,674037711.6148489,0,-3.23,100.9488,1,0.93
2022-05-12T10:41:54.043+02:00,1652344911.999883,53.22899248921613,10.39847172797695,38.44656,0,0.78,223.9453125,99.47924639313452,4,5,-9999,3365.334916,-0.21319580078125,0.003143310546875,-1.087509155273438,3365.324921,-1.593342784508616,0.142579661553219,0.04607933633164122,-5.144615650177002,1.482495784759521,-2.459726333618164,-0.5239200592041016,-0.3806034326553345,-0.1052227020263672,XArbitraryZVertical,-0.06698237965186635,-0.03335180976974373,0.7118803766711715,-0.6983032672376974,0.1419462412595749,-0.04606303200125694,-0.9888020157814026,0,0,0,-1,-1,3362.922261416667,walking,2,2022-05-12T10:41:51.615+02:00,2022-05-11T22:15:20.957+02:00,965,0.8971741,0.7273178,1.766518,725.3952,0,0,2022-05-12T10:41:51.615+02:00,674037711.6148489,0,-3.23,100.9488,1,0.93
2022-05-12T10:41:54.047+02:00,1652344911.999883,53.22899248921613,10.39847172797695,38.44656,0,0.78,223.9453125,99.47924639313452,4,5,-9999,3365.344911,-0.1916351318359375,-0.0655364990234375,-1.073944091796875,3365.334916,-1.610285277251423,0.1590656812974236,-0.006587813443535246,-4.811691761016846,1.631624460220337,-2.470054149627686,-0.5412359237670898,-0.3531455993652344,-0.1169548630714417,XArbitraryZVertical,-0.05500134623974012,-0.0574257040623756,0.7188280515915763,-0.6906253512518635,0.1583923101425171,0.006587765645235777,-0.9873542785644531,0,0,0,-1,-1,3362.922261416667,walking,2,2022-05-12T10:41:51.615+02:00,2022-05-11T22:15:20.957+02:00,965,0.8971741,0.7273178,1.766518,725.3952,0,0,2022-05-12T10:41:51.615+02:00,674037711.6148489,0,-3.23,100.9488,1,0.93
