loggingTime(txt),locationTimestamp_since1970(s),locationLatitude(WGS84),locationLongitude(WGS84),locationAltitude(m),locationSpeed(m/s),locationSpeedAccuracy(m/s),locationCourse(°),locationCourseAccuracy(°),locationVerticalAccuracy(m),locationHorizontalAccuracy(m),locationFloor(Z),accelerometerTimestamp_sinceReboot(s),accelerometerAccelerationX(G),accelerometerAccelerationY(G),accelerometerAccelerationZ(G),motionTimestamp_sinceReboot(s),motionYaw(rad),motionRoll(rad),motionPitch(rad),motionRotationRateX(rad/s),motionRotationRateY(rad/s),motionRotationRateZ(rad/s),motionUserAccelerationX(G),motionUserAccelerationY(G),motionUserAccelerationZ(G),motionAttitudeReferenceFrame(txt),motionQuaternionX(R),motionQuaternionY(R),motionQuaternionZ(R),motionQuaternionW(R),motionGravityX(G),motionGravityY(G),motionGravityZ(G),motionMagneticFieldX(µT),motionMagneticFieldY(µT),motionMagneticFieldZ(µT),motionHeading(°),motionMagneticFieldCalibrationAccuracy(Z),activityTimestamp_sinceReboot(s),activity(txt),activityActivityConfidence(Z),activityActivityStartDate(txt),pedometerStartDate(txt),pedometerNumberofSteps(N),pedometerAverageActivePace(s/m),pedometerCurrentPace(s/m),pedometerCurrentCadence(steps/s),pedometerDistance(m),pedometerFloorAscended(N),pedometerFloorDescended(N),pedometerEndDate(txt),altimeterTimestamp_sinceReboot(s),altimeterReset(bool),altimeterRelativeAltitude(m),altimeterPressure(kPa),batteryState(N),batteryLevel(R)
2022-05-12T10:42:53.056+02:00,1652344970.585783,53.22877076722973,10.39831604094023,46.91142,-1,-1,-1,-1,5.885479927062988,36,-9999,3414.934620125,0.08282470703125,-0.5137939453125,-0.822967529296875,3414.929622125,0.1364493573239223,0.07872491483558784,0.5362298207124991,0.02923655137419701,-0.009050892665982246,-0.09731453657150269,-0.007867209613323212,-0.004649579524993896,0.03764230012893677,XArbitraryZVertical,0.261506249822662,0.05590370268066729,0.07608592012865983,0.960572951526771,0.06760527938604355,-0.5108986496925354,-0.8569785356521606,0,0,0,-1,-1,3414.890552125,walking,2,2022-05-12T10:42:52.978+02:00,2022-05-11T22:15:20.957+02:00,1046,0.8888014,0.7434952,1.753966,785.0757,0,0,2022-05-12T10:42:52.978+02:00,674037772.9780656,0,-2.810001,100.9398,1,0.93
2022-05-12T10:42:53.061+02:00,1652344970.585783,53.22877076722973,10.39831604094023,46.91142,-1,-1,-1,-1,5.885479927062988,36,-9999,3414.944615125,0.0828857421875,-0.5158233642578125,-0.8280487060546875,3414.939617125,0.1352545737506003,0.07940952409805831,0.5362621018499065,-0.03197060897946358,-0.01938528940081596,-0.08348900079727173,0.01463397592306137,-0.002867043018341064,0.03394776582717896,XArbitraryZVertical,0.2615292796561995,0.05607717912152874,0.07560192381327444,0.9605947279001467,0.06819064915180206,-0.510926365852356,-0.8569155931472778,0,0,0,-1,-1,3414.890552125,walking,2,2022-05-12T10:42:52.978+02:00,2022-05-11T22:15:20.957+02:00,1046,0.8888014,0.7434952,1.753966,785.0757,0,0,2022-05-12T10:42:52.978+02:00,674037772.9780656,0,-2.810001,100.9398,1,0.93
2022-05-12T10:42:53.063+02:00,1652344970.585783,53.22877076722973,10.39831604094023,46.91142,-1,-1,-1,-1,5.885479927062988,36,-9999,3414.954610125,0.0825347900390625,-0.527557373046875,-0.8429107666015625,3414.949612125,0.1344842377473895,0.07956384279437403,0.5356685415764202,-0.09186084568500519,-0.03035378456115723,-0.06236959993839264,0.01453869044780731,-0.005406856536865234,0.02915823459625244,XArbitraryZVertical,0.2612595108436319,0.05603446076374943,0.07524602142818677,0.96069863390542,0.06834698468446732,-0.5104160308837891,-0.8572072386741638,0,0,0,-1,-1,3414.890552125,walking,2,2022-05-12T10:42:52.978+02:00,2022-05-11T22:15:20.957+02:00,1046,0.8888014,0.7434952,1.753966,785.0757,0,0,2022-05-12T10:42:52.978+02:00,674037772.9780656,0,-2.810001,100.9398,1,0.93
2022-05-12T10:42:53.070+02:00,1652344970.585783,53.22877076722973,10.39831604094023,46.91142,-1,-1,-1,-1,5.885479927062988,36,-9999,3414.964605125,0.088165283203125,-0.53729248046875,-0.8486175537109375,3414.959607125,0.134111037523034,0.07917258061974795,0.5345748793558374,-0.1463880687952042,-0.05279744043946266,-0.03939171135425568,0.01447901874780655,-0.01808160543441772,0.01487874984741211,XArbitraryZVertical,0.2607584855054462,0.05576816297979374,0.07500449579791815,0.9608691133322697,0.06805569678544998,-0.5094752907752991,-0.8577898740768433,0,0,0,-1,-1,3414.890552125,walking,2,2022-05-12T10:42:52.978+02:00,2022-05-11T22:15:20.957+02:00,1046,0.8888014,0.7434952,1.753966,785.0757,0,0,2022-05-12T10:42:52.978+02:00,674037772.9780656,0,-2.810001,100.9398,1,0.93
2022-05-12T10:42:53.072+02:00,1652344970.585783,53.22877076722973,10.39831604094023,46.91142,-1,-1,-1,-1,5.885479927062988,36,-9999,3414.974600125,0.082489013671875,-0.5316925048828125,-0.8596343994140625,3414.969602125,0.1343673255018256,0.07784598621482879,0.5329456408865967,-0.1906924098730087,-0.08395722508430481,-0.006066513247787952,0.02118304371833801,-0.02921938896179199,0.01008790731430054,XArbitraryZVertical,0.2600171504876641,0.05511986369610975,0.07493856121198585,0.9611124816434798,0.06698215752840042,-0.5080726742744446,-0.8587057590484619,0,0,0,-1,-1,3414.890552125,walking,2,2022-05-12T10:42:52.978+02:00,2022-05-11T22:15:20.957+02:00,1046,0.8888014,0.7434952,1.753966,785.0757,0,0,2022-05-12T10:42:52.978+02:00,674037772.9780656,0,-2.810001,100.9398,1,0.93
2022-05-12T10:42:53.074+02:00,1652344970.585783,53.22877076722973,10.39831604094023,46.91142,-1,-1,-1,-1,5.885479927062988,36,-9999,3414.984595125,0.069091796875,-0.5279541015625,-0.880096435546875,3414.979597125,0.1346746742093405,0.07658255418919518,0.5315882101618867,-0.2080003917217255,-0.1052246317267418,0.01066819112747908,0.01653904467821121,-0.02478903532028198,-0.0001581311225891113,XArbitraryZVertical,0.2594027417041412,0.05451545749100166,0.07490898372844704,0.9613152576795367,0.06594988703727722,-0.5069029927253723,-0.8594765663146973,0,0,0,-1,-1,3414.890552125,walking,2,2022-05-12T10:42:52.978+02:00,2022-05-11T22:15:20.957+02:00,1046,0.8888014,0.7434952,1.753966,785.0757,0,0,2022-05-12T10:42:52.978+02:00,674037772.9780656,0,-2.810001,100.9398,1,0.93
2022-05-12T10:42:53.084+02:00,1652344970.585783,53.22877076722973,10.39831604094023,46.91142,-1,-1,-1,-1,5.885479927062988,36,-9999,3414.994590125,0.0689849853515625,-0.51763916015625,-0.89105224609375,3414.989592125,0.1349543511301935,0.07554666927954101,0.5298653748554317,-0.2037574499845505,-0.1101331040263176,0.03272049874067307,0.003966361284255981,-0.02253645658493042,-0.01968276500701904,XArbitraryZVertical,0.2586045975124593,0.05400632892643573,0.07489295315624514,0.9615602331831176,0.06512535363435745,-0.5054171681404114,-0.8604139685630798,0,0,0,-1,-1,3414.890552125,walking,2,2022-05-12T10:42:52.978+02:00,2022-05-11T22:15:20.957+02:00,1046,0.8888014,0.7434952,1.753966,785.0757,0,0,2022-05-12T10:42:52.978+02:00,674037772.9780656,0,-2.810001,100.9398,1,0.93
2022-05-12T10:42:53.094+02:00,1652344970.585783,53.22877076722973,10.39831604094023,46.91142,-1,-1,-1,-1,5.885479927062988,36,-9999,3415.004585125,0.0728912353515625,-0.5136566162109375,-0.9049072265625,3414.999587125,0.135862186268152,0.07383125318188635,0.5282939102181954,-0.1661332845687866,-0.1153401806950569,0.08308413624763489,0.005277104675769806,-0.01357805728912354,-0.02973705530166626,XArbitraryZVertical,0.2578879133910891,0.05325509727366379,0.07509360679268086,0.9617789733960573,0.06370779871940613,-0.5040605664253235,-0.8613154292106628,0,0,0,-1,-1,3414.890552125,walking,2,2022-05-12T10:42:52.978+02:00,2022-05-11T22:15:20.957+02:00,1046,0.8888014,0.7434952,1.753966,785.0757,0,0,2022-05-12T10:42:52.978+02:00,674037772.9780656,0,-2.810001,100.9398,1,0.93
2022-05-12T10:42:53.105+02:00,1652344970.585783,53.22877076722973,10.39831604094023,46.91142,-1,-1,-1,-1,5.885479927062988,36,-9999,3415.014580125,0.0804595947265625,-0.50146484375,-0.9030609130859375,3415.009582125,0.137150429024753,0.07203025302200512,0.5272004866631743,-0.1251392364501953,-0.1063639968633652,0.1157230362296104,0.01069506257772446,-0.0105401873588562,-0.04292953014373779,XArbitraryZVertical,0.257395073668131,0.05252411846149821,0.07547167043195353,0.9619215909708289,0.06219609454274178,-0.5031159520149231,-0.8619779944419861,0,0,0,-1,-1,3414.890552125,walking,2,2022-05-12T10:42:52.978+02:00,2022-05-11T22:15:20.957+02:00,1046,0.8888014,0.7434952,1.753966,785.0757,0,0,2022-05-12T10:42:52.978+02:00,674037772.9780656,0,-2.810001,100.9398,1,0.93
2022-05-12T10:42:53.113+02:00,1652344970.585783,53.22877076722973,10.39831604094023,46.91142,-1,-1,-1,-1,5.885479927062988,36,-9999,3415.024575125,0.0781097412109375,-0.511871337890625,-0.8986053466796875,3415.019578125,0.1386810795117024,0.07028824101787286,0.5262759638459886,-0.1145119592547417,-0.1148649454116821,0.1371943801641464,0.01973244920372963,0.0008523464202880859,-0.0405125617980957,XArbitraryZVertical,0.2569758131736403,0.05185659942872422,0.07597633287998765,0.9620301689169576,0.0607270672917366,-0.5023167133331299,-0.8625486493110657,0,0,0,-1,-1,3414.890552125,walking,2,2022-05-12T10:42:52.978+02:00,2022-05-11T22:15:20.957+02:00,1046,0.8888014,0.7434952,1.753966,785.0757,0,0,2022-05-12T10:42:52.978+02:00,674037772.9780656,0,-2.810001,100.9398,1,0.93
2022-05-12T10:42:53.123+02:00,1652344970.585783,53.22877076722973,10.39831604094023,46.91142,-1,-1,-1,-1,5.885479927062988,36,-9999,3415.034570125,0.0610809326171875,-0.515167236328125,-0.9033660888671875,3415.029573125,0.1401626858609339,0.06858523176202012,0.5255982395637702,-0.06752181798219681,-0.09249038994312286,0.1187647730112076,0.01882829144597054,-0.01014024019241333,-0.03561538457870483,XArbitraryZVertical,0.2566761188106893,0.05120792801601561,0.07646515400725538,0.962106143833687,0.0592813678085804,-0.5017305612564087,-0.8629902601242065,0,0,0,-1,-1,3414.890552125,walking,2,2022-05-12T10:42:52.978+02:00,2022-05-11T22:15:20.957+02:00,1046,0.8888014,0.7434952,1.753966,785.0757,0,0,2022-05-12T10:42:52.978+02:00,674037772.9780656,0,-2.810001,100.9398,1,0.93
2022-05-12T10:42:53.133+02:00,1652344970.585783,53.22877076722973,10.39831604094023,46.91142,-1,-1,-1,-1,5.885479927062988,36,-9999,3415.044565125,0.0611114501953125,-0.5015716552734375,-0.8977203369140625,3415.039568125,0.141454107115794,0.06719298723801423,0.5252295944522163,-0.05476833507418633,-0.07120294868946075,0.1098269298672676,0.002988621592521667,-0.01375502347946167,-0.04010993242263794,XArbitraryZVertical,0.2565190228804236,0.05069296335471694,0.07690511986307483,0.9621402784270811,0.05809223279356956,-0.5014116764068604,-0.8632564544677734,0,0,0,-1,-1,3414.890552125,walking,2,2022-05-12T10:42:52.978+02:00,2022-05-11T22:15:20.957+02:00,1046,0.8888014,0.7434952,1.753966,785.0757,0,0,2022-05-12T10:42:52.978+02:00,674037772.9780656,0,-2.810001,100.9398,1,0.93
2022-05-12T10:42:53.143+02:00,1652344970.585783,53.22877076722973,10.39831604094023,46.91142,-1,-1,-1,-1,5.885479927062988,36,-9999,3415.054560125,0.0760345458984375,-0.5121307373046875,-0.9017181396484375,3415.049563125,0.1425567974753994,0.06598989410864894,0.524941102684504,-0.04655275121331215,-0.07989896833896637,0.08013295382261276,0.004048224538564682,-0.0004091262817382812,-0.03425061702728271,XArbitraryZVertical,0.2563986106778127,0.05024694791713215,0.07727935630725319,0.9621657731687541,0.05706314742565155,-0.501162052154541,-0.8634700179100037,0,0,0,-1,-1,3414.890552125,walking,2,2022-05-12T10:42:52.978+02:00,2022-05-11T22:15:20.957+02:00,1046,0.8888014,0.7434952,1.753966,785.0757,0,0,2022-05-12T10:42:52.978+02:00,674037772.9780656,0,-2.810001,100.9398,1,0.93
2022-05-12T10:42:53.153+02:00,1652344970.585783,53.22877076722973,10.39831604094023,46.91142,-1,-1,-1,-1,5.885479927062988,36,-9999,3415.064555125,0.07098388671875,-0.5055389404296875,-0.912506103515625,3415.059558125,0.1432213796326926,0.06497703600117255,0.5246871546758636,-0.02880238369107246,-0.07703127712011337,0.04280635342001915,0.01983765885233879,-0.01118797063827515,-0.03806406259536743,XArbitraryZVertical,0.2562988201525992,0.04983717292985306,0.07746759675058552,0.9621986072286741,0.05619680881500244,-0.5009422898292542,-0.8636543154716492,0,0,0,-1,-1,3414.890552125,walking,2,2022-05-12T10:42:52.978+02:00,2022-05-11T22:15:20.957+02:00,1046,0.8888014,0.7434952,1.753966,785.0757,0,0,2022-05-12T10:42:52.978+02:00,674037772.9780656,0,-2.810001,100.9398,1,0.93
2022-05-12T10:42:53.163+02:00,1652344970.585783,53.22877076722973,10.39831604094023,46.91142,-1,-1,-1,-1,5.885479927062988,36,-9999,3415.074550125,0.0682525634765625,-0.494537353515625,-0.9217529296875,3415.069553125,0.1437453905283338,0.06400850274862989,0.5245608632497966,-0.01612147502601147,-0.07471752166748047,0.05141768604516983,0.01561946049332619,-0.004705488681793213,-0.04873490333557129,XArbitraryZVertical,0.2562625380860603,0.04943451594064408,0.07759480894685165,0.9622187481222441,0.05536435171961784,-0.5008329749107361,-0.8637714982032776,0,0,0,-1,-1,3414.890552125,walking,2,2022-05-12T10:42:52.978+02:00,2022-05-11T22:15:20.957+02:00,1046,0.8888014,0.7434952,1.753966,785.0757,0,0,2022-05-12T10:42:52.978+02:00,674037772.9780656,0,-2.810001,100.9398,1,0.93
2022-05-12T10:42:53.173+02:00,1652344970.585783,53.22877076722973,10.39831604094023,46.91142,-1,-1,-1,-1,5.885479927062988,36,-9999,3415.084545125,0.0593109130859375,-0.5004730224609375,-0.926483154296875,3415.079548125,0.1443615323838572,0.06306204249482115,0.5244999330293281,-0.0009703189134597778,-0.06361420452594757,0.05970057845115662,0.01370375975966454,0.006243348121643066,-0.05789929628372192,XArbitraryZVertical,0.2562547758025424,0.04905624221026175,0.07776960745280778,0.9622260719965677,0.0545487254858017,-0.5007802248001099,-0.863853931427002,0,0,0,-1,-1,3414.890552125,walking,2,2022-05-12T10:42:52.978+02:00,2022-05-11T22:15:20.957+02:00,1046,0.8888014,0.7434952,1.753966,785.0757,0,0,2022-05-12T10:42:52.978+02:00,674037772.9780656,0,-2.810001,100.9398,1,0.93
2022-05-12T10:42:53.183+02:00,1652344970.585783,53.22877076722973,10.39831604094023,46.91142,-1,-1,-1,-1,5.885479927062988,36,-9999,3415.094541125,0.0547943115234375,-0.50885009765625,-0.9244384765625,3415.089543125,0.1450456247415344,0.06217679395013118,0.5244746372652239,0.001373795792460442,-0.05507024750113487,0.06629190593957901,0.005526073276996613,0.000285804271697998,-0.06256890296936035,XArbitraryZVertical,0.2562603334822939,0.04871720754630701,0.07798516024257436,0.9622243938375857,0.05378476530313492,-0.5007583498954773,-0.8639145493507385,0,0,0,-1,-1,3414.890552125,walking,2,2022-05-12T10:42:52.978+02:00,2022-05-11T22:15:20.957+02:00,1046,0.8888014,0.7434952,1.753966,785.0757,0,0,2022-05-12T10:42:52.978+02:00,674037772.9780656,0,-2.810001,100.9398,1,0.93
2022-05-12T10:42:53.193+02:00,1652344970.585783,53.22877076722973,10.39831604094023,46.91142,-1,-1,-1,-1,5.885479927062988,36,-9999,3415.104536125,0.0521697998046875,-0.5076751708984375,-0.9202728271484375,3415.099538125,0.1457844788542398,0.06141654508114407,0.5245283770797293,0.0142636951059103,-0.04018038138747215,0.06924574822187424,0.00166793167591095,-0.008044779300689697,-0.06051045656204224,XArbitraryZVertical,0.2562979554927576,0.04844778876881588,0.07824350103267563,0.9622070378463505,0.05312630906701088,-0.5008048415184021,-0.8639283180236816,0,0,0,-1,-1,3414.890552125,walking,2,2022-05-12T10:42:52.978+02:00,2022-05-11T22:15:20.957+02:00,1046,0.8888014,0.7434952,1.753966,785.0757,0,0,2022-05-12T10:42:52.978+02:00,674037772.9780656,0,-2.810001,100.9398,1,0.93
2022-05-12T10:42:53.203+02:00,1652344970.585783,53.22877076722973,10.39831604094023,46.91142,-1,-1,-1,-1,5.885479927062988,36,-9999,3415.114531125,0.05267333984375,-0.5127410888671875,-0.91058349609375,3415.109533125,0.1465426707561601,0.06076824497698699,0.5246799048217582,0.01222158316522837,-0.02833277732133865,0.06934481859207153,-0.0003918781876564026,-0.006738722324371338,-0.05638629198074341,XArbitraryZVertical,0.2563780432809029,0.04823781999835096,0.07852597353660321,0.962173170356015,0.05256159976124763,-0.500935971736908,-0.863886833190918,0,0,0,-1,-1,3414.890552125,walking,2,2022-05-12T10:42:52.978+02:00,2022-05-11T22:15:20.957+02:00,1046,0.8888014,0.7434952,1.753966,785.0757,0,0,2022-05-12T10:42:52.978+02:00,674037772.9780656,0,-2.810001,100.9398,1,0.93
2022-05-12T10:42:53.213+02:00,1652344970.585783,53.22877076722973,10.39831604094023,46.91142,-1,-1,-1,-1,5.885479927062988,36,-9999,3415.124526125,0.052398681640625,-0.5161590576171875,-0.9099273681640625,3415.119528125,0.1473130582244279,0.06022521066073328,0.5248435491943096,0.01552310399711132,-0.009172931313514709,0.06966973096132278,0.0005857199430465698,-0.01166296005249023,-0.04675036668777466,XArbitraryZVertical,0.2564596785424487,0.04808050828165616,0.07882779498306215,0.9621345932782625,0.05208753794431686,-0.5010775923728943,-0.8638333678245544,0,0,0,-1,-1,3414.890552125,walking,2,2022-05-12T10:42:52.978+02:00,2022-05-11T22:15:20.957+02:00,1046,0.8888014,0.7434952,1.753966,785.0757,0,0,2022-05-12T10:42:52.978+02:00,674037772.9780656,0,-2.810001,100.9398,1,0.93
2022-05-12T10:42:53.223+02:00,1652344970.585783,53.22877076722973,10.39831604094023,46.91142,-1,-1,-1,-1,5.885479927062988,36,-9999,3415.134521125,0.0552215576171875,-0.518035888671875,-0.9032440185546875,3415.129523125,0.1480739018330507,0.05989158680210718,0.5250165119806253,0.01699982583522797,0.01147562079131603,0.06630828976631165,0.0006044544279575348,-0.014931321144104,-0.04616343975067139,XArbitraryZVertical,0.2565378822739853,0.04802308264050312,0.07915186357763068,0.9620899951901748,0.0517941527068615,-0.5012273192405701,-0.863764226436615,0,0,0,-1,-1,3414.890552125,walking,2,2022-05-12T10:42:52.978+02:00,2022-05-11T22:15:20.957+02:00,1046,0.8888014,0.7434952,1.753966,785.0757,0,0,2022-05-12T10:42:52.978+02:00,674037772.9780656,0,-2.810001,100.9398,1,0.93
2022-05-12T10:42:53.233+02:00,1652344970.585783,53.22877076722973,10.39831604094023,46.91142,-1,-1,-1,-1,5.885479927062988,36,-9999,3415.144516125,0.0570220947265625,-0.5175018310546875,-0.897216796875,3415.139518125,0.1488117186383749,0.05975705990147502,0.5252113786269538,0.02127310261130333,0.02754054218530655,0.06862423568964005,0.00354936346411705,-0.01663947105407715,-0.03957062959671021,XArbitraryZVertical,0.2566193304660581,0.04805924016598732,0.07949044558663718,0.9620386015627221,0.05167211964726448,-0.5013958811759949,-0.8636736869812012,0,0,0,-1,-1,3414.890552125,walking,2,2022-05-12T10:42:52.978+02:00,2022-05-11T22:15:20.957+02:00,1046,0.8888014,0.7434952,1.753966,785.0757,0,0,2022-05-12T10:42:52.978+02:00,674037772.9780656,0,-2.810001,100.9398,1,0.93
2022-05-12T10:42:53.243+02:00,1652344970.585783,53.22877076722973,10.39831604094023,46.91142,-1,-1,-1,-1,5.885479927062988,36,-9999,3415.154511125,0.0548248291015625,-0.5195465087890625,-0.8936920166015625,3415.149513125,0.1495451815645275,0.05972042677207835,0.5254918640466381,0.03906967490911484,0.03387833386659622,0.06526518613100052,0.005389928817749023,-0.01586276292800903,-0.03368192911148071,XArbitraryZVertical,0.2567382380762419,0.04814475939390465,0.07983986760005432,0.9619736176286846,0.05163208395242691,-0.5016385912895203,-0.8635351061820984,0,0,0,-1,-1,3414.890552125,walking,2,2022-05-12T10:42:52.978+02:00,2022-05-11T22:15:20.957+02:00,1046,0.8888014,0.7434952,1.753966,785.0757,0,0,2022-05-12T10:42:52.978+02:00,674037772.9780656,0,-2.810001,100.9398,1,0.93
2022-05-12T10:42:53.253+02:00,1652344970.585783,53.22877076722973,10.39831604094023,46.91142,-1,-1,-1,-1,5.885479927062988,36,-9999,3415.164506125,0.051300048828125,-0.5143585205078125,-0.881195068359375,3415.159508125,0.1502042990992194,0.05980823512859697,0.525881908834234,0.0459330715239048,0.04206282645463943,0.0565243624150753,0.003128547221422195,-0.01757007837295532,-0.03035712242126465,XArbitraryZVertical,0.2569066450516933,0.04828420803533724,0.08016996963258695,0.9618942698186447,0.05169621109962463,-0.501975953578949,-0.8633351922035217,0,0,0,-1,-1,3414.890552125,walking,2,2022-05-12T10:42:52.978+02:00,2022-05-11T22:15:20.957+02:00,1046,0.8888014,0.7434952,1.753966,785.0757,0,0,2022-05-12T10:42:52.978+02:00,674037772.9780656,0,-2.810001,100.9398,1,0.93
2022-05-12T10:42:53.263+02:00,1652344970.585783,53.22877076722973,10.39831604094023,46.91142,-1,-1,-1,-1,5.885479927062988,36,-9999,3415.174501125,0.04949951171875,-0.51165771484375,-0.8729400634765625,3415.169503125,0.1507357085907692,0.06001079642267998,0.5264027059060743,0.06478692591190338,0.04823976382613182,0.04483654722571373,-0.000555429607629776,-0.01193171739578247,-0.01813173294067383,XArbitraryZVertical,0.2571364429831717,0.0484667906979175,0.08045399662410301,0.961799903625678,0.05185540020465851,-0.5024263262748718,-0.863063633441925,0,0,0,-1,-1,3414.890552125,walking,2,2022-05-12T10:42:52.978+02:00,2022-05-11T22:15:20.957+02:00,1046,0.8888014,0.7434952,1.753966,785.0757,0,0,2022-05-12T10:42:52.978+02:00,674037772.9780656,0,-2.810001,100.9398,1,0.93
2022-05-12T10:42:53.273+02:00,1652344970.585783,53.22877076722973,10.39831604094023,46.91142,-1,-1,-1,-1,5.885479927062988,36,-9999,3415.184495666667,0.052276611328125,-0.5177764892578125,-0.8655242919921875,3415.179498125,0.1511331043351825,0.06031133547489778,0.5270623847287651,0.07251105457544327,0.04904676601290703,0.03448557108640671,-0.002595361322164536,-0.008660614490509033,-0.01022332906723022,XArbitraryZVertical,0.2574322814030642,0.04868385372866572,0.08068683002081278,0.9616903404548165,0.05209479480981827,-0.502996563911438,-0.8627170324325562,0,0,0,-1,-1,3414.890552125,walking,2,2022-05-12T10:42:52.978+02:00,2022-05-11T22:15:20.957+02:00,1046,0.8888014,0.7434952,1.753966,785.0757,0,0,2022-05-12T10:42:52.978+02:00,674037772.9780656,0,-2.810001,100.9398,1,0.93
2022-05-12T10:42:53.283+02:00,1652344970.585783,53.22877076722973,10.39831604094023,46.91142,-1,-1,-1,-1,5.885479927062988,36,-9999,3415.194490666667,0.0544891357421875,-0.5187530517578125,-0.8559417724609375,3415.189493666667,0.1514151899057115,0.06063714747884543,0.5277507004665705,0.07347831130027771,0.04564830660820007,0.02448433823883533,-7.834285497665405e-05,-0.01418465375900269,-0.003170371055603027,XArbitraryZVertical,0.2577435873062693,0.04889922612211207,0.08086765836897439,0.9615808987168692,0.05235488340258598,-0.5035913586616516,-0.8623542189598083,0,0,0,-1,-1,3414.890552125,walking,2,2022-05-12T10:42:52.978+02:00,2022-05-11T22:15:20.957+02:00,1046,0.8888014,0.7434952,1.753966,785.0757,0,0,2022-05-12T10:42:52.978+02:00,674037772.9780656,0,-2.810001,100.9398,1,0.93
2022-05-12T10:42:53.293+02:00,1652344970.585783,53.22877076722973,10.39831604094023,46.91142,-1,-1,-1,-1,5.885479927062988,36,-9999,3415.204485666667,0.054443359375,-0.5150146484375,-0.849639892578125,3415.199488666667,0.1516157359454805,0.0609834501028214,0.5284196345292239,0.06576596945524216,0.04076999425888062,0.0162348635494709,0.001856088638305664,-0.01458340883255005,0.006057500839233398,XArbitraryZVertical,0.258046697624811,0.04911336880864043,0.08101192692670089,0.9614764057222883,0.05263296887278557,-0.5041691660881042,-0.8619995713233948,0,0,0,-1,-1,3414.890552125,walking,2,2022-05-12T10:42:52.978+02:00,2022-05-11T22:15:20.957+02:00,1046,0.8888014,0.7434952,1.753966,785.0757,0,0,2022-05-12T10:42:52.978+02:00,674037772.9780656,0,-2.810001,100.9398,1,0.93
2022-05-12T10:42:53.303+02:00,1652344970.585783,53.22877076722973,10.39831604094023,46.91142,-1,-1,-1,-1,5.885479927062988,36,-9999,3415.214480666667,0.0615386962890625,-0.5158843994140625,-0.8520660400390625,3415.209483666667,0.1517569273138344,0.06126337404865051,0.5289806901566052,0.05090712755918503,0.03088567033410072,0.01591129042208195,0.001586351543664932,-0.01036053895950317,0.01206213235855103,XArbitraryZVertical,0.2583019174449416,0.0492844301790646,0.08111863044138655,0.9613901533347945,0.0528569370508194,-0.5046536326408386,-0.8617023229598999,0,0,0,-1,-1,3414.890552125,walking,2,2022-05-12T10:42:52.978+02:00,2022-05-11T22:15:20.957+02:00,1046,0.8888014,0.7434952,1.753966,785.0757,0,0,2022-05-12T10:42:52.978+02:00,674037772.9780656,0,-2.810001,100.9398,1,0.93
2022-05-12T10:42:53.313+02:00,1652344970.585783,53.22877076722973,10.39831604094023,46.91142,-1,-1,-1,-1,5.885479927062988,36,-9999,3415.224475666667,0.0595855712890625,-0.5120086669921875,-0.85308837890625,3415.219478666667,0.1519200180274166,0.06143312714638138,0.5293991637203673,0.03731575235724449,0.01571297645568848,0.01956474781036377,0.008548378944396973,-0.01086908578872681,0.009416162967681885,XArbitraryZVertical,0.2584924089479141,0.04940073446401676,0.08122098369924563,0.9613243455029098,0.05299024283885956,-0.5050148367881775,-0.8614825010299683,0,0,0,-1,-1,3414.890552125,walking,2,2022-05-12T10:42:52.978+02:00,2022-05-11T22:15:20.957+02:00,1046,0.8888014,0.7434952,1.753966,785.0757,0,0,2022-05-12T10:42:52.978+02:00,674037772.9780656,0,-2.810001,100.9398,1,0.93
2022-05-12T10:42:53.329+02:00,1652344970.585783,53.22877076722973,10.39831604094023,46.91142,-1,-1,-1,-1,5.885479927062988,36,-9999,3415.234470666667,0.0579986572265625,-0.509033203125,-0.8486328125,3415.229473666667,0.1521347985201697,0.06139154503043771,0.529629030910139,0.01295102294534445,-0.003280421253293753,0.02512862160801888,0.00663820281624794,-0.006794989109039307,0.008280158042907715,XArbitraryZVertical,0.2585993986419031,0.04941600530307405,0.08131994815765255,0.9612864923613239,0.05294729769229889,-0.5052132606506348,-0.8613688349723816,0,0,0,-1,-1,3414.890552125,walking,2,2022-05-12T10:42:52.978+02:00,2022-05-11T22:15:20.957+02:00,1046,0.8888014,0.7434952,1.753966,785.0757,0,0,2022-05-12T10:42:52.978+02:00,674037772.9780656,0,-2.810001,100.9398,1,0.93
2022-05-12T10:42:53.333+02:00,1652344970.585783,53.22877076722973,10.39831604094023,46.91142,-1,-1,-1,-1,5.885479927062988,36,-9999,3415.244465666667,0.0590972900390625,-0.511138916015625,-0.8426513671875,3415.239468666667,0.1524384140239558,0.06110169324875504,0.529631620532262,-0.01141636911779642,-0.02463071793317795,0.02980220317840576,0.005301035940647125,-0.003817260265350342,0.01274967193603516,XArbitraryZVertical,0.2586049461315655,0.04931603367602813,0.08142841350997572,0.9612809444926559,0.05269754678010941,-0.5052154660224915,-0.8613828420639038,0,0,0,-1,-1,3414.890552125,walking,2,2022-05-12T10:42:52.978+02:00,2022-05-11T22:15:20.957+02:00,1046,0.8888014,0.7434952,1.753966,785.0757,0,0,2022-05-12T10:42:52.978+02:00,674037772.9780656,0,-2.810001,100.9398,1,0.93
2022-05-12T10:42:53.343+02:00,1652344970.585783,53.22877076722973,10.39831604094023,46.91142,-1,-1,-1,-1,5.885479927062988,36,-9999,3415.254460666667,0.058929443359375,-0.50079345703125,-0.8336639404296875,3415.249463666667,0.1528438658467508,0.06054120432197007,0.5294228530793551,-0.03190406411886215,-0.04427206516265869,0.03424062952399254,0.006876092404127121,-0.006103157997131348,0.01886582374572754,XArbitraryZVertical,0.2585173368309724,0.04909220334068399,0.08154985909442462,0.9613056751920266,0.05222112312912941,-0.5050352811813354,-0.8615174889564514,0,0,0,-1,-1,3414.890552125,walking,2,2022-05-12T10:42:52.978+02:00,2022-05-11T22:15:20.957+02:00,1046,0.8888014,0.7434952,1.753966,785.0757,0,0,2022-05-12T10:42:52.978+02:00,674037772.9780656,0,-2.810001,100.9398,1,0.93
2022-05-12T10:42:53.353+02:00,1652344970.585783,53.22877076722973,10.39831604094023,46.91142,-1,-1,-1,-1,5.885479927062988,36,-9999,3415.264456666667,0.06695556640625,-0.4988250732421875,-0.8254852294921875,3415.259458666667,0.1532342066796932,0.05972400560250192,0.5290534279287419,-0.04491647332906723,-0.07296802848577499,0.02180886082351208,0.007401164621114731,0.003923416137695312,0.02808183431625366,XArbitraryZVertical,0.2583633335252314,0.04873766833928558,0.08163023084844605,0.9613583025874157,0.0515282079577446,-0.5047163963317871,-0.861746072769165,0,0,0,-1,-1,3414.890552125,walking,2,2022-05-12T10:42:52.978+02:00,2022-05-11T22:15:20.957+02:00,1046,0.8888014,0.7434952,1.753966,785.0757,0,0,2022-05-12T10:42:52.978+02:00,674037772.9780656,0,-2.810001,100.9398,1,0.93
2022-05-12T10:42:53.363+02:00,1652344970.585783,53.22877076722973,10.39831604094023,46.91142,-1,-1,-1,-1,5.885479927062988,36,-9999,3415.274451666667,0.069854736328125,-0.489715576171875,-0.814239501953125,3415.269453666667,0.1533156961121554,0.05879278388737192,0.5287030189255731,-0.03595893085002899,-0.1067078784108162,-0.01232594065368176,0.01621939614415169,0.005589306354522705,0.03648465871810913,XArbitraryZVertical,0.25823073231777,0.04828898120894672,0.08154765895938204,0.9614234539095715,0.05073609575629234,-0.5044138431549072,-0.8619701266288757,0,0,0,-1,-1,3414.890552125,walking,2,2022-05-12T10:42:52.978+02:00,2022-05-11T22:15:20.957+02:00,1046,0.8888014,0.7434952,1.753966,785.0757,0,0,2022-05-12T10:42:52.978+02:00,674037772.9780656,0,-2.810001,100.9398,1,0.93
2022-05-12T10:42:53.373+02:00,1652344970.585783,53.22877076722973,10.39831604094023,46.91142,-1,-1,-1,-1,5.885479927062988,36,-9999,3415.284446666667,0.01904296875,-0.5274200439453125,-0.81256103515625,3415.279448666667,0.1523425703696964,0.0582317318923589,0.5283128612204006,-0.09434111416339874,-0.07750891149044037,-0.2686400711536407,0.01959072798490524,0.0143619179725647,0.04795509576797485,XArbitraryZVertical,0.2580891291135288,0.04788076511072072,0.08100581255936555,0.9615277254806669,0.05026392638683319,-0.5040769577026367,-0.8621948957443237,0,0,0,-1,-1,3414.890552125,walking,2,2022-05-12T10:42:52.978+02:00,2022-05-11T22:15:20.957+02:00,1046,0.8888014,0.7434952,1.753966,785.0757,0,0,2022-05-12T10:42:52.978+02:00,674037772.9780656,0,-2.810001,100.9398,1,0.93
2022-05-12T10:42:53.383+02:00,1652344970.585783,53.22877076722973,10.39831604094023,46.91142,-1,-1,-1,-1,5.885479927062988,36,-9999,3415.294441666667,0.140380859375,-0.473602294921875,-0.8167266845703125,3415.289443666667,0.1500601901952741,0.05844421806157834,0.5276451729295868,-0.02450690232217312,-0.1453582644462585,-0.1326335072517395,-0.03142388537526131,-0.02391940355300903,0.04995864629745483,XArbitraryZVertical,0.2578136754137675,0.04766675743268811,0.07993303322258583,0.9617020551486528,0.05046677961945534,-0.5035001635551453,-0.8625199794769287,0,0,0,-1,-1,3414.890552125,walking,2,2022-05-12T10:42:52.978+02:00,2022-05-11T22:15:20.957+02:00,1046,0.8888014,0.7434952,1.753966,785.0757,0,0,2022-05-12T10:42:52.978+02:00,674037772.9780656,0,-2.810001,100.9398,1,0.93
2022-05-12T10:42:53.393+02:00,1652344970.585783,53.22877076722973,10.39831604094023,46.91142,-1,-1,-1,-1,5.885479927062988,36,-9999,3415.304436666667,0.0804901123046875,-0.509368896484375,-0.83197021484375,3415.299438666667,0.148041124622673,0.05781474451993078,0.5275852876891097,0.002288025803864002,-0.1932079493999481,-0.2053965181112289,0.09045520424842834,0.02984660863876343,0.04585468769073486,XArbitraryZVertical,0.2578576878202307,0.04710184475797143,0.07888071026622408,0.9618049180316859,0.04992557689547539,-0.5034484267234802,-0.8625816702842712,0,0,0,-1,-1,3414.890552125,walking,2,2022-05-12T10:42:52.978+02:00,2022-05-11T22:15:20.957+02:00,1046,0.8888014,0.7434952,1.753966,785.0757,0,0,2022-05-12T10:42:52.978+02:00,674037772.9780656,0,-2.810001,100.9398,1,0.93
2022-05-12T10:42:53.403+02:00,1652344970.585783,53.22877076722973,10.39831604094023,46.91142,-1,-1,-1,-1,5.885479927062988,36,-9999,3415.314431666667,0.0567169189453125,-0.5088653564453125,-0.8498687744140625,3415.309433666667,0.1455534853856287,0.05731377293364115,0.5280398423418503,0.1028194278478622,-0.1148851811885834,-0.1919171959161758,0.03100970759987831,-0.005527257919311523,0.03040748834609985,XArbitraryZVertical,0.2581543636220481,0.04655438089373471,0.07762168358527759,0.9618545032562816,0.04948033019900322,-0.5038411617279053,-0.8623780012130737,0,0,0,-1,-1,3414.890552125,walking,2,2022-05-12T10:42:52.978+02:00,2022-05-11T22:15:20.957+02:00,1046,0.8888014,0.7434952,1.753966,785.0757,0,0,2022-05-12T10:42:52.978+02:00,674037772.9780656,0,-2.810001,100.9398,1,0.93
2022-05-12T10:42:53.413+02:00,1652344970.585783,53.22877076722973,10.39831604094023,46.91142,-1,-1,-1,-1,5.885479927062988,36,-9999,3415.324426666667,0.0863494873046875,-0.5014801025390625,-0.8348236083984375,3415.319428666667,0.1432258544879079,0.05649743824424146,0.5289566063637938,0.1185587719082832,-0.2840232253074646,-0.1568142026662827,0.007966618984937668,-0.004232048988342285,0.01208752393722534,XArbitraryZVertical,0.2586809693783473,0.0458895392286541,0.07640071191172657,0.9618427537308413,0.04875022172927856,-0.504632830619812,-0.8619565963745117,0,0,0,-1,-1,3414.890552125,walking,2,2022-05-12T10:42:52.978+02:00,2022-05-11T22:15:20.957+02:00,1046,0.8888014,0.7434952,1.753966,785.0757,0,0,2022-05-12T10:42:52.978+02:00,674037772.9780656,0,-2.810001,100.9398,1,0.93
2022-05-12T10:42:53.423+02:00,1652344970.585783,53.22877076722973,10.39831604094023,46.91142,-1,-1,-1,-1,5.885479927062988,36,-9999,3415.334421666667,0.022491455078125,-0.53802490234375,-0.8455657958984375,3415.329423666667,0.1419751146453262,0.0539910393893458,0.5306203921733006,0.178038090467453,-0.3214009404182434,-0.04525785520672798,0.03980511799454689,0.004588901996612549,0.02641260623931885,XArbitraryZVertical,0.2596054043543315,0.04457335131648148,0.07548109718088478,0.9617281137786474,0.04654428735375404,-0.5060685276985168,-0.8612365126609802,0,0,0,-1,-1,3414.890552125,walking,2,2022-05-12T10:42:52.978+02:00,2022-05-11T22:15:20.957+02:00,1046,0.8888014,0.7434952,1.753966,785.0757,0,0,2022-05-12T10:42:52.978+02:00,674037772.9780656,0,-2.810001,100.9398,1,0.93
2022-05-12T10:42:53.433+02:00,1652344970.585783,53.22877076722973,10.39831604094023,46.91142,-1,-1,-1,-1,5.885479927062988,36,-9999,3415.344416666667,0.0384368896484375,-0.521209716796875,-0.84716796875,3415.339419666667,0.141234624519865,0.05146531112657489,0.532464497981333,0.1900644451379776,-0.2809404730796814,-0.04257538914680481,-0.02182943746447563,-0.03036624193191528,0.01485174894332886,XArbitraryZVertical,0.2606041636714218,0.04331916666201346,0.0748028420833263,0.9615682832315079,0.04432081058621407,-0.5076581835746765,-0.8604178428649902,0,0,0,-1,-1,3414.890552125,walking,2,2022-05-12T10:42:52.978+02:00,2022-05-11T22:15:20.957+02:00,1046,0.8888014,0.7434952,1.753966,785.0757,0,0,2022-05-12T10:42:52.978+02:00,674037772.9780656,0,-2.810001,100.9398,1,0.93
2022-05-12T10:42:53.443+02:00,1652344970.585783,53.22877076722973,10.39831604094023,46.91142,-1,-1,-1,-1,5.885479927062988,36,-9999,3415.354411666667,0.0392913818359375,-0.499908447265625,-0.860748291015625,3415.349414666667,0.1406320285244889,0.04909655975566311,0.5342655811140268,0.1609931141138077,-0.288140594959259,-0.01797310635447502,-0.003800824284553528,-0.01200014352798462,0.01243752241134644,XArbitraryZVertical,0.2615719842456394,0.04215693578413716,0.07420900181227169,0.9614031442680422,0.04223762825131416,-0.5092090964317322,-0.8596057891845703,0,0,0,-1,-1,3414.890552125,walking,2,2022-05-12T10:42:52.978+02:00,2022-05-11T22:15:20.957+02:00,1046,0.8888014,0.7434952,1.753966,785.0757,0,0,2022-05-12T10:42:52.978+02:00,674037772.9780656,0,-2.810001,100.9398,1,0.93
2022-05-12T10:42:53.453+02:00,1652344970.585783,53.22877076722973,10.39831604094023,46.91142,-1,-1,-1,-1,5.885479927062988,36,-9999,3415.364406666667,0.0204010009765625,-0.5159454345703125,-0.880096435546875,3415.359409666667,0.1403539352961418,0.046576246668946,0.5356674876435887,0.1245777830481529,-0.2839758098125458,0.01045547146350145,-0.0007464513182640076,0.01050716638565063,-0.001753032207489014,XArbitraryZVertical,0.2623454656573518,0.0409520867758319,0.07374834990996695,0.9612799016271725,0.04003774374723434,-0.5104151368141174,-0.8589955568313599,0,0,0,-1,-1,3414.890552125,walking,2,2022-05-12T10:42:52.978+02:00,2022-05-11T22:15:20.957+02:00,1046,0.8888014,0.7434952,1.753966,785.0757,0,0,2022-05-12T10:42:52.978+02:00,674037772.9780656,0,-2.810001,100.9398,1,0.93
2022-05-12T10:42:53.463+02:00,1652344970.585783,53.22877076722973,10.39831604094023,46.91142,-1,-1,-1,-1,5.885479927062988,36,-9999,3415.374401666667,0.0133819580078125,-0.51397705078125,-0.8970947265625,3415.369404666667,0.1406239830280752,0.04362094184167259,0.5370353945923734,0.09422040730714798,-0.2562925219535828,0.03234026581048965,-0.01706758514046669,-0.004354000091552734,-0.02168488502502441,XArbitraryZVertical,0.263106793585166,0.03960941646218059,0.07349202985324516,0.9611477691576,0.03746850043535233,-0.5115909576416016,-0.8584117889404297,0,0,0,-1,-1,3414.890552125,walking,2,2022-05-12T10:42:52.978+02:00,2022-05-11T22:15:20.957+02:00,1046,0.8888014,0.7434952,1.753966,785.0757,0,0,2022-05-12T10:42:52.978+02:00,674037772.9780656,0,-2.810001,100.9398,1,0.93
2022-05-12T10:42:53.473+02:00,1652344970.585783,53.22877076722973,10.39831604094023,46.91142,-1,-1,-1,-1,5.885479927062988,36,-9999,3415.384396666667,0.006072998046875,-0.5055084228515625,-0.923370361328125,3415.379399666667,0.1406552951431516,0.04182101762855517,0.5377318967342255,0.08955225348472595,-0.210831344127655,0.04686228185892105,-0.02252658829092979,-0.001787304878234863,-0.03897339105606079,XArbitraryZVertical,0.2635072236610727,0.03877018886455032,0.07327077518323752,0.9610891276640009,0.03590845689177513,-0.5121893286705017,-0.8581216335296631,0,0,0,-1,-1,3414.890552125,walking,2,2022-05-12T10:42:52.978+02:00,2022-05-11T22:15:20.957+02:00,1046,0.8888014,0.7434952,1.753966,785.0757,0,0,2022-05-12T10:42:52.978+02:00,674037772.9780656,0,-2.810001,100.9398,1,0.93
2022-05-12T10:42:53.483+02:00,1652344970.585783,53.22877076722973,10.39831604094023,46.91142,-1,-1,-1,-1,5.885479927062988,36,-9999,3415.394391666667,0.0014801025390625,-0.49169921875,-0.930267333984375,3415.389394666667,0.1410058689180834,0.03987461697303071,0.5388159309444044,0.1122612953186035,-0.1767492741346359,0.05009296163916588,-0.02814307808876038,0.007612109184265137,-0.06573605537414551,XArbitraryZVertical,0.2640930844856789,0.03791497655296409,0.07318300997621141,0.9609690877397357,0.03421598672866821,-0.5131200551986694,-0.8576346039772034,0,0,0,-1,-1,3414.890552125,walking,2,2022-05-12T10:42:52.978+02:00,2022-05-11T22:15:20.957+02:00,1046,0.8888014,0.7434952,1.753966,785.0757,0,0,2022-05-12T10:42:52.978+02:00,674037772.9780656,0,-2.810001,100.9398,1,0.93
2022-05-12T10:42:53.493+02:00,1652344970.585783,53.22877076722973,10.39831604094023,46.91142,-1,-1,-1,-1,5.885479927062988,36,-9999,3415.404386666667,-0.006591796875,-0.5197296142578125,-0.9330596923828125,3415.399389666667,0.1416310047416424,0.03809952975312564,0.5400772121307134,0.1390747427940369,-0.127092108130455,0.07630552351474762,-0.03118887171149254,0.02250349521636963,-0.07322102785110474,XArbitraryZVertical,0.2647527603441054,0.03718443056244274,0.07324862078271517,0.9608111327479294,0.03266888111829758,-0.5142022371292114,-0.8570466041564941,0,0,0,-1,-1,3414.890552125,walking,2,2022-05-12T10:42:52.978+02:00,2022-05-11T22:15:20.957+02:00,1046,0.8888014,0.7434952,1.753966,785.0757,0,0,2022-05-12T10:42:52.978+02:00,674037772.9780656,0,-2.810001,100.9398,1,0.93
2022-05-12T10:42:53.503+02:00,1652344970.585783,53.22877076722973,10.39831604094023,46.91142,-1,-1,-1,-1,5.885479927062988,36,-9999,3415.414382666667,0.0024261474609375,-0.5287322998046875,-0.9228973388671875,3415.409384666667,0.1424337899178964,0.03678539101043595,0.5414862761793537,0.1404206901788712,-0.08543495088815689,0.08954782783985138,-0.03810778260231018,-0.004318892955780029,-0.07669609785079956,XArbitraryZVertical,0.2654634768974509,0.03670423749546339,0.07345937476281277,0.9606174088124515,0.03151589632034302,-0.5154102444648743,-0.8563638925552368,0,0,0,-1,-1,3414.890552125,walking,2,2022-05-12T10:42:52.978+02:00,2022-05-11T22:15:20.957+02:00,1046,0.8888014,0.7434952,1.753966,785.0757,0,0,2022-05-12T10:42:52.978+02:00,674037772.9780656,0,-2.810001,100.9398,1,0.93
2022-05-12T10:42:53.513+02:00,1652344970.585783,53.22877076722973,10.39831604094023,46.91142,-1,-1,-1,-1,5.885479927062988,36,-9999,3415.424377666667,-0.0016632080078125,-0.5320892333984375,-0.9089813232421875,3415.419379666667,0.1435954077941075,0.0355257751738404,0.542950141545395,0.1271425783634186,-0.04635785147547722,0.1142832711338997,-0.02798429317772388,-0.01206767559051514,-0.06724965572357178,XArbitraryZVertical,0.2661922205821886,0.03630054409372636,0.07384854682448856,0.9604011467189638,0.03041035123169422,-0.5166640877723694,-0.8556479215621948,0,0,0,-1,-1,3414.890552125,walking,2,2022-05-12T10:42:52.978+02:00,2022-05-11T22:15:20.957+02:00,1046,0.8888014,0.7434952,1.753966,785.0757,0,0,2022-05-12T10:42:52.978+02:00,674037772.9780656,0,-2.810001,100.9398,1,0.93
2022-05-12T10:42:53.523+02:00,1652344972.407727,53.22913460438441,10.398453371609,43.54025,0.85,1.4,7.734375,70.78105912354538,32,10,-9999,3415.434372666667,-0.004913330078125,-0.53485107421875,-0.9013671875,3415.429374666667,0.1448794080589907,0.03467764711778637,0.5442709944586919,0.1263295114040375,0.01208655163645744,0.1193704381585121,-0.03132425248622894,-0.01429420709609985,-0.05399096012115479,XArbitraryZVertical,0.2668350351799103,0.03610714343331491,0.07435039422978768,0.9601913767185319,0.02966095507144928,-0.5177945494651794,-0.8549906611442566,0,0,0,-1,-1,3414.890552125,walking,2,2022-05-12T10:42:52.978+02:00,2022-05-11T22:15:20.957+02:00,1046,0.8888014,0.7434952,1.753966,785.0757,0,0,2022-05-12T10:42:52.978+02:00,674037772.9780656,0,-2.810001,100.9398,1,0.93
2022-05-12T10:42:53.533+02:00,1652344972.407727,53.22913460438441,10.398453371609,43.54025,0.85,1.4,7.734375,70.78105912354538,32,10,-9999,3415.444367666667,0.00115966796875,-0.5316314697265625,-0.8887939453125,3415.439369666667,0.146183943882425,0.03433825999863167,0.5455092546059824,0.1275895237922668,0.05016642436385155,0.1176360547542572,-0.03426216542720795,-0.01599705219268799,-0.047008216381073,XArbitraryZVertical,0.2674189797166163,0.03615894263117767,0.07492945194069124,0.9599819014524619,0.02934874594211578,-0.518853485584259,-0.8543592691421509,0,0,0,-1,-1,3414.890552125,walking,2,2022-05-12T10:42:52.978+02:00,2022-05-11T22:15:20.957+02:00,1046,0.8888014,0.7434952,1.753966,785.0757,0,0,2022-05-12T10:42:52.978+02:00,674037772.9780656,0,-2.810001,100.9398,1,0.93
2022-05-12T10:42:53.543+02:00,1652344972.407727,53.22913460438441,10.398453371609,43.54025,0.85,1.4,7.734375,70.78105912354538,32,10,-9999,3415.454362666667,-0.0010833740234375,-0.5286712646484375,-0.8751373291015625,3415.449364666667,0.1474649920465629,0.03426251432358358,0.5467431482113726,0.1218536049127579,0.06908658891916275,0.1061623618006706,-0.02810249850153923,-0.0117231011390686,-0.03507328033447266,XArbitraryZVertical,0.2679912066458708,0.03633477860965323,0.07553209053477657,0.9597684912816771,0.02926207892596722,-0.5199078917503357,-0.853721022605896,0,0,0,-1,-1,3414.890552125,walking,2,2022-05-12T10:42:52.978+02:00,2022-05-11T22:15:20.957+02:00,1046,0.8888014,0.7434952,1.753966,785.0757,0,0,2022-05-12T10:42:52.978+02:00,674037772.9780656,0,-2.810001,100.9398,1,0.93
2022-05-12T10:42:53.553+02:00,1652344972.407727,53.22913460438441,10.398453371609,43.54025,0.85,1.4,7.734375,70.78105912354538,32,10,-9999,3415.464357666667,0.0022125244140625,-0.5225677490234375,-0.8563385009765625,3415.459359666667,0.148586593581886,0.03437765493888955,0.5477751775430282,0.09961783885955811,0.07342839986085892,0.08735345304012299,-0.03042537719011307,-0.007881581783294678,-0.0219566822052002,XArbitraryZVertical,0.2684619539187934,0.03657479327030198,0.07608390993069331,0.9595842299285341,0.02934191934764385,-0.5207892060279846,-0.8531809449195862,0,0,0,-1,-1,3414.890552125,walking,2,2022-05-12T10:42:52.978+02:00,2022-05-11T22:15:20.957+02:00,1046,0.8888014,0.7434952,1.753966,785.0757,0,0,2022-05-12T10:42:52.978+02:00,674037772.9780656,0,-2.810001,100.9398,1,0.93
2022-05-12T10:42:53.563+02:00,1652344972.407727,53.22913460438441,10.398453371609,43.54025,0.85,1.4,7.734375,70.78105912354538,32,10,-9999,3415.474352666667,0.008575439453125,-0.5251922607421875,-0.8376922607421875,3415.469354666667,0.1493594809739359,0.03463743467830867,0.5484977410633775,0.07594873011112213,0.07218044251203537,0.04235455021262169,-0.02733808010816574,-0.001161336898803711,-0.003541827201843262,XArbitraryZVertical,0.2687847619145665,0.0368274265788826,0.07648830688488285,0.9594520692862707,0.02955051884055138,-0.5214059352874756,-0.8527969717979431,0,0,0,-1,-1,3414.890552125,walking,2,2022-05-12T10:42:52.978+02:00,2022-05-11T22:15:20.957+02:00,1046,0.8888014,0.7434952,1.753966,785.0757,0,0,2022-05-12T10:42:52.978+02:00,674037772.9780656,0,-2.810001,100.9398,1,0.93
2022-05-12T10:42:53.573+02:00,1652344972.407727,53.22913460438441,10.398453371609,43.54025,0.85,1.4,7.734375,70.78105912354538,32,10,-9999,3415.484347666667,0.0081939697265625,-0.5207061767578125,-0.8177032470703125,3415.479349666667,0.1496933352519837,0.03506986165006504,0.5488322095586574,0.03906288743019104,0.06221117079257965,0.00892921444028616,-0.02133781462907791,-0.003500521183013916,0.01491719484329224,XArbitraryZVertical,0.2689226162184268,0.03709098566102836,0.07670600997178594,0.959385839297978,0.0299131702631712,-0.5216913223266602,-0.8526097536087036,0,0,0,-1,-1,3414.890552125,walking,2,2022-05-12T10:42:52.978+02:00,2022-05-11T22:15:20.957+02:00,1046,0.8888014,0.7434952,1.753966,785.0757,0,0,2022-05-12T10:42:52.978+02:00,674037772.9780656,0,-2.810001,100.9398,1,0.93
2022-05-12T10:42:53.583+02:00,1652344972.407727,53.22913460438441,10.398453371609,43.54025,0.85,1.4,7.734375,70.78105912354538,32,10,-9999,3415.494342666667,0.0081939697265625,-0.526641845703125,-0.803680419921875,3415.489344666667,0.1496480720796776,0.03561610801745166,0.5489821713066756,0.02195367217063904,0.06129264831542969,-0.0262032076716423,-0.02218223549425602,0.001113533973693848,0.03481161594390869,XArbitraryZVertical,0.2689744909318938,0.03735196312028287,0.07675750708689165,0.9593570480955431,0.03037611581385136,-0.5218192338943481,-0.8525151014328003,0,0,0,-1,-1,3414.890552125,walking,2,2022-05-12T10:42:52.978+02:00,2022-05-11T22:15:20.957+02:00,1046,0.8888014,0.7434952,1.753966,785.0757,0,0,2022-05-12T10:42:52.978+02:00,674037772.9780656,0,-2.810001,100.9398,1,0.93
2022-05-12T10:42:53.593+02:00,1652344972.407727,53.22913460438441,10.398453371609,43.54025,0.85,1.4,7.734375,70.78105912354538,32,10,-9999,3415.504337666667,0.0165557861328125,-0.5411376953125,-0.7940521240234375,3415.499340666667,0.1491432370220717,0.03637296166663749,0.5490455020499245,0.01075794268399477,0.04819242656230927,-0.07197561860084534,-0.02282624691724777,-0.004768133163452148,0.04877811670303345,XArbitraryZVertical,0.268985326307114,0.037649230549186,0.07661704105053233,0.9593536566561552,0.03102013468742371,-0.5218732357025146,-0.8524588346481323,0,0,0,-1,-1,3414.890552125,walking,2,2022-05-12T10:42:52.978+02:00,2022-05-11T22:15:20.957+02:00,1046,0.8888014,0.7434952,1.753966,785.0757,0,0,2022-05-12T10:42:52.978+02:00,674037772.9780656,0,-2.810001,100.9398,1,0.93
2022-05-12T10:42:53.603+02:00,1652344972.407727,53.22913460438441,10.398453371609,43.54025,0.85,1.4,7.734375,70.78105912354538,32,10,-9999,3415.514332666667,0.0279998779296875,-0.5321197509765625,-0.7892303466796875,3415.509335666667,0.1480443159152651,0.03723328499545291,0.5489231025773768,-0.01968465186655521,0.01848246529698372,-0.1149955242872238,-0.01520019397139549,-0.01936841011047363,0.05844324827194214,XArbitraryZVertical,0.2689144452761599,0.03791006851558616,0.07620574089946658,0.9593960531161906,0.03175589069724083,-0.5217688679695129,-0.8524956703186035,0,0,0,-1,-1,3414.890552125,walking,2,2022-05-12T10:42:52.978+02:00,2022-05-11T22:15:20.957+02:00,1046,0.8888014,0.7434952,1.753966,785.0757,0,0,2022-05-12T10:42:52.978+02:00,674037772.9780656,0,-2.810001,100.9398,1,0.93
2022-05-12T10:42:53.613+02:00,1652344972.407727,53.22913460438441,10.398453371609,43.54025,0.85,1.4,7.734375,70.78105912354538,32,10,-9999,3415.524327666667,0.0205230712890625,-0.53363037109375,-0.78704833984375,3415.519330666667,0.1466527646624667,0.0379624356454086,0.5485882725203778,-0.03698048740625381,-0.006183066871017218,-0.1330694705247879,-0.004384312778711319,-0.01063615083694458,0.06341618299484253,XArbitraryZVertical,0.2687524631984521,0.03806180368535455,0.07563652004713378,0.9594804179501432,0.03238410875201225,-0.5214831829071045,-0.8526468276977539,0,0,0,-1,-1,3414.890552125,walking,2,2022-05-12T10:42:52.978+02:00,2022-05-11T22:15:20.957+02:00,1046,0.8888014,0.7434952,1.753966,785.0757,0,0,2022-05-12T10:42:52.978+02:00,674037772.9780656,0,-2.810001,100.9398,1,0.93
2022-05-12T10:42:53.623+02:00,1652344972.407727,53.22913460438441,10.398453371609,43.54025,0.85,1.4,7.734375,70.78105912354538,32,10,-9999,3415.534322666667,0.0154876708984375,-0.5351104736328125,-0.7891998291015625,3415.529325666667,0.1450551222171792,0.03858775710884416,0.5479866547222412,-0.07310280203819275,-0.02218813262879848,-0.1454321295022964,-0.01240639016032219,-0.01266014575958252,0.0658910870552063,XArbitraryZVertical,0.2684705006235218,0.03812770672906142,0.07495440994316423,0.9596102062996577,0.03292937576770782,-0.5209697484970093,-0.8529397249221802,0,0,0,-1,-1,3414.890552125,walking,2,2022-05-12T10:42:52.978+02:00,2022-05-11T22:15:20.957+02:00,1046,0.8888014,0.7434952,1.753966,785.0757,0,0,2022-05-12T10:42:52.978+02:00,674037772.9780656,0,-2.810001,100.9398,1,0.93
2022-05-12T10:42:53.633+02:00,1652344972.407727,53.22913460438441,10.398453371609,43.54025,0.85,1.4,7.734375,70.78105912354538,32,10,-9999,3415.544317666667,0.006683349609375,-0.5416259765625,-0.7883148193359375,3415.539320666667,0.1433200132806897,0.03920136688373375,0.5470161976316603,-0.1145575046539307,-0.02658621035516262,-0.1693895161151886,-0.01798496022820473,-0.01496881246566772,0.06422406435012817,XArbitraryZVertical,0.2680146727847939,0.03815833500278586,0.07420450187807691,0.9597946549498974,0.03347254171967506,-0.5201411247253418,-0.8534241318702698,0,0,0,-1,-1,3414.890552125,walking,2,2022-05-12T10:42:52.978+02:00,2022-05-11T22:15:20.957+02:00,1046,0.8888014,0.7434952,1.753966,785.0757,0,0,2022-05-12T10:42:52.978+02:00,674037772.9780656,0,-2.810001,100.9398,1,0.93
2022-05-12T10:42:53.643+02:00,1652344972.407727,53.22913460438441,10.398453371609,43.54025,0.85,1.4,7.734375,70.78105912354538,32,10,-9999,3415.554312666667,0.002349853515625,-0.548126220703125,-0.7841949462890625,3415.549315666667,0.1412775925012221,0.03994348294431205,0.5454895730339326,-0.1783202439546585,-0.02645251899957657,-0.1914580762386322,-0.02745428308844566,-0.02278882265090942,0.06587642431259155,XArbitraryZVertical,0.2672929484249877,0.03819300499933453,0.07332364592493543,0.9600623171986401,0.0341375432908535,-0.5188366770744324,-0.8541915416717529,0,0,0,-1,-1,3414.890552125,walking,2,2022-05-12T10:42:52.978+02:00,2022-05-11T22:15:20.957+02:00,1046,0.8888014,0.7434952,1.753966,785.0757,0,0,2022-05-12T10:42:52.978+02:00,674037772.9780656,0,-2.810001,100.9398,1,0.93
2022-05-12T10:42:53.653+02:00,1652344972.407727,53.22913460438441,10.398453371609,43.54025,0.85,1.4,7.734375,70.78105912354538,32,10,-9999,3415.564307666667,0.0189971923828125,-0.5426177978515625,-0.772247314453125,3415.559310666667,0.1393669747534579,0.04047374297235871,0.5435500579971947,-0.1883649080991745,-0.0633741170167923,-0.1655814051628113,-0.03228136897087097,-0.03094810247421265,0.07098191976547241,XArbitraryZVertical,0.2663781686538155,0.03813244461162044,0.07247663279204491,0.9603832048878702,0.03463113307952881,-0.5171776413917542,-0.8551771640777588,0,0,0,-1,-1,3414.890552125,walking,2,2022-05-12T10:42:52.978+02:00,2022-05-11T22:15:20.957+02:00,1046,0.8888014,0.7434952,1.753966,785.0757,0,0,2022-05-12T10:42:52.978+02:00,674037772.9780656,0,-2.810001,100.9398,1,0.93
2022-05-12T10:42:53.663+02:00,1652344972.407727,53.22913460438441,10.398453371609,43.54025,0.85,1.4,7.734375,70.78105912354538,32,10,-9999,3415.574303666667,0.0444793701171875,-0.5463409423828125,-0.766876220703125,3415.569305666667,0.1373171831338175,0.04057555565648067,0.5413138765507416,-0.2571586072444916,-0.1116351261734962,-0.2091192901134491,-0.01576792076230049,-0.02735483646392822,0.08407938480377197,XArbitraryZVertical,0.2653386164221962,0.0378404898873148,0.07150461604966429,0.9607552386405741,0.03476502746343613,-0.5152624845504761,-0.8563270568847656,0,0,0,-1,-1,3414.890552125,walking,2,2022-05-12T10:42:52.978+02:00,2022-05-11T22:15:20.957+02:00,1046,0.8888014,0.7434952,1.753966,785.0757,0,0,2022-05-12T10:42:52.978+02:00,674037772.9780656,0,-2.810001,100.9398,1,0.93
2022-05-12T10:42:53.673+02:00,1652344972.407727,53.22913460438441,10.398453371609,43.54025,0.85,1.4,7.734375,70.78105912354538,32,10,-9999,3415.584298666667,0.0333404541015625,-0.54901123046875,-0.7569732666015625,3415.579300666667,0.1348799909164903,0.04046547724657479,0.5384462605013274,-0.3221977353096008,-0.1472923159599304,-0.2374986112117767,0.009748879820108414,-0.03353774547576904,0.09092718362808228,XArbitraryZVertical,0.2640093928315835,0.03737884319577038,0.0703170433799338,0.9612271192755214,0.03473039716482162,-0.5128027200698853,-0.8578037023544312,0,0,0,-1,-1,3414.890552125,walking,2,2022-05-12T10:42:52.978+02:00,2022-05-11T22:15:20.957+02:00,1046,0.8888014,0.7434952,1.753966,785.0757,0,0,2022-05-12T10:42:52.978+02:00,674037772.9780656,0,-2.810001,100.9398,1,0.93
2022-05-12T10:42:53.683+02:00,1652344972.407727,53.22913460438441,10.398453371609,43.54025,0.85,1.4,7.734375,70.78105912354538,32,10,-9999,3415.594293666667,0.0677642822265625,-0.577056884765625,-0.72918701171875,3415.589295666667,0.132246656229549,0.04013209444908755,0.5347963392720497,-0.4298230111598969,-0.1778603494167328,-0.2539744973182678,-0.00117892399430275,-0.0393449068069458,0.1027061343193054,XArbitraryZVertical,0.2623137859668503,0.03676439548170735,0.06900408217782798,0.961809988993131,0.03451928123831749,-0.509665846824646,-0.8596796989440918,0,0,0,-1,-1,3414.890552125,walking,2,2022-05-12T10:42:52.978+02:00,2022-05-11T22:15:20.957+02:00,1046,0.8888014,0.7434952,1.753966,785.0757,0,0,2022-05-12T10:42:52.978+02:00,674037772.9780656,0,-2.810001,100.9398,1,0.93
2022-05-12T10:42:53.693+02:00,1652344972.407727,53.22913460438441,10.398453371609,43.54025,0.85,1.4,7.734375,70.78105912354538,32,10,-9999,3415.604288666667,0.073822021484375,-0.6244964599609375,-0.6779327392578125,3415.599290666667,0.1293944190830772,0.03947280745740541,0.5298082810386725,-0.5884153246879578,-0.2429319620132446,-0.2866830229759216,0.03371178731322289,-0.07168847322463989,0.1330445408821106,XArbitraryZVertical,0.2599866771741185,0.03593056075055757,0.06754088041783854,0.9625769240678044,0.03405239805579185,-0.5053679347038269,-0.8622318506240845,0,0,0,-1,-1,3414.890552125,walking,2,2022-05-12T10:42:52.978+02:00,2022-05-11T22:15:20.957+02:00,1046,0.8888014,0.7434952,1.753966,785.0757,0,0,2022-05-12T10:42:52.978+02:00,674037772.9780656,0,-2.810001,100.9398,1,0.93
2022-05-12T10:42:53.703+02:00,1652344972.407727,53.22913460438441,10.398453371609,43.54025,0.85,1.4,7.734375,70.78105912354538,32,10,-9999,3415.614283666667,0.075836181640625,-0.66033935546875,-0.67156982421875,3415.609285666667,0.1254212765891952,0.03849582079594575,0.5226159493819871,-0.8234339356422424,-0.2546053826808929,-0.3951484858989716,0.04047289863228798,-0.125347375869751,0.1879414319992065,XArbitraryZVertical,0.2566235055883625,0.03474412010899035,0.06549338049970721,0.9636638414874636,0.03334902226924896,-0.4991486072540283,-0.8658744692802429,0,0,0,-1,-1,3414.890552125,walking,2,2022-05-12T10:42:52.978+02:00,2022-05-11T22:15:20.957+02:00,1046,0.8888014,0.7434952,1.753966,785.0757,0,0,2022-05-12T10:42:52.978+02:00,674037772.9780656,0,-2.810001,100.9398,1,0.93
2022-05-12T10:42:53.713+02:00,1652344972.407727,53.22913460438441,10.398453371609,43.54025,0.85,1.4,7.734375,70.78105912354538,32,10,-9999,3415.624278666667,0.100738525390625,-0.614654541015625,-0.678192138671875,3415.619280666667,0.1219297674641564,0.03748359934855282,0.5135055819947415,-0.9851436614990234,-0.2977360188961029,-0.3129532933235168,0.04319446906447411,-0.1691051721572876,0.1988458633422852,XArbitraryZVertical,0.2523204280388188,0.03356187878600594,0.06366974972368013,0.9649634184609689,0.03264161199331284,-0.4912337064743042,-0.870415985584259,0,0,0,-1,-1,3414.890552125,walking,2,2022-05-12T10:42:52.978+02:00,2022-05-11T22:15:20.957+02:00,1046,0.8888014,0.7434952,1.753966,785.0757,0,0,2022-05-12T10:42:52.978+02:00,674037772.9780656,0,-2.810001,100.9398,1,0.93
2022-05-12T10:42:53.723+02:00,1652344972.407727,53.22913460438441,10.398453371609,43.54025,0.85,1.4,7.734375,70.78105912354538,32,10,-9999,3415.634273666667,0.066558837890625,-0.56890869140625,-0.6999664306640625,3415.629275666667,0.118541896102927,0.03597208529326474,0.5028745077974613,-1.125747442245483,-0.3546208739280701,-0.3595620691776276,0.06922644376754761,-0.1327078938484192,0.197441577911377,XArbitraryZVertical,0.2472873236015495,0.03212432703178613,0.06183109096588978,0.9664337035477809,0.03151197358965874,-0.4819461703300476,-0.8756340146064758,0,0,0,-1,-1,3414.890552125,walking,2,2022-05-12T10:42:52.978+02:00,2022-05-11T22:15:20.957+02:00,1046,0.8888014,0.7434952,1.753966,785.0757,0,0,2022-05-12T10:42:52.978+02:00,674037772.9780656,0,-2.810001,100.9398,1,0.93
2022-05-12T10:42:53.733+02:00,1652344972.407727,53.22913460438441,10.398453371609,43.54025,0.85,1.4,7.734375,70.78105912354538,32,10,-9999,3415.644268666667,0.0458831787109375,-0.545501708984375,-0.7318572998046875,3415.639270666667,0.1146429094999369,0.0342472950179066,0.4908645300918101,-1.247110605239868,-0.3700645565986633,-0.4050917327404022,0.03636106476187706,-0.09751966595649719,0.1814418435096741,XArbitraryZVertical,0.2415894266499403,0.03050044503410498,0.05971865976249142,0.9680589721879451,0.03019766509532928,-0.4713885188102722,-0.8814085721969604,0,0,0,-1,-1,3414.890552125,walking,2,2022-05-12T10:42:52.978+02:00,2022-05-11T22:15:20.957+02:00,1046,0.8888014,0.7434952,1.753966,785.0757,0,0,2022-05-12T10:42:52.978+02:00,674037772.9780656,0,-2.810001,100.9398,1,0.93
2022-05-12T10:42:53.743+02:00,1652344972.407727,53.22913460438441,10.398453371609,43.54025,0.85,1.4,7.734375,70.78105912354538,32,10,-9999,3415.654263666667,-0.0194854736328125,-0.543212890625,-0.7187347412109375,3415.649266666667,0.1100534892065612,0.03248871599775807,0.4778764798650137,-1.338679194450378,-0.4188592433929443,-0.5142406225204468,0.01703901961445808,-0.08560660481452942,0.1556473970413208,XArbitraryZVertical,0.235413758151686,0.02877322533185233,0.05726797996785116,0.9697798013617901,0.02884404547512531,-0.459894597530365,-0.8875049352645874,0,0,0,-1,-1,3414.890552125,walking,2,2022-05-12T10:42:52.978+02:00,2022-05-11T22:15:20.957+02:00,1046,0.8888014,0.7434952,1.753966,785.0757,0,0,2022-05-12T10:42:52.978+02:00,674037772.9780656,0,-2.810001,100.9398,1,0.93
2022-05-12T10:42:53.753+02:00,1652344972.407727,53.22913460438441,10.398453371609,43.54025,0.85,1.4,7.734375,70.78105912354538,32,10,-9999,3415.664258666667,-0.0537567138671875,-0.5419921875,-0.7444000244140625,3415.659261666667,0.1033552680957058,0.03123387131868803,0.4635572419478898,-1.456074953079224,-0.377687931060791,-0.6977094411849976,-0.0474187359213829,-0.09607958793640137,0.1752963662147522,XArbitraryZVertical,0.2285892187454827,0.02704250380526512,0.053849640190094,0.9716562993722191,0.02793314307928085,-0.4471327662467957,-0.8940313458442688,0,0,0,-1,-1,3414.890552125,walking,2,2022-05-12T10:42:52.978+02:00,2022-05-11T22:15:20.957+02:00,1046,0.8888014,0.7434952,1.753966,785.0757,0,0,2022-05-12T10:42:52.978+02:00,674037772.9780656,0,-2.810001,100.9398,1,0.93
