loggingTime(txt),locationTimestamp_since1970(s),locationLatitude(WGS84),locationLongitude(WGS84),locationAltitude(m),locationSpeed(m/s),locationSpeedAccuracy(m/s),locationCourse(°),locationCourseAccuracy(°),locationVerticalAccuracy(m),locationHorizontalAccuracy(m),locationFloor(Z),accelerometerTimestamp_sinceReboot(s),accelerometerAccelerationX(G),accelerometerAccelerationY(G),accelerometerAccelerationZ(G),motionTimestamp_sinceReboot(s),motionYaw(rad),motionRoll(rad),motionPitch(rad),motionRotationRateX(rad/s),motionRotationRateY(rad/s),motionRotationRateZ(rad/s),motionUserAccelerationX(G),motionUserAccelerationY(G),motionUserAccelerationZ(G),motionAttitudeReferenceFrame(txt),motionQuaternionX(R),motionQuaternionY(R),motionQuaternionZ(R),motionQuaternionW(R),motionGravityX(G),motionGravityY(G),motionGravityZ(G),motionMagneticFieldX(µT),motionMagneticFieldY(µT),motionMagneticFieldZ(µT),motionHeading(°),motionMagneticFieldCalibrationAccuracy(Z),activityTimestamp_sinceReboot(s),activity(txt),activityActivityConfidence(Z),activityActivityStartDate(txt),pedometerStartDate(txt),pedometerNumberofSteps(N),pedometerAverageActivePace(s/m),pedometerCurrentPace(s/m),pedometerCurrentCadence(steps/s),pedometerDistance(m),pedometerFloorAscended(N),pedometerFloorDescended(N),pedometerEndDate(txt),altimeterTimestamp_sinceReboot(s),altimeterReset(bool),altimeterRelativeAltitude(m),altimeterPressure(kPa),batteryState(N),batteryLevel(R)
2022-05-12T10:27:46.110+02:00,1652344065.272552,53.22906956081579,10.39850584232286,40.01681,0,0.07,183.515625,94.83277115361238,4,5,-9999,2583.15669375,0.07098388671875,-0.5739288330078125,-0.7823486328125,2583.14669875,2.793702929766121,0.06884335222516241,0.6230593327393458,-0.07909355312585831,-0.03971326351165771,-0.05056799948215485,0.003478463739156723,0.01354503631591797,0.03408128023147583,XArbitraryZVertical,0.02075283067585504,0.3073802051137003,0.9387723139648081,0.1542514805896394,0.05586333945393562,-0.5835223793983459,-0.8101734519004822,0,0,0,-1,-1,2577.161237875,unknown,2,2022-05-12T10:27:40.063+02:00,2022-05-11T22:15:20.957+02:00,19,1.434628,0,0,13.4045,0,0,2022-05-12T10:27:45.179+02:00,674036862.621119,0,-0.8100014,100.9175,1,0.98
2022-05-12T10:27:46.143+02:00,1652344065.272552,53.22906956081579,10.39850584232286,40.01681,0,0.07,183.515625,94.83277115361238,4,5,-9999,2583.16668975,0.078094482421875,-0.578399658203125,-0.7810516357421875,2583.15669375,2.793111216563611,0.0686864572353286,0.6221285811476804,-0.09862411022186279,-0.06407399475574493,-0.06302893161773682,0.008878383785486221,0.01562708616256714,0.02996230125427246,XArbitraryZVertical,0.02083582703646054,0.3069267662871414,0.9388625701163357,0.1545929517501466,0.05577347427606583,-0.5827662348747253,-0.8107236623764038,0,0,0,-1,-1,2577.161237875,unknown,2,2022-05-12T10:27:40.063+02:00,2022-05-11T22:15:20.957+02:00,19,1.434628,0,0,13.4045,0,0,2022-05-12T10:27:45.179+02:00,674036862.621119,0,-0.8100014,100.9175,1,0.98
2022-05-12T10:27:46.146+02:00,1652344065.272552,53.22906956081579,10.39850584232286,40.01681,0,0.07,183.515625,94.83277115361238,4,5,-9999,2583.17668475,0.0673980712890625,-0.571502685546875,-0.7929534912109375,2583.16668975,2.792328180971307,0.06821528289493185,0.6208703129427841,-0.1465107798576355,-0.1199694201350212,-0.08174409717321396,0.01926598325371742,0.002900660037994385,0.03207743167877197,XArbitraryZVertical,0.02106668965970742,0.3062936555523287,0.9389828139566707,0.1550863539064652,0.05544141307473183,-0.5817432403564453,-0.8114807605743408,0,0,0,-1,-1,2577.161237875,unknown,2,2022-05-12T10:27:40.063+02:00,2022-05-11T22:15:20.957+02:00,19,1.434628,0,0,13.4045,0,0,2022-05-12T10:27:45.179+02:00,674036862.621119,0,-0.8100014,100.9175,1,0.98
2022-05-12T10:27:46.149+02:00,1652344065.272552,53.22906956081579,10.39850584232286,40.01681,0,0.07,183.515625,94.83277115361238,4,5,-9999,2583.18667975,0.0554962158203125,-0.5758819580078125,-0.8101348876953125,2583.17668475,2.79135697624372,0.06732892168461742,0.6192024617168138,-0.1748803704977036,-0.1689936816692352,-0.1006807684898376,0.01920290663838387,0.005922555923461914,0.02708125114440918,XArbitraryZVertical,0.02148481361057223,0.3054343233615031,0.9391436558556597,0.1557486739378653,0.05478733032941818,-0.5803858637809753,-0.812496542930603,0,0,0,-1,-1,2577.161237875,unknown,2,2022-05-12T10:27:40.063+02:00,2022-05-11T22:15:20.957+02:00,19,1.434628,0,0,13.4045,0,0,2022-05-12T10:27:45.179+02:00,674036862.621119,0,-0.8100014,100.9175,1,0.98
2022-05-12T10:27:46.150+02:00,1652344065.272552,53.22906956081579,10.39850584232286,40.01681,0,0.07,183.515625,94.83277115361238,4,5,-9999,2583.19667475,0.0434112548828125,-0.572784423828125,-0.818328857421875,2583.19667475,2.788572655047974,0.06479901643902612,0.6155303506457799,-0.1828989684581757,-0.2276657223701477,-0.1536415219306946,-0.003628786653280258,0.002256929874420166,-0.001316368579864502,XArbitraryZVertical,0.02277288738157669,0.3034872135848369,0.9394362749916374,0.1575957947997002,0.05286926403641701,-0.5773916244506836,-0.8147538304328918,0,0,0,-1,-1,2577.161237875,unknown,2,2022-05-12T10:27:40.063+02:00,2022-05-11T22:15:20.957+02:00,19,1.434628,0,0,13.4045,0,0,2022-05-12T10:27:45.179+02:00,674036862.621119,0,-0.8100014,100.9175,1,0.98
2022-05-12T10:27:46.152+02:00,1652344065.272552,53.22906956081579,10.39850584232286,40.01681,0,0.07,183.515625,94.83277115361238,4,5,-9999,2583.20666975,0.03228759765625,-0.56243896484375,-0.826385498046875,2583.20666975,2.786725598101361,0.06357928714748493,0.6136926605219282,-0.1737924665212631,-0.2216028422117233,-0.1713797003030777,-0.01301722973585129,0.008873164653778076,-0.005855977535247803,XArbitraryZVertical,0.02346279855541078,0.3025092796816103,0.9395446847773409,0.158724836435774,0.05194277688860893,-0.5758902430534363,-0.8158752918243408,0,0,0,-1,-1,2577.161237875,unknown,2,2022-05-12T10:27:40.063+02:00,2022-05-11T22:15:20.957+02:00,19,1.434628,0,0,13.4045,0,0,2022-05-12T10:27:45.179+02:00,674036862.621119,0,-0.8100014,100.9175,1,0.98
2022-05-12T10:27:46.153+02:00,1652344065.272552,53.22906956081579,10.39850584232286,40.01681,0,0.07,183.515625,94.83277115361238,4,5,-9999,2583.21666575,0.0139617919921875,-0.5749664306640625,-0.821136474609375,2583.20666975,2.786725598101361,0.06357928714748493,0.6136926605219282,-0.1737924665212631,-0.2216028422117233,-0.1713797003030777,-0.01301722973585129,0.008873164653778076,-0.005855977535247803,XArbitraryZVertical,0.02346279855541078,0.3025092796816103,0.9395446847773409,0.158724836435774,0.05194277688860893,-0.5758902430534363,-0.8158752918243408,0,0,0,-1,-1,2577.161237875,unknown,2,2022-05-12T10:27:40.063+02:00,2022-05-11T22:15:20.957+02:00,19,1.434628,0,0,13.4045,0,0,2022-05-12T10:27:45.179+02:00,674036862.621119,0,-0.8100014,100.9175,1,0.98
2022-05-12T10:27:46.154+02:00,1652344065.272552,53.22906956081579,10.39850584232286,40.01681,0,0.07,183.515625,94.83277115361238,4,5,-9999,2583.22666075,-0.0390625,-0.6673126220703125,-0.8151702880859375,2583.21666575,2.784481710734782,0.06256803946997906,0.6117264397355066,-0.2381988912820816,-0.283883810043335,-0.2309327870607376,-0.02762845158576965,0.008409023284912109,-0.01071780920028687,XArbitraryZVertical,0.02410162130892488,0.3014816035002656,0.9396402863748357,0.1600132614282581,0.0511884018778801,-0.5742816925048828,-0.817055881023407,0,0,0,-1,-1,2577.161237875,unknown,2,2022-05-12T10:27:40.063+02:00,2022-05-11T22:15:20.957+02:00,19,1.434628,0,0,13.4045,0,0,2022-05-12T10:27:45.179+02:00,674036862.621119,0,-0.8100014,100.9175,1,0.98
2022-05-12T10:27:46.155+02:00,1652344065.272552,53.22906956081579,10.39850584232286,40.01681,0,0.07,183.515625,94.83277115361238,4,5,-9999,2583.23665575,0.144866943359375,-0.507904052734375,-0.833892822265625,2583.22666075,2.780108693275968,0.06196315774423924,0.6068616335425022,-0.4767784178256989,-0.1491589993238449,-0.402060866355896,-0.1027765870094299,-0.07214897871017456,0.1215778589248657,XArbitraryZVertical,0.0246056906141166,0.299101700686493,0.9399851405730827,0.1623603882812893,0.05086657032370567,-0.5702922940254211,-0.8198654651641846,0,0,0,-1,-1,2577.161237875,unknown,2,2022-05-12T10:27:40.063+02:00,2022-05-11T22:15:20.957+02:00,19,1.434628,0,0,13.4045,0,0,2022-05-12T10:27:45.179+02:00,674036862.621119,0,-0.8100014,100.9175,1,0.98
2022-05-12T10:27:46.157+02:00,1652344065.272552,53.22906956081579,10.39850584232286,40.01681,0,0.07,183.515625,94.83277115361238,4,5,-9999,2583.24665075,-0.0413970947265625,-0.6290130615234375,-0.8584442138671875,2583.23665575,2.776650298949206,0.06154321291290225,0.6025257942144432,-0.4204592108726501,-0.3264424204826355,-0.240968644618988,0.02455233782529831,-0.004396378993988037,-0.04810547828674316,XArbitraryZVertical,0.02492526835123814,0.2969936170417666,0.940320616282915,0.1642280408130036,0.05067387223243713,-0.5667253136634827,-0.8223470449447632,0,0,0,-1,-1,2577.161237875,unknown,2,2022-05-12T10:27:40.063+02:00,2022-05-11T22:15:20.957+02:00,19,1.434628,0,0,13.4045,0,0,2022-05-12T10:27:45.179+02:00,674036862.621119,0,-0.8100014,100.9175,1,0.98
2022-05-12T10:27:46.159+02:00,1652344065.272552,53.22906956081579,10.39850584232286,40.01681,0,0.07,183.515625,94.83277115361238,4,5,-9999,2583.25664675,-0.04766845703125,-0.561309814453125,-0.8848724365234375,2583.24665075,2.773523271135651,0.06093511200385852,0.5983223824623419,-0.358325868844986,-0.09634405374526978,-0.2804552614688873,0.00676509365439415,-0.01309835910797119,0.01586484909057617,XArbitraryZVertical,0.02528956801523565,0.2949344707339921,0.9406544769576728,0.1659621343157253,0.05031841620802879,-0.563257098197937,-0.8247482180595398,0,0,0,-1,-1,2577.161237875,unknown,2,2022-05-12T10:27:40.063+02:00,2022-05-11T22:15:20.957+02:00,19,1.434628,0,0,13.4045,0,0,2022-05-12T10:27:45.179+02:00,674036862.621119,0,-0.8100014,100.9175,1,0.98
2022-05-12T10:27:46.169+02:00,1652344065.272552,53.22906956081579,10.39850584232286,40.01681,0,0.07,183.515625,94.83277115361238,4,5,-9999,2583.26664175,-0.0948028564453125,-0.485687255859375,-0.8598480224609375,2583.26664175,2.772492168412308,0.06291820693970697,0.5946157536990647,-0.0866873562335968,0.193786695599556,0.08514868468046188,-0.1108154803514481,0.02524745464324951,-0.0400962233543396,XArbitraryZVertical,0.02416722225723927,0.2933489094961602,0.9411182758981524,0.1663091472042265,0.0520847849547863,-0.5601904988288879,-0.8267247080802917,0,0,0,-1,-1,2577.161237875,unknown,2,2022-05-12T10:27:40.063+02:00,2022-05-11T22:15:20.957+02:00,19,1.434628,0,0,13.4045,0,0,2022-05-12T10:27:45.179+02:00,674036862.621119,0,-0.8100014,100.9175,1,0.98
2022-05-12T10:27:46.179+02:00,1652344065.272552,53.22906956081579,10.39850584232286,40.01681,0,0.07,183.515625,94.83277115361238,4,5,-9999,2583.27663675,0.1534423828125,-0.6150970458984375,-0.8551788330078125,2583.26664175,2.772492168412308,0.06291820693970697,0.5946157536990647,-0.0866873562335968,0.193786695599556,0.08514868468046188,-0.1108154803514481,0.02524745464324951,-0.0400962233543396,XArbitraryZVertical,0.02416722225723927,0.2933489094961602,0.9411182758981524,0.1663091472042265,0.0520847849547863,-0.5601904988288879,-0.8267247080802917,0,0,0,-1,-1,2577.161237875,unknown,2,2022-05-12T10:27:40.063+02:00,2022-05-11T22:15:20.957+02:00,19,1.434628,0,0,13.4045,0,0,2022-05-12T10:27:45.179+02:00,674036862.621119,0,-0.8100014,100.9175,1,0.98
2022-05-12T10:27:46.188+02:00,1652344065.272552,53.22906956081579,10.39850584232286,40.01681,0,0.07,183.515625,94.83277115361238,4,5,-9999,2583.28663175,0.20086669921875,-0.5245819091796875,-0.8445281982421875,2583.27663675,2.771571270778037,0.06490484077494071,0.5935997308335557,-0.09977839142084122,0.04930169507861137,-0.13662950694561,-0.06671830266714096,-0.01339054107666016,-0.04054927825927734,XArbitraryZVertical,0.02327348472337554,0.2930268572544518,0.9412085848355055,0.1664939174646228,0.0537639707326889,-0.5593485832214355,-0.8271872401237488,0,0,0,-1,-1,2577.161237875,unknown,2,2022-05-12T10:27:40.063+02:00,2022-05-11T22:15:20.957+02:00,19,1.434628,0,0,13.4045,0,0,2022-05-12T10:27:45.179+02:00,674036862.621119,0,-0.8100014,100.9175,1,0.98
2022-05-12T10:27:46.199+02:00,1652344065.272552,53.22906956081579,10.39850584232286,40.01681,0,0.07,183.515625,94.83277115361238,4,5,-9999,2583.29662675,0.009918212890625,-0.5440521240234375,-0.8669891357421875,2583.28663175,2.770288036873284,0.06511727630135317,0.5925011176388297,-0.09379875659942627,-0.1224532201886177,-0.1058809906244278,0.1894136667251587,-0.009388148784637451,-0.01185661554336548,XArbitraryZVertical,0.02325946391231481,0.2925145844615552,0.941258440890002,0.1671129989645107,0.05397964641451836,-0.5584375858306885,-0.8277884125709534,0,0,0,-1,-1,2577.161237875,unknown,2,2022-05-12T10:27:40.063+02:00,2022-05-11T22:15:20.957+02:00,19,1.434628,0,0,13.4045,0,0,2022-05-12T10:27:45.179+02:00,674036862.621119,0,-0.8100014,100.9175,1,0.98
2022-05-12T10:27:46.209+02:00,1652344065.999404,53.22906956081579,10.39850584232286,39.48062,0,0.06,183.515625,94.83277115361238,4,5,-9999,2583.30662275,-0.0272064208984375,-0.5611419677734375,-0.862213134765625,2583.29662675,2.76885274433164,0.06482856921442912,0.5918046573373478,-0.03740046545863152,-0.08157423138618469,-0.1277220994234085,0.04468425363302231,0.03237700462341309,-0.03016042709350586,XArbitraryZVertical,0.02354032157893821,0.2921470443035124,0.9412327236996808,0.1678601294764419,0.05376584082841873,-0.5578596591949463,-0.8281919360160828,0,0,0,-1,-1,2577.161237875,unknown,2,2022-05-12T10:27:40.063+02:00,2022-05-11T22:15:20.957+02:00,19,1.434628,0,0,13.4045,0,0,2022-05-12T10:27:45.179+02:00,674036862.621119,0,-0.8100014,100.9175,1,0.98
2022-05-12T10:27:46.219+02:00,1652344065.999404,53.22906956081579,10.39850584232286,39.48062,0,0.06,183.515625,94.83277115361238,4,5,-9999,2583.31661775,0.063018798828125,-0.6048126220703125,-0.852203369140625,2583.30662275,2.767478477673042,0.06540024955339165,0.5914104453309641,-0.02903048135340214,0.02880753949284554,-0.1006799712777138,-0.08713597059249878,0.001898527145385742,-0.0385473370552063,XArbitraryZVertical,0.0234351573967958,0.2919941538216972,0.9411791639030627,0.1684400551425494,0.05425366014242172,-0.5575324892997742,-0.8283804059028625,0,0,0,-1,-1,2577.161237875,unknown,2,2022-05-12T10:27:40.063+02:00,2022-05-11T22:15:20.957+02:00,19,1.434628,0,0,13.4045,0,0,2022-05-12T10:27:45.179+02:00,674036862.621119,0,-0.8100014,100.9175,1,0.98
2022-05-12T10:27:46.229+02:00,1652344065.999404,53.22906956081579,10.39850584232286,39.48062,0,0.06,183.515625,94.83277115361238,4,5,-9999,2583.32661275,0.09393310546875,-0.5986175537109375,-0.8396453857421875,2583.31661775,2.766203913327338,0.06643540024103139,0.5908932926950879,-0.05819209665060043,0.02175868488848209,-0.1159372180700302,-0.04200731962919235,-0.02271610498428345,-0.02833712100982666,XArbitraryZVertical,0.02308556462228482,0.2918242059995041,0.9411561170078397,0.1689107688154666,0.05513026192784309,-0.5571030974388123,-0.8286113739013672,0,0,0,-1,-1,2577.161237875,unknown,2,2022-05-12T10:27:40.063+02:00,2022-05-11T22:15:20.957+02:00,19,1.434628,0,0,13.4045,0,0,2022-05-12T10:27:45.179+02:00,674036862.621119,0,-0.8100014,100.9175,1,0.98
2022-05-12T10:27:46.239+02:00,1652344065.999404,53.22906956081579,10.39850584232286,39.48062,0,0.06,183.515625,94.83277115361238,4,5,-9999,2583.33660775,0.02484130859375,-0.61651611328125,-0.8564910888671875,2583.32661275,2.764724225048374,0.06710225459923905,0.5899067948161046,-0.1518988162279129,-0.06804829835891724,-0.1556189805269241,0.03853428363800049,-0.05196267366409302,-0.01964741945266724,XArbitraryZVertical,0.02289461850133922,0.2914011836068276,0.9411765292740265,0.1695521436662924,0.05571963638067245,-0.5562835931777954,-0.8291223645210266,0,0,0,-1,-1,2577.161237875,unknown,2,2022-05-12T10:27:40.063+02:00,2022-05-11T22:15:20.957+02:00,19,1.434628,0,0,13.4045,0,0,2022-05-12T10:27:45.179+02:00,674036862.621119,0,-0.8100014,100.9175,1,0.98
2022-05-12T10:27:46.249+02:00,1652344065.999404,53.22906956081579,10.39850584232286,39.48062,0,0.06,183.515625,94.83277115361238,4,5,-9999,2583.346602166667,0.0147857666015625,-0.56768798828125,-0.858795166015625,2583.33660775,2.762874222182391,0.06768566022952872,0.5881670271062803,-0.1383678168058395,0.006207022815942764,-0.147801011800766,0.002035502344369888,-0.05340933799743652,0.0006629228591918945,XArbitraryZVertical,0.0227246705429273,0.2906140969183152,0.941268595796827,0.1704128456358555,0.05626871436834335,-0.5548369884490967,-0.8300540447235107,0,0,0,-1,-1,2577.161237875,unknown,2,2022-05-12T10:27:40.063+02:00,2022-05-11T22:15:20.957+02:00,19,1.434628,0,0,13.4045,0,0,2022-05-12T10:27:45.179+02:00,674036862.621119,0,-0.8100014,100.9175,1,0.98
2022-05-12T10:27:46.259+02:00,1652344065.999404,53.22906956081579,10.39850584232286,39.48062,0,0.06,183.515625,94.83277115361238,4,5,-9999,2583.356598166667,0.0061187744140625,-0.6135711669921875,-0.85565185546875,2583.346602166667,2.761253381108411,0.06873310673816918,0.586594777652348,-0.1516278684139252,0.01997922733426094,-0.1528242081403732,-0.04726410284638405,-0.0417327880859375,-0.03630799055099487,XArbitraryZVertical,0.02231745930122504,0.2899482061749037,0.9413605352954223,0.171091783176773,0.05719796195626259,-0.5535282492637634,-0.8308639526367188,0,0,0,-1,-1,2577.161237875,unknown,2,2022-05-12T10:27:40.063+02:00,2022-05-11T22:15:20.957+02:00,19,1.434628,0,0,13.4045,0,0,2022-05-12T10:27:45.179+02:00,674036862.621119,0,-0.8100014,100.9175,1,0.98
2022-05-12T10:27:46.269+02:00,1652344065.999404,53.22906956081579,10.39850584232286,39.48062,0,0.06,183.515625,94.83277115361238,4,5,-9999,2583.366593166667,0.034423828125,-0.61907958984375,-0.890380859375,2583.356598166667,2.758993867016518,0.07006636496216799,0.5843193925967309,-0.2524167895317078,0.02898923680186272,-0.2417074739933014,-0.03970128670334816,-0.0125623345375061,-0.01929205656051636,XArbitraryZVertical,0.02179932396723567,0.2889709360002926,0.9414963563136127,0.1720616937747803,0.0583936907351017,-0.5516318082809448,-0.8320412039756775,0,0,0,-1,-1,2577.161237875,unknown,2,2022-05-12T10:27:40.063+02:00,2022-05-11T22:15:20.957+02:00,19,1.434628,0,0,13.4045,0,0,2022-05-12T10:27:45.179+02:00,674036862.621119,0,-0.8100014,100.9175,1,0.98
2022-05-12T10:27:46.279+02:00,1652344065.999404,53.22906956081579,10.39850584232286,39.48062,0,0.06,183.515625,94.83277115361238,4,5,-9999,2583.376588166667,0.06866455078125,-0.5162353515625,-0.87335205078125,2583.366593166667,2.756650083908992,0.07208466481677941,0.5821957813135763,-0.1687581539154053,0.09071911126375198,-0.2051094323396683,-0.05327501520514488,-0.1062995791435242,-0.05117356777191162,XArbitraryZVertical,0.02098282642185001,0.288124366086705,0.9416083326710587,0.1729675303172218,0.06015711277723312,-0.5498592853546143,-0.8330881595611572,0,0,0,-1,-1,2577.161237875,unknown,2,2022-05-12T10:27:40.063+02:00,2022-05-11T22:15:20.957+02:00,19,1.434628,0,0,13.4045,0,0,2022-05-12T10:27:45.179+02:00,674036862.621119,0,-0.8100014,100.9175,1,0.98
2022-05-12T10:27:46.289+02:00,1652344065.999404,53.22906956081579,10.39850584232286,39.48062,0,0.06,183.515625,94.83277115361238,4,5,-9999,2583.386583166667,0.0545806884765625,-0.534515380859375,-0.89398193359375,2583.376588166667,2.754006140862588,0.07423467174035836,0.5803394535741082,-0.1344427913427353,0.05344684049487114,-0.2493466734886169,0.0005834847688674927,0.002088487148284912,-0.03998869657516479,XArbitraryZVertical,0.02017089213285941,0.2874133671107082,0.9416558215645711,0.1739859777077096,0.06202371418476105,-0.5483078360557556,-0.8339734077453613,0,0,0,-1,-1,2577.161237875,unknown,2,2022-05-12T10:27:40.063+02:00,2022-05-11T22:15:20.957+02:00,19,1.434628,0,0,13.4045,0,0,2022-05-12T10:27:45.179+02:00,674036862.621119,0,-0.8100014,100.9175,1,0.98
2022-05-12T10:27:46.299+02:00,1652344065.999404,53.22906956081579,10.39850584232286,39.48062,0,0.06,183.515625,94.83277115361238,4,5,-9999,2583.396579166667,0.0602569580078125,-0.536865234375,-0.8836822509765625,2583.386583166667,2.751070498113176,0.07644963390560119,0.5794015111474013,-0.03416628763079643,0.07144628465175629,-0.2625806331634521,-0.004049420356750488,0.02030110359191895,-0.0536232590675354,XArbitraryZVertical,0.01945798726886598,0.2871379630769029,0.9415497129138811,0.1750924081844586,0.06391002982854843,-0.5475232005119324,-0.8343463540077209,0,0,0,-1,-1,2577.161237875,unknown,2,2022-05-12T10:27:40.063+02:00,2022-05-11T22:15:20.957+02:00,19,1.434628,0,0,13.4045,0,0,2022-05-12T10:27:45.179+02:00,674036862.621119,0,-0.8100014,100.9175,1,0.98
2022-05-12T10:27:46.309+02:00,1652344065.999404,53.22906956081579,10.39850584232286,39.48062,0,0.06,183.515625,94.83277115361238,4,5,-9999,2583.406574166667,0.0727081298828125,-0.5573883056640625,-0.875396728515625,2583.396579166667,2.747889254198222,0.07889307844898971,0.5790655255320781,0.0116917472332716,0.07550281286239624,-0.2755593061447144,-0.009856052696704865,0.01593059301376343,-0.05443781614303589,XArbitraryZVertical,0.01873138650946675,0.2871647837920114,0.9413394176239381,0.176254543675739,0.0659630075097084,-0.5472420454025269,-0.834371030330658,0,0,0,-1,-1,2577.161237875,unknown,2,2022-05-12T10:27:40.063+02:00,2022-05-11T22:15:20.957+02:00,19,1.434628,0,0,13.4045,0,0,2022-05-12T10:27:45.179+02:00,674036862.621119,0,-0.8100014,100.9175,1,0.98
2022-05-12T10:27:46.319+02:00,1652344065.999404,53.22906956081579,10.39850584232286,39.48062,0,0.06,183.515625,94.83277115361238,4,5,-9999,2583.416569166667,0.07476806640625,-0.56915283203125,-0.86767578125,2583.406574166667,2.744561142889607,0.08144790645319548,0.5790267839407247,0.01652042381465435,0.06668581068515778,-0.2823188602924347,-0.00356639176607132,-0.002091944217681885,-0.04660755395889282,XArbitraryZVertical,0.01800322215512246,0.2873419869481355,0.9410738704430902,0.177455648077489,0.06809619069099426,-0.547209620475769,-0.8342209458351135,0,0,0,-1,-1,2577.161237875,unknown,2,2022-05-12T10:27:40.063+02:00,2022-05-11T22:15:20.957+02:00,19,1.434628,0,0,13.4045,0,0,2022-05-12T10:27:45.179+02:00,674036862.621119,0,-0.8100014,100.9175,1,0.98
2022-05-12T10:27:46.329+02:00,1652344065.999404,53.22906956081579,10.39850584232286,39.48062,0,0.06,183.515625,94.83277115361238,4,5,-9999,2583.426564166667,0.064849853515625,-0.5728912353515625,-0.8529052734375,2583.416569166667,2.741131965598049,0.08397258427424038,0.5788930255048405,0.0007513151504099369,0.06501974165439606,-0.291516900062561,0.006910055875778198,-0.01677608489990234,-0.03828638792037964,XArbitraryZVertical,0.01729477022931392,0.287473891407573,0.940809040915947,0.1787125871045125,0.07020825147628784,-0.5470976829528809,-0.8341193199157715,0,0,0,-1,-1,2577.161237875,unknown,2,2022-05-12T10:27:40.063+02:00,2022-05-11T22:15:20.957+02:00,19,1.434628,0,0,13.4045,0,0,2022-05-12T10:27:45.179+02:00,674036862.621119,0,-0.8100014,100.9175,1,0.98
2022-05-12T10:27:46.339+02:00,1652344065.999404,53.22906956081579,10.39850584232286,39.48062,0,0.06,183.515625,94.83277115361238,4,5,-9999,2583.436559166667,0.064605712890625,-0.5730438232421875,-0.8428192138671875,2583.426564166667,2.737770169731409,0.08654212909639294,0.5785066593899669,-0.03106846660375595,0.08426707237958908,-0.2751668393611908,-0.004498101770877838,-0.02655994892120361,-0.02495336532592773,XArbitraryZVertical,0.01653017359096786,0.2874950778504541,0.9405817016152088,0.1799431643487877,0.07236959040164948,-0.5467742085456848,-0.8341466784477234,0,0,0,-1,-1,2577.161237875,unknown,2,2022-05-12T10:27:40.063+02:00,2022-05-11T22:15:20.957+02:00,19,1.434628,0,0,13.4045,0,0,2022-05-12T10:27:45.179+02:00,674036862.621119,0,-0.8100014,100.9175,1,0.98
2022-05-12T10:27:46.349+02:00,1652344065.999404,53.22906956081579,10.39850584232286,39.48062,0,0.06,183.515625,94.83277115361238,4,5,-9999,2583.446555166667,0.063232421875,-0.5714569091796875,-0.8440399169921875,2583.436559166667,2.734619995586456,0.08915278508898623,0.5777599769272845,-0.07001294195652008,0.09978903830051422,-0.2674370110034943,-0.01006878912448883,-0.02630031108856201,-0.01149404048919678,XArbitraryZVertical,0.01567869140671416,0.2873560731208534,0.9404194468938863,0.1810861944474067,0.07458334416151047,-0.5461488962173462,-0.8343613147735596,0,0,0,-1,-1,2577.161237875,unknown,2,2022-05-12T10:27:40.063+02:00,2022-05-11T22:15:20.957+02:00,19,1.434628,0,0,13.4045,0,0,2022-05-12T10:27:45.179+02:00,674036862.621119,0,-0.8100014,100.9175,1,0.98
2022-05-12T10:27:46.358+02:00,1652344065.999404,53.22906956081579,10.39850584232286,39.48062,0,0.06,183.515625,94.83277115361238,4,5,-9999,2583.456550166667,0.0601348876953125,-0.562286376953125,-0.8441925048828125,2583.446555166667,2.731609320652665,0.09186202655809902,0.5766537143195201,-0.1099633499979973,0.1212710291147232,-0.2617461979389191,-0.01336093246936798,-0.02875322103500366,-0.008427798748016357,XArbitraryZVertical,0.01472277360700349,0.2870620024651528,0.9403156617570502,0.1821680229325097,0.07689892500638962,-0.5452218055725098,-0.8347572684288025,0,0,0,-1,-1,2577.161237875,unknown,2,2022-05-12T10:27:40.063+02:00,2022-05-11T22:15:20.957+02:00,19,1.434628,0,0,13.4045,0,0,2022-05-12T10:27:45.179+02:00,674036862.621119,0,-0.8100014,100.9175,1,0.98
2022-05-12T10:27:46.369+02:00,1652344065.999404,53.22906956081579,10.39850584232286,39.48062,0,0.06,183.515625,94.83277115361238,4,5,-9999,2583.466545166667,0.060455322265625,-0.548675537109375,-0.842132568359375,2583.456550166667,2.728616691423014,0.09476103508205468,0.575225649835765,-0.1232453286647797,0.1359509080648422,-0.2699388861656189,-0.01622037589550018,-0.02398473024368286,-0.008185148239135742,XArbitraryZVertical,0.01364007294946501,0.2866380776872189,0.940254612410704,0.1832318340390139,0.07939215749502182,-0.5440241694450378,-0.8353050947189331,0,0,0,-1,-1,2577.161237875,unknown,2,2022-05-12T10:27:40.063+02:00,2022-05-11T22:15:20.957+02:00,19,1.434628,0,0,13.4045,0,0,2022-05-12T10:27:45.179+02:00,674036862.621119,0,-0.8100014,100.9175,1,0.98
2022-05-12T10:27:46.379+02:00,1652344065.999404,53.22906956081579,10.39850584232286,39.48062,0,0.06,183.515625,94.83277115361238,4,5,-9999,2583.476540166667,0.0665283203125,-0.5466461181640625,-0.8346405029296875,2583.466545166667,2.725557354809046,0.09783807312233472,0.5736845892197314,-0.1321254819631577,0.143568143248558,-0.2740996479988098,-0.02282408624887466,-0.01377326250076294,-0.01028555631637573,XArbitraryZVertical,0.01246945592675733,0.2861807109504402,0.9401995837076655,0.184309055905216,0.0820438414812088,-0.542730450630188,-0.8358902335166931,0,0,0,-1,-1,2577.161237875,unknown,2,2022-05-12T10:27:40.063+02:00,2022-05-11T22:15:20.957+02:00,19,1.434628,0,0,13.4045,0,0,2022-05-12T10:27:45.179+02:00,674036862.621119,0,-0.8100014,100.9175,1,0.98
2022-05-12T10:27:46.388+02:00,1652344065.999404,53.22906956081579,10.39850584232286,39.48062,0,0.06,183.515625,94.83277115361238,4,5,-9999,2583.486535166667,0.0618133544921875,-0.5486907958984375,-0.82818603515625,2583.476540166667,2.7224251474856,0.1009439039468582,0.5720682852699664,-0.1341928839683533,0.1351892948150635,-0.2856822609901428,-0.01993864774703979,-0.005030274391174316,-0.002531647682189941,XArbitraryZVertical,0.01128566844632462,0.2856940777655891,0.9401436624836831,0.185422398219723,0.08472786098718643,-0.5413721799850464,-0.8365030288696289,0,0,0,-1,-1,2577.161237875,unknown,2,2022-05-12T10:27:40.063+02:00,2022-05-11T22:15:20.957+02:00,19,1.434628,0,0,13.4045,0,0,2022-05-12T10:27:45.179+02:00,674036862.621119,0,-0.8100014,100.9175,1,0.98
2022-05-12T10:27:46.398+02:00,1652344065.999404,53.22906956081579,10.39850584232286,39.48062,0,0.06,183.515625,94.83277115361238,4,5,-9999,2583.496531166667,0.0437469482421875,-0.5580902099609375,-0.8141632080078125,2583.486535166667,2.719100647126012,0.1040118573625601,0.5704628568629974,-0.1331188678741455,0.117969237267971,-0.3003284931182861,-0.02157238125801086,-0.008532285690307617,0.004949569702148438,XArbitraryZVertical,0.01014608225570228,0.2852118273921384,0.9400635459244726,0.1866329716628959,0.0873839408159256,-0.5400216579437256,-0.8371025323867798,0,0,0,-1,-1,2577.161237875,unknown,2,2022-05-12T10:27:40.063+02:00,2022-05-11T22:15:20.957+02:00,19,1.434628,0,0,13.4045,0,0,2022-05-12T10:27:45.179+02:00,674036862.621119,0,-0.8100014,100.9175,1,0.98
2022-05-12T10:27:46.408+02:00,1652344065.999404,53.22906956081579,10.39850584232286,39.48062,0,0.06,183.515625,94.83277115361238,4,5,-9999,2583.506526166667,0.024993896484375,-0.57855224609375,-0.7975921630859375,2583.496531166667,2.715574459040635,0.1070210620977382,0.5687541820271294,-0.1455515623092651,0.1051927283406258,-0.3264162838459015,-0.03662533313035965,-0.01195478439331055,0.01551723480224609,XArbitraryZVertical,0.009049352073351358,0.2846789446850298,0.9399730032979844,0.1879543207978692,0.09000097960233688,-0.5385828018188477,-0.8377520442008972,0,0,0,-1,-1,2577.161237875,unknown,2,2022-05-12T10:27:40.063+02:00,2022-05-11T22:15:20.957+02:00,19,1.434628,0,0,13.4045,0,0,2022-05-12T10:27:45.179+02:00,674036862.621119,0,-0.8100014,100.9175,1,0.98
2022-05-12T10:27:46.418+02:00,1652344065.999404,53.22906956081579,10.39850584232286,39.48062,0,0.06,183.515625,94.83277115361238,4,5,-9999,2583.516521166667,0.003509521484375,-0.595550537109375,-0.7920684814453125,2583.506526166667,2.711845304616562,0.1100548589106137,0.5667526415060615,-0.1873476803302765,0.09747821092605591,-0.3443530797958374,-0.05880069732666016,-0.03140354156494141,0.03182828426361084,XArbitraryZVertical,0.007935230339522785,0.2840150800146711,0.9398965917170571,0.1893859677140138,0.09266035258769989,-0.5368952751159668,-0.8385449051856995,0,0,0,-1,-1,2577.161237875,unknown,2,2022-05-12T10:27:40.063+02:00,2022-05-11T22:15:20.957+02:00,19,1.434628,0,0,13.4045,0,0,2022-05-12T10:27:45.179+02:00,674036862.621119,0,-0.8100014,100.9175,1,0.98
2022-05-12T10:27:46.428+02:00,1652344065.999404,53.22906956081579,10.39850584232286,39.48062,0,0.06,183.515625,94.83277115361238,4,5,-9999,2583.526516166667,-0.029022216796875,-0.6211395263671875,-0.7816009521484375,2583.516521166667,2.707913573295618,0.1131258342325149,0.5641166419611776,-0.2630528211593628,0.09767981618642807,-0.3760817348957062,-0.0801505520939827,-0.05264174938201904,0.04695069789886475,XArbitraryZVertical,0.006758752528286865,0.2830626367831257,0.9398775253610182,0.1909458813404055,0.09539449214935303,-0.5346695184707642,-0.8396597504615784,0,0,0,-1,-1,2577.161237875,unknown,2,2022-05-12T10:27:40.063+02:00,2022-05-11T22:15:20.957+02:00,19,1.434628,0,0,13.4045,0,0,2022-05-12T10:27:45.179+02:00,674036862.621119,0,-0.8100014,100.9175,1,0.98
2022-05-12T10:27:46.439+02:00,1652344065.999404,53.22906956081579,10.39850584232286,39.48062,0,0.06,183.515625,94.83277115361238,4,5,-9999,2583.536512166667,-0.063446044921875,-0.634124755859375,-0.767059326171875,2583.526516166667,2.703689630086175,0.1163547357260043,0.5606350220379003,-0.3480103015899658,0.1007699519395828,-0.4154614210128784,-0.1095049679279327,-0.07551509141921997,0.05258673429489136,XArbitraryZVertical,0.005449750879771818,0.2817351852572508,0.9399324356034097,0.1926729082678678,0.09832067787647247,-0.5317240953445435,-0.8411911725997925,0,0,0,-1,-1,2577.161237875,unknown,2,2022-05-12T10:27:40.063+02:00,2022-05-11T22:15:20.957+02:00,19,1.434628,0,0,13.4045,0,0,2022-05-12T10:27:45.179+02:00,674036862.621119,0,-0.8100014,100.9175,1,0.98
2022-05-12T10:27:46.448+02:00,1652344065.999404,53.22906956081579,10.39850584232286,39.48062,0,0.06,183.515625,94.83277115361238,4,5,-9999,2583.546507166667,-0.098114013671875,-0.6312103271484375,-0.7621307373046875,2583.536512166667,2.699087444424146,0.1198908112026589,0.5562057240255789,-0.4399069249629974,0.1197345852851868,-0.4683629870414734,-0.1484193503856659,-0.1023733615875244,0.06884604692459106,XArbitraryZVertical,0.003934951218315978,0.2800007146116974,0.9400622773127449,0.1945949732086274,0.1015752628445625,-0.5279676914215088,-0.8431682586669922,0,0,0,-1,-1,2577.161237875,unknown,2,2022-05-12T10:27:40.063+02:00,2022-05-11T22:15:20.957+02:00,19,1.434628,0,0,13.4045,0,0,2022-05-12T10:27:45.179+02:00,674036862.621119,0,-0.8100014,100.9175,1,0.98
2022-05-12T10:27:46.458+02:00,1652344065.999404,53.22906956081579,10.39850584232286,39.48062,0,0.06,183.515625,94.83277115361238,4,5,-9999,2583.556502166667,-0.1352996826171875,-0.637603759765625,-0.7537994384765625,2583.546507166667,2.694004703702405,0.1238854925598722,0.5507357415922275,-0.5396699905395508,0.1454546004533768,-0.5294577479362488,-0.1856808066368103,-0.1090408563613892,0.08263927698135376,XArbitraryZVertical,0.002142008830241048,0.2778325784769175,0.9402631181176111,0.1967480328106168,0.1052979230880737,-0.5233142971992493,-0.8456089496612549,0,0,0,-1,-1,2577.161237875,unknown,2,2022-05-12T10:27:40.063+02:00,2022-05-11T22:15:20.957+02:00,19,1.434628,0,0,13.4045,0,0,2022-05-12T10:27:45.179+02:00,674036862.621119,0,-0.8100014,100.9175,1,0.98
2022-05-12T10:27:46.468+02:00,1652344065.999404,53.22906956081579,10.39850584232286,39.48062,0,0.06,183.515625,94.83277115361238,4,5,-9999,2583.566497166667,-0.1642913818359375,-0.6425018310546875,-0.7428131103515625,2583.556502166667,2.688226361432756,0.1285384195750917,0.544112746869674,-0.6587854623794556,0.184101864695549,-0.6214686632156372,-0.2262194156646729,-0.1166185736656189,0.08801561594009399,XArbitraryZVertical,-1.253072073889348e-05,0.2752011795710917,0.9405195240483077,0.1992172329450629,0.1096732094883919,-0.5176591873168945,-0.8485286235809326,0,0,0,-1,-1,2577.161237875,unknown,2,2022-05-12T10:27:40.063+02:00,2022-05-11T22:15:20.957+02:00,19,1.434628,0,0,13.4045,0,0,2022-05-12T10:27:45.179+02:00,674036862.621119,0,-0.8100014,100.9175,1,0.98
2022-05-12T10:27:46.478+02:00,1652344065.999404,53.22906956081579,10.39850584232286,39.48062,0,0.06,183.515625,94.83277115361238,4,5,-9999,2583.576492166667,-0.185546875,-0.654083251953125,-0.747528076171875,2583.566497166667,2.681521587575888,0.1340649014522199,0.5359579544501837,-0.8173059821128845,0.2324886322021484,-0.7382128834724426,-0.2659829258918762,-0.1289076805114746,0.1063070893287659,XArbitraryZVertical,-0.002651899484332616,0.2719568751585659,0.9408419306042466,0.2021116198200395,0.1149213239550591,-0.5106648802757263,-0.852064847946167,0,0,0,-1,-1,2577.161237875,unknown,2,2022-05-12T10:27:40.063+02:00,2022-05-11T22:15:20.957+02:00,19,1.434628,0,0,13.4045,0,0,2022-05-12T10:27:45.179+02:00,674036862.621119,0,-0.8100014,100.9175,1,0.98
2022-05-12T10:27:46.488+02:00,1652344065.999404,53.22906956081579,10.39850584232286,39.48062,0,0.06,183.515625,94.83277115361238,4,5,-9999,2583.586488166667,-0.1831817626953125,-0.658660888671875,-0.6941680908203125,2583.576492166667,2.673803000726291,0.1406265844312555,0.525897077695533,-0.9981860518455505,0.2912718057632446,-0.8561320900917053,-0.2965773940086365,-0.1461132168769836,0.1159191131591797,XArbitraryZVertical,-0.005898941644222938,0.2679497245039189,0.9412462545388993,0.2054846133717148,0.1212238073348999,-0.5019890666007996,-0.8563362956047058,0,0,0,-1,-1,2577.161237875,unknown,2,2022-05-12T10:27:40.063+02:00,2022-05-11T22:15:20.957+02:00,19,1.434628,0,0,13.4045,0,0,2022-05-12T10:27:45.179+02:00,674036862.621119,0,-0.8100014,100.9175,1,0.98
2022-05-12T10:27:46.499+02:00,1652344065.999404,53.22906956081579,10.39850584232286,39.48062,0,0.06,183.515625,94.83277115361238,4,5,-9999,2583.596483166667,-0.1977996826171875,-0.705474853515625,-0.6998138427734375,2583.586488166667,2.66534707101628,0.1476940525961664,0.5132040405304749,-1.310592770576477,0.2787796854972839,-0.9682727456092834,-0.3154861927032471,-0.1606254577636719,0.1313145756721497,XArbitraryZVertical,-0.00964871486670137,0.2627949245011061,0.9418193995981098,0.2093372529675227,0.1282002329826355,-0.4909710586071014,-0.8616914749145508,0,0,0,-1,-1,2577.161237875,unknown,2,2022-05-12T10:27:40.063+02:00,2022-05-11T22:15:20.957+02:00,19,1.434628,0,0,13.4045,0,0,2022-05-12T10:27:45.179+02:00,674036862.621119,0,-0.8100014,100.9175,1,0.98
2022-05-12T10:27:46.508+02:00,1652344065.999404,53.22906956081579,10.39850584232286,39.48062,0,0.06,183.515625,94.83277115361238,4,5,-9999,2583.606478166667,-0.2088470458984375,-0.667816162109375,-0.689453125,2583.596483166667,2.656021106621905,0.1552810080085709,0.4973535395407584,-1.567031979560852,0.3410950005054474,-1.123328566551208,-0.320872038602829,-0.209620863199234,0.1815983653068542,XArbitraryZVertical,-0.01398055338885642,0.2562567055695902,0.9425683443279038,0.2137806115259218,0.1359206885099411,-0.4771013855934143,-0.8682740926742554,0,0,0,-1,-1,2577.161237875,unknown,2,2022-05-12T10:27:40.063+02:00,2022-05-11T22:15:20.957+02:00,19,1.434628,0,0,13.4045,0,0,2022-05-12T10:27:45.179+02:00,674036862.621119,0,-0.8100014,100.9175,1,0.98
2022-05-12T10:27:46.519+02:00,1652344065.999404,53.22906956081579,10.39850584232286,39.48062,0,0.06,183.515625,94.83277115361238,4,5,-9999,2583.616473166667,-0.2059783935546875,-0.7006988525390625,-0.6672821044921875,2583.606478166667,2.645970643972023,0.1635879644100725,0.4784824154696274,-1.903901219367981,0.3743841648101807,-1.222348570823669,-0.352424144744873,-0.2305316030979156,0.1714826822280884,XArbitraryZVertical,-0.01902179064633863,0.2484280306182764,0.9434399177445637,0.2187303805118049,0.1445693522691727,-0.4604325592517853,-0.875843346118927,0,0,0,-1,-1,2577.161237875,unknown,2,2022-05-12T10:27:40.063+02:00,2022-05-11T22:15:20.957+02:00,19,1.434628,0,0,13.4045,0,0,2022-05-12T10:27:45.179+02:00,674036862.621119,0,-0.8100014,100.9175,1,0.98
2022-05-12T10:27:46.528+02:00,1652344065.999404,53.22906956081579,10.39850584232286,39.48062,0,0.06,183.515625,94.83277115361238,4,5,-9999,2583.626469166667,-0.228057861328125,-0.7738800048828125,-0.6820068359375,2583.616473166667,2.636122926031245,0.1720776193557563,0.4553417810943168,-2.373926401138306,0.4477832913398743,-1.286424517631531,-0.3584946691989899,-0.2279710173606873,0.2157033085823059,XArbitraryZVertical,-0.02482528513002992,0.238663677149823,0.9446075581642241,0.2239194789187956,0.1537832021713257,-0.4397692978382111,-0.8848466873168945,0,0,0,-1,-1,2577.161237875,unknown,2,2022-05-12T10:27:40.063+02:00,2022-05-11T22:15:20.957+02:00,19,1.434628,0,0,13.4045,0,0,2022-05-12T10:27:45.179+02:00,674036862.621119,0,-0.8100014,100.9175,1,0.98
2022-05-12T10:27:46.539+02:00,1652344065.999404,53.22906956081579,10.39850584232286,39.48062,0,0.06,183.515625,94.83277115361238,4,5,-9999,2583.636464166667,-0.2416229248046875,-0.738739013671875,-0.6837615966796875,2583.626469166667,2.62657809030613,0.181246070984742,0.4272261323700119,-2.861639738082886,0.5754256844520569,-1.415076613426208,-0.3812011480331421,-0.3327991664409637,0.2187889218330383,XArbitraryZVertical,-0.03175929038387144,0.2266847691018564,0.9460565416153663,0.2293087469854051,0.1640537679195404,-0.4143478572368622,-0.8952107429504395,0,0,0,-1,-1,2577.161237875,unknown,2,2022-05-12T10:27:40.063+02:00,2022-05-11T22:15:20.957+02:00,19,1.434628,0,0,13.4045,0,0,2022-05-12T10:27:45.179+02:00,674036862.621119,0,-0.8100014,100.9175,1,0.98
2022-05-12T10:27:46.548+02:00,1652344065.999404,53.22906956081579,10.39850584232286,39.48062,0,0.06,183.515625,94.83277115361238,4,5,-9999,2583.646459166667,-0.2394256591796875,-0.6732940673828125,-0.716033935546875,2583.636464166667,2.61684245159985,0.1916442561572738,0.3941477849148136,-3.295989513397217,0.724628210067749,-1.558735132217407,-0.412455677986145,-0.3854033946990967,0.2238949537277222,XArbitraryZVertical,-0.0400598143164444,0.21256776909209,0.9475971548795145,0.2350955586363631,0.1758686155080795,-0.3840214610099792,-0.9064202904701233,0,0,0,-1,-1,2577.161237875,unknown,2,2022-05-12T10:27:40.063+02:00,2022-05-11T22:15:20.957+02:00,19,1.434628,0,0,13.4045,0,0,2022-05-12T10:27:45.179+02:00,674036862.621119,0,-0.8100014,100.9175,1,0.98
2022-05-12T10:27:46.558+02:00,1652344065.999404,53.22906956081579,10.39850584232286,39.48062,0,0.06,183.515625,94.83277115361238,4,5,-9999,2583.656454166667,-0.2413177490234375,-0.646514892578125,-0.722198486328125,2583.646459166667,2.607225624741452,0.2032314336558124,0.3568540676776589,-3.688120603561401,0.8971326351165771,-1.659530758857727,-0.4305896759033203,-0.3546669483184814,0.2148663997650146,XArbitraryZVertical,-0.04967198876683629,0.1966582224755098,0.9490626767958593,0.2411191076939668,0.1891197711229324,-0.3493282198905945,-0.9177165031433105,0,0,0,-1,-1,2577.161237875,unknown,2,2022-05-12T10:27:40.063+02:00,2022-05-11T22:15:20.957+02:00,19,1.434628,0,0,13.4045,0,0,2022-05-12T10:27:45.179+02:00,674036862.621119,0,-0.8100014,100.9175,1,0.98
2022-05-12T10:27:46.568+02:00,1652344065.999404,53.22906956081579,10.39850584232286,39.48062,0,0.06,183.515625,94.83277115361238,4,5,-9999,2583.666449166667,-0.24383544921875,-0.6216888427734375,-0.761749267578125,2583.656454166667,2.598004896527181,0.216288537824012,0.3148921314532087,-4.154714107513428,1.118613004684448,-1.798822283744812,-0.4412970840930939,-0.340417742729187,0.2089192867279053,XArbitraryZVertical,-0.06083777106465105,0.1787755764287459,0.9503614315511891,0.2472881283634569,0.2040538936853409,-0.3097139000892639,-0.9286761283874512,0,0,0,-1,-1,2577.161237875,unknown,2,2022-05-12T10:27:40.063+02:00,2022-05-11T22:15:20.957+02:00,19,1.434628,0,0,13.4045,0,0,2022-05-12T10:27:45.179+02:00,674036862.621119,0,-0.8100014,100.9175,1,0.98
2022-05-12T10:27:46.579+02:00,1652344065.999404,53.22906956081579,10.39850584232286,39.48062,0,0.06,183.515625,94.83277115361238,4,5,-9999,2583.676445166667,-0.2330780029296875,-0.5102386474609375,-0.8489532470703125,2583.666449166667,2.589177237803532,0.2313056383486653,0.268067872497632,-4.603139400482178,1.371233940124512,-1.922800540924072,-0.4661165475845337,-0.3811582028865814,0.2073415517807007,XArbitraryZVertical,-0.07382604419956948,0.1588959924614747,0.9513033407150279,0.253621642556751,0.2210608571767807,-0.264868825674057,-0.9386035799980164,0,0,0,-1,-1,2577.161237875,unknown,2,2022-05-12T10:27:40.063+02:00,2022-05-11T22:15:20.957+02:00,19,1.434628,0,0,13.4045,0,0,2022-05-12T10:27:45.179+02:00,674036862.621119,0,-0.8100014,100.9175,1,0.98
2022-05-12T10:27:46.589+02:00,1652344065.999404,53.22906956081579,10.39850584232286,39.48062,0,0.06,183.515625,94.83277115361238,4,5,-9999,2583.686440166667,-0.222991943359375,-0.407745361328125,-0.92230224609375,2583.676445166667,2.581165727440521,0.2480898630905988,0.2166284965150685,-5.030261039733887,1.585398435592651,-2.032644033432007,-0.4784453511238098,-0.3582281768321991,0.1379040479660034,XArbitraryZVertical,-0.08853724221797109,0.1371054842948558,0.9517231143679729,0.2599740432089546,0.2398136109113693,-0.214938148856163,-0.9467265009880066,0,0,0,-1,-1,2577.161237875,unknown,2,2022-05-12T10:27:40.063+02:00,2022-05-11T22:15:20.957+02:00,19,1.434628,0,0,13.4045,0,0,2022-05-12T10:27:45.179+02:00,674036862.621119,0,-0.8100014,100.9175,1,0.98
2022-05-12T10:27:46.599+02:00,1652344065.999404,53.22906956081579,10.39850584232286,39.48062,0,0.06,183.515625,94.83277115361238,4,5,-9999,2583.696435166667,-0.204986572265625,-0.2963409423828125,-0.990234375,2583.686440166667,2.573934209453748,0.2663960838469251,0.1608870881779806,-5.374619483947754,1.811125040054321,-2.187961339950562,-0.4876545369625092,-0.2953881621360779,0.06945472955703735,XArbitraryZVertical,-0.1047754648261241,0.1135279261261129,0.951398310742441,0.2664109049953593,0.2598565518856049,-0.1601939052343369,-0.952267050743103,0,0,0,-1,-1,2577.161237875,unknown,2,2022-05-12T10:27:40.063+02:00,2022-05-11T22:15:20.957+02:00,19,1.434628,0,0,13.4045,0,0,2022-05-12T10:27:45.179+02:00,674036862.621119,0,-0.8100014,100.9175,1,0.98
2022-05-12T10:27:46.609+02:00,1652344065.999404,53.22906956081579,10.39850584232286,39.48062,0,0.06,183.515625,94.83277115361238,4,5,-9999,2583.706430166667,-0.160491943359375,-0.1641998291015625,-1.026412963867188,2583.696435166667,2.567014262804207,0.2866758317366581,0.1018364101760115,-5.601728439331055,2.069472789764404,-2.356581449508667,-0.4991648197174072,-0.2564637064933777,-0.006763339042663574,XArbitraryZVertical,-0.1225417720131659,0.08873360017288356,0.9500104696969739,0.2731118303650138,0.2813003361225128,-0.1016604825854301,-0.9542196989059448,0,0,0,-1,-1,2577.161237875,unknown,2,2022-05-12T10:27:40.063+02:00,2022-05-11T22:15:20.957+02:00,19,1.434628,0,0,13.4045,0,0,2022-05-12T10:27:45.179+02:00,674036862.621119,0,-0.8100014,100.9175,1,0.98
2022-05-12T10:27:46.636+02:00,1652344065.999404,53.22906956081579,10.39850584232286,39.48062,0,0.06,183.515625,94.83277115361238,4,5,-9999,2583.716425166667,-0.120086669921875,-0.0901641845703125,-1.052871704101562,2583.706430166667,2.560598380383959,0.3093231479667475,0.04032605424416297,-5.791980266571045,2.384861469268799,-2.467603921890259,-0.4891940653324127,-0.1873463988304138,-0.05935806035995483,XArbitraryZVertical,-0.1418554960328123,0.06320047523662503,0.9473626530493722,0.2799765131383457,0.3041664958000183,-0.04031512513756752,-0.9517654180526733,0,0,0,-1,-1,2577.161237875,unknown,2,2022-05-12T10:27:40.063+02:00,2022-05-11T22:15:20.957+02:00,19,1.434628,0,0,13.4045,0,0,2022-05-12T10:27:45.179+02:00,674036862.621119,0,-0.8100014,100.9175,1,0.98
2022-05-12T10:27:46.639+02:00,1652344065.999404,53.22906956081579,10.39850584232286,39.48062,0,0.06,183.515625,94.83277115361238,4,5,-9999,2583.726421166667,-0.076324462890625,0.0096435546875,-1.016983032226562,2583.716425166667,2.555471337285694,0.3350423226546785,-0.0231500027315989,-5.899314403533936,2.735330104827881,-2.530723810195923,-0.4666905105113983,-0.1420448124408722,-0.1008851528167725,XArbitraryZVertical,-0.1629159307031443,0.03723876265438868,0.9433414186773753,0.2866683110726261,0.3287210464477539,0.0231479350477457,-0.9441433548927307,0,0,0,-1,-1,2577.161237875,unknown,2,2022-05-12T10:27:40.063+02:00,2022-05-11T22:15:20.957+02:00,19,1.434628,0,0,13.4045,0,0,2022-05-12T10:27:45.179+02:00,674036862.621119,0,-0.8100014,100.9175,1,0.98
2022-05-12T10:27:46.641+02:00,1652344065.999404,53.22906956081579,10.39850584232286,39.48062,0,0.06,183.515625,94.83277115361238,4,5,-9999,2583.736416166667,-0.0222625732421875,0.1529693603515625,-1.047164916992188,2583.726421166667,2.551682626526521,0.3637505015492747,-0.08760890986523268,-5.962153911590576,3.047177076339722,-2.58985424041748,-0.4560708999633789,-0.1413150131702423,-0.1078944802284241,XArbitraryZVertical,-0.1854169518008817,0.01132083763413478,0.9378286308774003,0.2932064518439195,0.3544173240661621,0.08749688416719437,-0.9309847950935364,0,0,0,-1,-1,2577.161237875,unknown,2,2022-05-12T10:27:40.063+02:00,2022-05-11T22:15:20.957+02:00,19,1.434628,0,0,13.4045,0,0,2022-05-12T10:27:45.179+02:00,674036862.621119,0,-0.8100014,100.9175,1,0.98
2022-05-12T10:27:46.649+02:00,1652344065.999404,53.22906956081579,10.39850584232286,39.48062,0,0.06,183.515625,94.83277115361238,4,5,-9999,2583.746411166667,0.0252532958984375,0.2942352294921875,-1.04083251953125,2583.736416166667,2.54928331495813,0.3956685171603301,-0.1522468352064105,-5.857208251953125,3.403700590133667,-2.644497394561768,-0.4288789331912994,-0.06970477104187012,-0.1072365641593933,XArbitraryZVertical,-0.209207196675766,-0.01412549127627391,0.9307314267310708,0.299619907359682,0.3809668719768524,0.1516593545675278,-0.9120656251907349,0,0,0,-1,-1,2577.161237875,unknown,2,2022-05-12T10:27:40.063+02:00,2022-05-11T22:15:20.957+02:00,19,1.434628,0,0,13.4045,0,0,2022-05-12T10:27:45.179+02:00,674036862.621119,0,-0.8100014,100.9175,1,0.98
2022-05-12T10:27:46.659+02:00,1652344065.999404,53.22906956081579,10.39850584232286,39.48062,0,0.06,183.515625,94.83277115361238,4,5,-9999,2583.756406166667,0.0739288330078125,0.4005889892578125,-1.034408569335938,2583.746411166667,2.548072303495953,0.4310604382105733,-0.215792687366009,-5.676451206207275,3.712246417999268,-2.673539876937866,-0.4066782891750336,0.01260818541049957,-0.1704398989677429,XArbitraryZVertical,-0.2340894774275865,-0.03842175553417233,0.9219964050625971,0.3060204983421385,0.4081436097621918,0.2141218036413193,-0.8874517679214478,0,0,0,-1,-1,2577.161237875,unknown,2,2022-05-12T10:27:40.063+02:00,2022-05-11T22:15:20.957+02:00,19,1.434628,0,0,13.4045,0,0,2022-05-12T10:27:45.179+02:00,674036862.621119,0,-0.8100014,100.9175,1,0.98
2022-05-12T10:27:46.668+02:00,1652344065.999404,53.22906956081579,10.39850584232286,39.48062,0,0.06,183.515625,94.83277115361238,4,5,-9999,2583.766402166667,0.1460113525390625,0.50982666015625,-0.958404541015625,2583.756406166667,2.547824884501059,0.4695722190097182,-0.2770552054644881,-5.335682392120361,3.991053581237793,-2.704765796661377,-0.3863131701946259,0.07486400008201599,-0.1859310865402222,XArbitraryZVertical,-0.2596140855956194,-0.06101784928985828,0.9117105332039178,0.3125082974705997,0.4352486133575439,0.2735243439674377,-0.8577547073364258,0,0,0,-1,-1,2577.161237875,unknown,2,2022-05-12T10:27:40.063+02:00,2022-05-11T22:15:20.957+02:00,19,1.434628,0,0,13.4045,0,0,2022-05-12T10:27:45.179+02:00,674036862.621119,0,-0.8100014,100.9175,1,0.98
2022-05-12T10:27:46.678+02:00,1652344065.999404,53.22906956081579,10.39850584232286,39.48062,0,0.06,183.515625,94.83277115361238,4,5,-9999,2583.776397166667,0.1996612548828125,0.5631561279296875,-0.91162109375,2583.766402166667,2.548392290260387,0.51063456415994,-0.3353960402125498,-5.010673046112061,4.196065425872803,-2.689230680465698,-0.3536034822463989,0.129062682390213,-0.1712029576301575,XArbitraryZVertical,-0.2853390481487802,-0.0816722821725589,0.9000329580658335,0.3191425749307942,0.461498886346817,0.3291431665420532,-0.823822557926178,0,0,0,-1,-1,2577.161237875,unknown,2,2022-05-12T10:27:40.063+02:00,2022-05-11T22:15:20.957+02:00,19,1.434628,0,0,13.4045,0,0,2022-05-12T10:27:45.179+02:00,674036862.621119,0,-0.8100014,100.9175,1,0.98
2022-05-12T10:27:46.689+02:00,1652344065.999404,53.22906956081579,10.39850584232286,39.48062,0,0.06,183.515625,94.83277115361238,4,5,-9999,2583.786392166667,0.2608795166015625,0.58489990234375,-0.813140869140625,2583.776397166667,2.550183045891016,0.5541709967316417,-0.3908275601526366,-4.726150035858154,4.383902072906494,-2.651124477386475,-0.3100123405456543,0.1618621051311493,-0.152915894985199,XArbitraryZVertical,-0.311126257899665,-0.1004597589303137,0.8871183474164467,0.3257749979890401,0.4865570664405823,0.3809536993503571,-0.7862165570259094,0,0,0,-1,-1,2577.161237875,unknown,2,2022-05-12T10:27:40.063+02:00,2022-05-11T22:15:20.957+02:00,19,1.434628,0,0,13.4045,0,0,2022-05-12T10:27:45.179+02:00,674036862.621119,0,-0.8100014,100.9175,1,0.98
2022-05-12T10:27:46.699+02:00,1652344065.999404,53.22906956081579,10.39850584232286,39.48062,0,0.06,183.515625,94.83277115361238,4,5,-9999,2583.796387166667,0.3072967529296875,0.5815887451171875,-0.768707275390625,2583.786392166667,2.554078892694968,0.6001523021250829,-0.4440062562075915,-4.606525421142578,4.487741470336914,-2.548657178878784,-0.2838712930679321,0.1464430093765259,-0.1173931956291199,XArbitraryZVertical,-0.336892397416399,-0.1178457807926746,0.8731050911965261,0.3321196968266837,0.5100071430206299,0.4295606911182404,-0.7452317476272583,0,0,0,-1,-1,2577.161237875,unknown,2,2022-05-12T10:27:40.063+02:00,2022-05-11T22:15:20.957+02:00,19,1.434628,0,0,13.4045,0,0,2022-05-12T10:27:45.179+02:00,674036862.621119,0,-0.8100014,100.9175,1,0.98
2022-05-12T10:27:46.708+02:00,1652344065.999404,53.22906956081579,10.39850584232286,39.48062,0,0.06,183.515625,94.83277115361238,4,5,-9999,2583.806382166667,0.3283843994140625,0.63330078125,-0.6375579833984375,2583.796387166667,2.561212715478443,0.648758212158568,-0.4956469534429392,-4.519560813903809,4.583186626434326,-2.464166164398193,-0.2408084869384766,0.1069641709327698,-0.08585941791534424,XArbitraryZVertical,-0.3625910711442809,-0.1343704606872398,0.8581014171484681,0.3378377249547352,0.5314890146255493,0.4756008386611938,-0.7009446024894714,0,0,0,-1,-1,2577.161237875,unknown,2,2022-05-12T10:27:40.063+02:00,2022-05-11T22:15:20.957+02:00,19,1.434628,0,0,13.4045,0,0,2022-05-12T10:27:45.179+02:00,674036862.621119,0,-0.8100014,100.9175,1,0.98
2022-05-12T10:27:46.718+02:00,1652344065.999404,53.22906956081579,10.39850584232286,39.48062,0,0.06,183.515625,94.83277115361238,4,5,-9999,2583.816378166667,0.33917236328125,0.673919677734375,-0.5448760986328125,2583.806382166667,2.572005556173035,0.7000760337435664,-0.5457438685387079,-4.486827850341797,4.61346960067749,-2.322926759719849,-0.2341756820678711,0.07913601398468018,-0.06166189908981323,XArbitraryZVertical,-0.3880693574019954,-0.1501730583146754,0.8422002457827253,0.3428542746064419,0.5506892800331116,0.5190540552139282,-0.6537004709243774,0,0,0,-1,-1,2577.161237875,unknown,2,2022-05-12T10:27:40.063+02:00,2022-05-11T22:15:20.957+02:00,19,1.434628,0,0,13.4045,0,0,2022-05-12T10:27:45.179+02:00,674036862.621119,0,-0.8100014,100.9175,1,0.98
2022-05-12T10:27:46.729+02:00,1652344065.999404,53.22906956081579,10.39850584232286,39.48062,0,0.06,183.515625,94.83277115361238,4,5,-9999,2583.826373166667,0.3584747314453125,0.6766357421875,-0.4419708251953125,2583.816378166667,2.587633776572537,0.7549372686568064,-0.5942846960883955,-4.541750431060791,4.669166564941406,-2.170838832855225,-0.2309955358505249,0.1037492752075195,0.01712572574615479,XArbitraryZVertical,-0.4134117975946754,-0.1654341122605443,0.8254756525499019,0.3468606501046198,0.5677576065063477,0.5599162578582764,-0.6034444570541382,0,0,0,-1,-1,2577.161237875,unknown,2,2022-05-12T10:27:40.063+02:00,2022-05-11T22:15:20.957+02:00,19,1.434628,0,0,13.4045,0,0,2022-05-12T10:27:45.179+02:00,674036862.621119,0,-0.8100014,100.9175,1,0.98
2022-05-12T10:27:46.739+02:00,1652344065.999404,53.22906956081579,10.39850584232286,39.48062,0,0.06,183.515625,94.83277115361238,4,5,-9999,2583.836368166667,0.38311767578125,0.7147064208984375,-0.3098297119140625,2583.826373166667,2.609609723580018,0.8143328643772215,-0.6416814327234891,-4.705973148345947,4.647714138031006,-1.98088550567627,-0.2389789223670959,0.07725298404693604,0.05057936906814575,XArbitraryZVertical,-0.4387062292738227,-0.1806131482843679,0.8079158229240023,0.3495537622466338,0.5826073884963989,0.5985432863235474,-0.5498314499855042,0,0,0,-1,-1,2577.161237875,unknown,2,2022-05-12T10:27:40.063+02:00,2022-05-11T22:15:20.957+02:00,19,1.434628,0,0,13.4045,0,0,2022-05-12T10:27:45.179+02:00,674036862.621119,0,-0.8100014,100.9175,1,0.98
2022-05-12T10:27:46.749+02:00,1652344065.999404,53.22906956081579,10.39850584232286,39.48062,0,0.06,183.515625,94.83277115361238,4,5,-9999,2583.846363166667,0.3936004638671875,0.7926483154296875,-0.2523040771484375,2583.836368166667,2.639373596029247,0.8789663653116745,-0.6873499777697889,-4.864043235778809,4.618606567382812,-1.761172652244568,-0.2186610698699951,0.05029255151748657,0.1129927039146423,XArbitraryZVertical,-0.4637963341440984,-0.1958277744995928,0.7897063508700017,0.350583038408493,0.5952180027961731,0.6344911456108093,-0.4930889010429382,0,0,0,-1,-1,2577.161237875,unknown,2,2022-05-12T10:27:40.063+02:00,2022-05-11T22:15:20.957+02:00,19,1.434628,0,0,13.4045,0,0,2022-05-12T10:27:45.179+02:00,674036862.621119,0,-0.8100014,100.9175,1,0.98
2022-05-12T10:27:46.759+02:00,1652344065.999404,53.22906956081579,10.39850584232286,39.48062,0,0.06,183.515625,94.83277115361238,4,5,-9999,2583.856359166667,0.4370574951171875,0.880035400390625,-0.0772705078125,2583.846363166667,2.676883981425014,0.9493721838223932,-0.7302932254167248,-4.872507095336914,4.566798686981201,-1.560683608055115,-0.219535231590271,0.09022057056427002,0.1561648845672607,XArbitraryZVertical,-0.4885879503825478,-0.2107624845880958,0.7708888481206313,0.350130628677925,0.605705201625824,0.6670880913734436,-0.4337219893932343,0,0,0,-1,-1,2577.161237875,unknown,2,2022-05-12T10:27:40.063+02:00,2022-05-11T22:15:20.957+02:00,19,1.434628,0,0,13.4045,0,0,2022-05-12T10:27:45.179+02:00,674036862.621119,0,-0.8100014,100.9175,1,0.98
2022-05-12T10:27:46.769+02:00,1652344065.999404,53.22906956081579,10.39850584232286,39.48062,0,0.06,183.515625,94.83277115361238,4,5,-9999,2583.866354166667,0.4627532958984375,0.9150390625,0.0140838623046875,2583.856359166667,2.722247770915274,1.025676703844857,-0.769042808383445,-4.934463500976562,4.51910924911499,-1.244734644889832,-0.2036324143409729,0.1414355635643005,0.2092516422271729,XArbitraryZVertical,-0.5128952470795208,-0.225033535809545,0.7517292085234899,0.3481404636284403,0.6144301295280457,0.6954477429389954,-0.3725967407226562,0,0,0,-1,-1,2577.161237875,unknown,2,2022-05-12T10:27:40.063+02:00,2022-05-11T22:15:20.957+02:00,19,1.434628,0,0,13.4045,0,0,2022-05-12T10:27:45.179+02:00,674036862.621119,0,-0.8100014,100.9175,1,0.98
2022-05-12T10:27:46.779+02:00,1652344065.999404,53.22906956081579,10.39850584232286,39.48062,0,0.06,183.515625,94.83277115361238,4,5,-9999,2583.876349166667,0.457611083984375,1.0184326171875,0.1122894287109375,2583.866354166667,2.774576932462136,1.107556049969392,-0.8020162691589144,-4.697026252746582,4.457195281982422,-0.9648199677467346,-0.165457010269165,0.1793116927146912,0.2792584598064423,XArbitraryZVertical,-0.5366381396343014,-0.2380787634477424,0.7324601931794664,0.3447322493410725,0.6219853162765503,0.7187593579292297,-0.3106760084629059,0,0,0,-1,-1,2577.161237875,unknown,2,2022-05-12T10:27:40.063+02:00,2022-05-11T22:15:20.957+02:00,19,1.434628,0,0,13.4045,0,0,2022-05-12T10:27:45.179+02:00,674036862.621119,0,-0.8100014,100.9175,1,0.98
2022-05-12T10:27:46.789+02:00,1652344065.999404,53.22906956081579,10.39850584232286,39.48062,0,0.06,183.515625,94.83277115361238,4,5,-9999,2583.886344166667,0.5060577392578125,1.05078125,0.1693267822265625,2583.876349166667,2.829466094843861,1.192060972867661,-0.8280890663077938,-4.274051666259766,4.453430652618408,-0.70986008644104,-0.1713420152664185,0.2257159352302551,0.3165820837020874,XArbitraryZVertical,-0.5594312622590262,-0.249017939430258,0.7133309900226442,0.3408604246148712,0.6283586025238037,0.7366403937339783,-0.2500534653663635,0,0,0,-1,-1,2577.161237875,unknown,2,2022-05-12T10:27:40.063+02:00,2022-05-11T22:15:20.957+02:00,19,1.434628,0,0,13.4045,0,0,2022-05-12T10:27:45.179+02:00,674036862.621119,0,-0.8100014,100.9175,1,0.98
2022-05-12T10:27:46.800+02:00,1652344065.999404,53.22906956081579,10.39850584232286,39.48062,0,0.06,183.515625,94.83277115361238,4,5,-9999,2583.896339166667,0.5523223876953125,1.035324096679688,0.2242431640625,2583.886344166667,2.882334033523235,1.275549900090132,-0.8466783353742193,-3.628026723861694,4.375250339508057,-0.4646366834640503,-0.1581931710243225,0.2970125675201416,0.3363801240921021,XArbitraryZVertical,-0.5809579673091875,-0.2571104326375619,0.6947342449235672,0.3372336721282468,0.6338102221488953,0.7490839958190918,-0.1927641332149506,0,0,0,-1,-1,2577.161237875,unknown,2,2022-05-12T10:27:40.063+02:00,2022-05-11T22:15:20.957+02:00,19,1.434628,0,0,13.4045,0,0,2022-05-12T10:27:45.179+02:00,674036862.621119,0,-0.8100014,100.9175,1,0.98
2022-05-12T10:27:46.809+02:00,1652344065.999404,53.22906956081579,10.39850584232286,39.48062,0,0.06,183.515625,94.83277115361238,4,5,-9999,2583.906335166667,0.5601654052734375,1.063339233398438,0.324920654296875,2583.896339166667,2.928833425028175,1.353691506565862,-0.8584305272433251,-2.893408536911011,4.262946605682373,-0.264344334602356,-0.1009284257888794,0.2849911451339722,0.3309943675994873,XArbitraryZVertical,-0.6007505477988601,-0.2621109498950452,0.6771580260394477,0.3344454547000435,0.6382824778556824,0.756817638874054,-0.1407932639122009,0,0,0,-1,-1,2577.161237875,unknown,2,2022-05-12T10:27:40.063+02:00,2022-05-11T22:15:20.957+02:00,19,1.434628,0,0,13.4045,0,0,2022-05-12T10:27:45.179+02:00,674036862.621119,0,-0.8100014,100.9175,1,0.98
