loggingTime(txt),locationTimestamp_since1970(s),locationLatitude(WGS84),locationLongitude(WGS84),locationAltitude(m),locationSpeed(m/s),locationSpeedAccuracy(m/s),locationCourse(°),locationCourseAccuracy(°),locationVerticalAccuracy(m),locationHorizontalAccuracy(m),locationFloor(Z),accelerometerTimestamp_sinceReboot(s),accelerometerAccelerationX(G),accelerometerAccelerationY(G),accelerometerAccelerationZ(G),motionTimestamp_sinceReboot(s),motionYaw(rad),motionRoll(rad),motionPitch(rad),motionRotationRateX(rad/s),motionRotationRateY(rad/s),motionRotationRateZ(rad/s),motionUserAccelerationX(G),motionUserAccelerationY(G),motionUserAccelerationZ(G),motionAttitudeReferenceFrame(txt),motionQuaternionX(R),motionQuaternionY(R),motionQuaternionZ(R),motionQuaternionW(R),motionGravityX(G),motionGravityY(G),motionGravityZ(G),motionMagneticFieldX(µT),motionMagneticFieldY(µT),motionMagneticFieldZ(µT),motionHeading(°),motionMagneticFieldCalibrationAccuracy(Z),activityTimestamp_sinceReboot(s),activity(txt),activityActivityConfidence(Z),activityActivityStartDate(txt),pedometerStartDate(txt),pedometerNumberofSteps(N),pedometerAverageActivePace(s/m),pedometerCurrentPace(s/m),pedometerCurrentCadence(steps/s),pedometerDistance(m),pedometerFloorAscended(N),pedometerFloorDescended(N),pedometerEndDate(txt),altimeterTimestamp_sinceReboot(s),altimeterReset(bool),altimeterRelativeAltitude(m),altimeterPressure(kPa),batteryState(N),batteryLevel(R)
2022-05-12T10:43:38.564+02:00,1652345016.999918,53.22902170014869,10.39847223089114,41.62649,0,0.79,29.53125,19.45664420933299,4,5,-9999,3457.485536375,0.1028900146484375,-0.642181396484375,-0.7390289306640625,3457.480539375,-2.91288747643768,0.109684307137789,0.6903339192984743,-0.009346691891551018,-0.06090962886810303,-0.0343829058110714,0.01772630214691162,-0.002289712429046631,0.02990454435348511,XArbitraryZVertical,-0.08979407146117865,0.3297529151843998,0.9313513165983569,-0.1256377891792463,0.08440079540014267,-0.6367946863174438,-0.7664000988006592,0,0,0,-1,-1,3447.736316875,walking,2,2022-05-12T10:43:28.774+02:00,2022-05-11T22:15:20.957+02:00,1089,0.8952781,0.8098162,1.750316,816.6997,0,0,2022-05-12T10:43:36.451+02:00,674037816.4513354,0,-2.93,100.9442,1,0.93
2022-05-12T10:43:38.570+02:00,1652345016.999918,53.22902170014869,10.39847223089114,41.62649,0,0.79,29.53125,19.45664420933299,4,5,-9999,3457.495531375,0.0885162353515625,-0.63494873046875,-0.748199462890625,3457.490534375,-2.913224363763375,0.109234767763264,0.6898899146239534,-0.05483365058898926,-0.05885107070207596,-0.02386202290654182,0.0188029482960701,-0.00572967529296875,0.02769047021865845,XArbitraryZVertical,-0.08950948213109251,0.3295884781162114,0.9314685093882775,-0.1254040246804693,0.08408708125352859,-0.6364522576332092,-0.7667189836502075,0,0,0,-1,-1,3447.736316875,walking,2,2022-05-12T10:43:28.774+02:00,2022-05-11T22:15:20.957+02:00,1089,0.8952781,0.8098162,1.750316,816.6997,0,0,2022-05-12T10:43:36.451+02:00,674037816.4513354,0,-2.93,100.9442,1,0.93
2022-05-12T10:43:38.582+02:00,1652345016.999918,53.22902170014869,10.39847223089114,41.62649,0,0.79,29.53125,19.45664420933299,4,5,-9999,3457.505526375,0.096923828125,-0.6427764892578125,-0.752044677734375,3457.500529375,-2.913371379016424,0.1087073097410084,0.6889547880394273,-0.1101352497935295,-0.06588953733444214,-0.01836472377181053,0.004769064486026764,0.0007814168930053711,0.01915544271469116,XArbitraryZVertical,-0.08919809053567165,0.3291906006155517,0.9316606818014723,-0.1252428171537736,0.08374719321727753,-0.6357307434082031,-0.7673544883728027,0,0,0,-1,-1,3447.736316875,walking,2,2022-05-12T10:43:28.774+02:00,2022-05-11T22:15:20.957+02:00,1089,0.8952781,0.8098162,1.750316,816.6997,0,0,2022-05-12T10:43:36.451+02:00,674037816.4513354,0,-2.93,100.9442,1,0.93
2022-05-12T10:43:38.584+02:00,1652345016.999918,53.22902170014869,10.39847223089114,41.62649,0,0.79,29.53125,19.45664420933299,4,5,-9999,3457.515522375,0.098175048828125,-0.6396636962890625,-0.7675323486328125,3457.510524375,-2.91324672962657,0.1080253651682394,0.6878236344469408,-0.1007961481809616,-0.06356979161500931,0.01726344414055347,0.01362249255180359,-0.007919847965240479,0.01608157157897949,XArbitraryZVertical,-0.08885060427313148,0.3286984003154606,0.9318758573653596,-0.1251817911197051,0.0833013579249382,-0.634857177734375,-0.7681258916854858,0,0,0,-1,-1,3447.736316875,walking,2,2022-05-12T10:43:28.774+02:00,2022-05-11T22:15:20.957+02:00,1089,0.8952781,0.8098162,1.750316,816.6997,0,0,2022-05-12T10:43:36.451+02:00,674037816.4513354,0,-2.93,100.9442,1,0.93
2022-05-12T10:43:38.586+02:00,1652345016.999918,53.22902170014869,10.39847223089114,41.62649,0,0.79,29.53125,19.45664420933299,4,5,-9999,3457.525517375,0.0844268798828125,-0.624298095703125,-0.7775421142578125,3457.520519375,-2.912833313523139,0.1071838210200881,0.6870274977662675,-0.07913372665643692,-0.05664344504475594,0.03254812210798264,0.01546610146760941,-0.005422413349151611,0.001166045665740967,XArbitraryZVertical,-0.08849086833398757,0.3283601295327691,0.9320226616299357,-0.1252314479817917,0.08270896226167679,-0.6342418193817139,-0.76869797706604,0,0,0,-1,-1,3447.736316875,walking,2,2022-05-12T10:43:28.774+02:00,2022-05-11T22:15:20.957+02:00,1089,0.8952781,0.8098162,1.750316,816.6997,0,0,2022-05-12T10:43:36.451+02:00,674037816.4513354,0,-2.93,100.9442,1,0.93
2022-05-12T10:43:38.588+02:00,1652345016.999918,53.22902170014869,10.39847223089114,41.62649,0,0.79,29.53125,19.45664420933299,4,5,-9999,3457.535512375,0.0767974853515625,-0.6253204345703125,-0.7938385009765625,3457.530514375,-2.912249876650979,0.1063560735680349,0.6862575173522711,-0.07252027094364166,-0.04516994953155518,0.04776269942522049,0.002302438020706177,0.009347736835479736,-0.00829017162322998,XArbitraryZVertical,-0.08816634398409333,0.328025820959655,0.9321533691370256,-0.1253630754597318,0.08212445676326752,-0.6336463689804077,-0.7692515254020691,0,0,0,-1,-1,3447.736316875,walking,2,2022-05-12T10:43:28.774+02:00,2022-05-11T22:15:20.957+02:00,1089,0.8952781,0.8098162,1.750316,816.6997,0,0,2022-05-12T10:43:36.451+02:00,674037816.4513354,0,-2.93,100.9442,1,0.93
2022-05-12T10:43:38.590+02:00,1652345016.999918,53.22902170014869,10.39847223089114,41.62649,0,0.79,29.53125,19.45664420933299,4,5,-9999,3457.545507375,0.0751953125,-0.63763427734375,-0.801727294921875,3457.540510375,-2.911730938970586,0.1057389527568124,0.685776148555153,-0.05129913613200188,-0.04201170429587364,0.04105605930089951,-0.004884406924247742,0.007952868938446045,-0.02423274517059326,XArbitraryZVertical,-0.08794212467377106,0.3278162904221339,0.9322297764889129,-0.1255011230392855,0.08168190717697144,-0.6332738995552063,-0.7696053385734558,0,0,0,-1,-1,3447.736316875,walking,2,2022-05-12T10:43:28.774+02:00,2022-05-11T22:15:20.957+02:00,1089,0.8952781,0.8098162,1.750316,816.6997,0,0,2022-05-12T10:43:36.451+02:00,674037816.4513354,0,-2.93,100.9442,1,0.93
2022-05-12T10:43:38.596+02:00,1652345016.999918,53.22902170014869,10.39847223089114,41.62649,0,0.79,29.53125,19.45664420933299,4,5,-9999,3457.555502375,0.0780029296875,-0.6324615478515625,-0.8018035888671875,3457.550505375,-2.911366916799282,0.1052741816635438,0.6854902149615046,-0.03976455330848694,-0.03907923027873039,0.03263454139232635,-0.006147898733615875,-0.004582226276397705,-0.03190362453460693,XArbitraryZVertical,-0.08777222390229307,0.327695628084016,0.9322757874053943,-0.1255930800350455,0.08134323358535767,-0.6330525875091553,-0.7698232531547546,0,0,0,-1,-1,3447.736316875,walking,2,2022-05-12T10:43:28.774+02:00,2022-05-11T22:15:20.957+02:00,1089,0.8952781,0.8098162,1.750316,816.6997,0,0,2022-05-12T10:43:36.451+02:00,674037816.4513354,0,-2.93,100.9442,1,0.93
2022-05-12T10:43:38.604+02:00,1652345016.999918,53.22902170014869,10.39847223089114,41.62649,0,0.79,29.53125,19.45664420933299,4,5,-9999,3457.565498375,0.077301025390625,-0.623291015625,-0.8053131103515625,3457.560500375,-2.911091787721383,0.1048282445639345,0.6852770008337329,-0.0302746444940567,-0.03858894482254982,0.02338751405477524,-0.003011114895343781,0.0004253983497619629,-0.03180950880050659,XArbitraryZVertical,-0.08759976916136807,0.3276117419170755,0.9323142301372619,-0.1256471579495515,0.08101405203342438,-0.6328874826431274,-0.7699936628341675,0,0,0,-1,-1,3447.736316875,walking,2,2022-05-12T10:43:28.774+02:00,2022-05-11T22:15:20.957+02:00,1089,0.8952781,0.8098162,1.750316,816.6997,0,0,2022-05-12T10:43:36.451+02:00,674037816.4513354,0,-2.93,100.9442,1,0.93
2022-05-12T10:43:38.615+02:00,1652345016.999918,53.22902170014869,10.39847223089114,41.62649,0,0.79,29.53125,19.45664420933299,4,5,-9999,3457.575493375,0.076751708984375,-0.610504150390625,-0.811553955078125,3457.570495375,-2.910957741686511,0.1045262036177044,0.6851874518747202,-0.02011165581643581,-0.02979285456240177,0.01369048003107309,-0.00348634272813797,0.009526610374450684,-0.03523826599121094,XArbitraryZVertical,-0.08747686314505335,0.3275829283214226,0.9323341971792811,-0.125659705546356,0.08078739047050476,-0.6328181624412537,-0.7700744271278381,0,0,0,-1,-1,3447.736316875,walking,2,2022-05-12T10:43:28.774+02:00,2022-05-11T22:15:20.957+02:00,1089,0.8952781,0.8098162,1.750316,816.6997,0,0,2022-05-12T10:43:36.451+02:00,674037816.4513354,0,-2.93,100.9442,1,0.93
2022-05-12T10:43:38.624+02:00,1652345016.999918,53.22902170014869,10.39847223089114,41.62649,0,0.79,29.53125,19.45664420933299,4,5,-9999,3457.585488375,0.074554443359375,-0.609710693359375,-0.813751220703125,3457.580490375,-2.910821384541393,0.1041478097220532,0.685107074950006,-0.01549373380839825,-0.03681907430291176,0.01095567923039198,-0.003749564290046692,0.02225124835968018,-0.04139798879623413,XArbitraryZVertical,-0.08731914840174544,0.3275631165124467,0.9323557740326172,-0.1256608836139933,0.08050128072500229,-0.6327559351921082,-0.7701555490493774,0,0,0,-1,-1,3447.736316875,walking,2,2022-05-12T10:43:28.774+02:00,2022-05-11T22:15:20.957+02:00,1089,0.8952781,0.8098162,1.750316,816.6997,0,0,2022-05-12T10:43:36.451+02:00,674037816.4513354,0,-2.93,100.9442,1,0.93
2022-05-12T10:43:38.634+02:00,1652345016.999918,53.22902170014869,10.39847223089114,41.62649,0,0.79,29.53125,19.45664420933299,4,5,-9999,3457.595483375,0.072998046875,-0.612396240234375,-0.812286376953125,3457.590485375,-2.910790934575787,0.1038700396344301,0.6850752275179322,-0.01007799617946148,-0.030693668872118,0.0048835389316082,-0.00573498010635376,0.02302002906799316,-0.04355287551879883,XArbitraryZVertical,-0.08719319639234424,0.3275643437840539,0.9323713322004046,-0.1256294129860728,0.08028943836688995,-0.6327312588691711,-0.770197868347168,0,0,0,-1,-1,3447.736316875,walking,2,2022-05-12T10:43:28.774+02:00,2022-05-11T22:15:20.957+02:00,1089,0.8952781,0.8098162,1.750316,816.6997,0,0,2022-05-12T10:43:36.451+02:00,674037816.4513354,0,-2.93,100.9442,1,0.93
2022-05-12T10:43:38.644+02:00,1652345016.999918,53.22902170014869,10.39847223089114,41.62649,0,0.79,29.53125,19.45664420933299,4,5,-9999,3457.605478375,0.0731658935546875,-0.611663818359375,-0.8045806884765625,3457.600481375,-2.910809748533055,0.1036841211444417,0.684975920128113,-0.01600432954728603,-0.02159018628299236,0.002466454170644283,-0.007154695689678192,0.02025759220123291,-0.0420106053352356,XArbitraryZVertical,-0.0870989227537458,0.3275303433590213,0.9323974407500063,-0.1255897024784803,0.08015275001525879,-0.6326543688774109,-0.7702752947807312,0,0,0,-1,-1,3447.736316875,walking,2,2022-05-12T10:43:28.774+02:00,2022-05-11T22:15:20.957+02:00,1089,0.8952781,0.8098162,1.750316,816.6997,0,0,2022-05-12T10:43:36.451+02:00,674037816.4513354,0,-2.93,100.9442,1,0.93
2022-05-12T10:43:38.654+02:00,1652345016.999918,53.22902170014869,10.39847223089114,41.62649,0,0.79,29.53125,19.45664420933299,4,5,-9999,3457.615473375,0.0711669921875,-0.610443115234375,-0.800537109375,3457.610476375,-2.910774957263306,0.1034750320436281,0.6847687823917082,-0.01654535159468651,-0.01994035765528679,0.0027207862585783,-0.006839320063591003,0.02082955837249756,-0.03415787220001221,XArbitraryZVertical,-0.08699771042710161,0.327444964029875,0.9324394628740104,-0.12557067546578,0.0800052285194397,-0.6324939131736755,-0.7704223990440369,0,0,0,-1,-1,3447.736316875,walking,2,2022-05-12T10:43:28.774+02:00,2022-05-11T22:15:20.957+02:00,1089,0.8952781,0.8098162,1.750316,816.6997,0,0,2022-05-12T10:43:36.451+02:00,674037816.4513354,0,-2.93,100.9442,1,0.93
2022-05-12T10:43:38.664+02:00,1652345016.999918,53.22902170014869,10.39847223089114,41.62649,0,0.79,29.53125,19.45664420933299,4,5,-9999,3457.625469375,0.071014404296875,-0.612213134765625,-0.7978668212890625,3457.620471375,-2.910685176466076,0.1032167402080817,0.684561733408642,-0.01260680053383112,-0.01734031364321709,0.00864365603774786,-0.008652716875076294,0.02188986539840698,-0.02996343374252319,XArbitraryZVertical,-0.08688255063920534,0.3273603303552762,0.9324801133412478,-0.1255692466627701,0.07981972396373749,-0.6323335766792297,-0.7705732583999634,0,0,0,-1,-1,3447.736316875,walking,2,2022-05-12T10:43:28.774+02:00,2022-05-11T22:15:20.957+02:00,1089,0.8952781,0.8098162,1.750316,816.6997,0,0,2022-05-12T10:43:36.451+02:00,674037816.4513354,0,-2.93,100.9442,1,0.93
2022-05-12T10:43:38.674+02:00,1652345016.999918,53.22902170014869,10.39847223089114,41.62649,0,0.79,29.53125,19.45664420933299,4,5,-9999,3457.635464375,0.0715789794921875,-0.612518310546875,-0.794219970703125,3457.630466375,-2.910500571954044,0.1029123150788188,0.6843857044276728,-0.005943273194134235,-0.011633625254035,0.01290038600564003,-0.008582144975662231,0.01998347043991089,-0.02715814113616943,XArbitraryZVertical,-0.08676279439820082,0.3272889887141919,0.9325115831166382,-0.1256046680392228,0.07959657162427902,-0.6321971416473389,-0.7707082629203796,0,0,0,-1,-1,3447.736316875,walking,2,2022-05-12T10:43:28.774+02:00,2022-05-11T22:15:20.957+02:00,1089,0.8952781,0.8098162,1.750316,816.6997,0,0,2022-05-12T10:43:36.451+02:00,674037816.4513354,0,-2.93,100.9442,1,0.93
2022-05-12T10:43:38.684+02:00,1652345016.999918,53.22902170014869,10.39847223089114,41.62649,0,0.79,29.53125,19.45664420933299,4,5,-9999,3457.645459375,0.070343017578125,-0.6129302978515625,-0.7910308837890625,3457.640461375,-2.910338346682375,0.1026870247493254,0.684282858433089,0.008607973344624043,-0.005736322142183781,0.009760785847902298,-0.007850594818592072,0.01959872245788574,-0.02342873811721802,XArbitraryZVertical,-0.08667959945199792,0.3272480140772063,0.9325283900158841,-0.1256429051175647,0.07942958921194077,-0.6321175098419189,-0.7707907557487488,0,0,0,-1,-1,3447.736316875,walking,2,2022-05-12T10:43:28.774+02:00,2022-05-11T22:15:20.957+02:00,1089,0.8952781,0.8098162,1.750316,816.6997,0,0,2022-05-12T10:43:36.451+02:00,674037816.4513354,0,-2.93,100.9442,1,0.93
2022-05-12T10:43:38.694+02:00,1652345016.999918,53.22902170014869,10.39847223089114,41.62649,0,0.79,29.53125,19.45664420933299,4,5,-9999,3457.655454375,0.0772247314453125,-0.619110107421875,-0.7832794189453125,3457.650457375,-2.910160729234125,0.1024896832892882,0.6841952904648863,0.01662262342870235,-0.0006656632758677006,0.009319234639406204,-0.008940115571022034,0.01911884546279907,-0.02016890048980713,XArbitraryZVertical,-0.08661263951629357,0.3272116879097937,0.9325406664508759,-0.1256930480354666,0.07928314805030823,-0.6320496201515198,-0.7708615064620972,0,0,0,-1,-1,3447.736316875,walking,2,2022-05-12T10:43:28.774+02:00,2022-05-11T22:15:20.957+02:00,1089,0.8952781,0.8098162,1.750316,816.6997,0,0,2022-05-12T10:43:36.451+02:00,674037816.4513354,0,-2.93,100.9442,1,0.93
2022-05-12T10:43:38.704+02:00,1652345016.999918,53.22902170014869,10.39847223089114,41.62649,0,0.79,29.53125,19.45664420933299,4,5,-9999,3457.665449375,0.0797576904296875,-0.624298095703125,-0.7786865234375,3457.660452375,-2.910010417988602,0.1023155361275694,0.6840253179487963,0.01156368292868137,-0.003059312701225281,0.009330153465270996,-0.001935124397277832,0.01280725002288818,-0.01229679584503174,XArbitraryZVertical,-0.08654824092626831,0.3271364994058084,0.9325676060374103,-0.1257338932583975,0.07915987819433212,-0.6319178938865662,-0.7709822058677673,0,0,0,-1,-1,3447.736316875,walking,2,2022-05-12T10:43:28.774+02:00,2022-05-11T22:15:20.957+02:00,1089,0.8952781,0.8098162,1.750316,816.6997,0,0,2022-05-12T10:43:36.451+02:00,674037816.4513354,0,-2.93,100.9442,1,0.93
2022-05-12T10:43:38.714+02:00,1652345016.999918,53.22902170014869,10.39847223089114,41.62649,0,0.79,29.53125,19.45664420933299,4,5,-9999,3457.675444375,0.07952880859375,-0.6308135986328125,-0.775665283203125,3457.670447375,-2.909822113689413,0.1020902290844394,0.6837949597261501,0.004841764457523823,-0.006819629110395908,0.01068776473402977,0.0007567033171653748,0.007440686225891113,-0.007541239261627197,XArbitraryZVertical,-0.08646341170309721,0.3270346386973219,0.9326044992228187,-0.1257838137102668,0.07900100201368332,-0.6317393183708191,-0.7711448669433594,0,0,0,-1,-1,3447.736316875,walking,2,2022-05-12T10:43:28.774+02:00,2022-05-11T22:15:20.957+02:00,1089,0.8952781,0.8098162,1.750316,816.6997,0,0,2022-05-12T10:43:36.451+02:00,674037816.4513354,0,-2.93,100.9442,1,0.93
2022-05-12T10:43:38.724+02:00,1652345016.999918,53.22902170014869,10.39847223089114,41.62649,0,0.79,29.53125,19.45664420933299,4,5,-9999,3457.685440375,0.0823974609375,-0.63580322265625,-0.7680511474609375,3457.680442375,-2.909588517064067,0.1017762969936942,0.6835315193143361,-0.002887261565774679,-0.01070171967148781,0.01178392209112644,0.0007530078291893005,0.000720977783203125,-0.004329800605773926,XArbitraryZVertical,-0.08634310975870707,0.326920977784678,0.9326477698365028,-0.1258402015292245,0.07877581566572189,-0.6315351128578186,-0.7713350653648376,0,0,0,-1,-1,3447.736316875,walking,2,2022-05-12T10:43:28.774+02:00,2022-05-11T22:15:20.957+02:00,1089,0.8952781,0.8098162,1.750316,816.6997,0,0,2022-05-12T10:43:36.451+02:00,674037816.4513354,0,-2.93,100.9442,1,0.93
2022-05-12T10:43:38.734+02:00,1652345016.999918,53.22902170014869,10.39847223089114,41.62649,0,0.79,29.53125,19.45664420933299,4,5,-9999,3457.695435375,0.0812835693359375,-0.635986328125,-0.7635040283203125,3457.690437375,-2.909390322519195,0.1014512697941953,0.6832413844564208,-0.005762376822531223,-0.01759657636284828,0.006709734909236431,0.00385381281375885,-0.004493653774261475,0.003492236137390137,XArbitraryZVertical,-0.08621057352510837,0.326796975988058,0.9326984322129261,-0.1258782612315881,0.07854366302490234,-0.6313101053237915,-0.7715429663658142,0,0,0,-1,-1,3447.736316875,walking,2,2022-05-12T10:43:28.774+02:00,2022-05-11T22:15:20.957+02:00,1089,0.8952781,0.8098162,1.750316,816.6997,0,0,2022-05-12T10:43:36.451+02:00,674037816.4513354,0,-2.93,100.9442,1,0.93
2022-05-12T10:43:38.744+02:00,1652345016.999918,53.22902170014869,10.39847223089114,41.62649,0,0.79,29.53125,19.45664420933299,4,5,-9999,3457.705430375,0.0828094482421875,-0.635589599609375,-0.7595977783203125,3457.700432375,-2.909194246804744,0.1010587634519537,0.6829087639672891,-0.006507529877126217,-0.02059369720518589,0.004631671123206615,0.003021582961082458,-0.00493466854095459,0.008278965950012207,XArbitraryZVertical,-0.08604421844873608,0.326657508230114,0.9327590490941973,-0.1259041172984204,0.07826199382543564,-0.6310521364212036,-0.7717825174331665,0,0,0,-1,-1,3447.736316875,walking,2,2022-05-12T10:43:28.774+02:00,2022-05-11T22:15:20.957+02:00,1089,0.8952781,0.8098162,1.750316,816.6997,0,0,2022-05-12T10:43:36.451+02:00,674037816.4513354,0,-2.93,100.9442,1,0.93
2022-05-12T10:43:38.754+02:00,1652345017.99992,53.22902170014869,10.39847223089114,40.65762,0,0.79,29.53125,20.25169018155352,4,5,-9999,3457.715425375,0.082427978515625,-0.631744384765625,-0.7531890869140625,3457.710428375,-2.909072132423789,0.1006519448214789,0.682591651861667,-0.008860198780894279,-0.02976702339947224,-7.247086614370346e-05,0.004841335117816925,-0.004783987998962402,0.01241606473922729,XArbitraryZVertical,-0.08585977385474328,0.3265293363222859,0.9328224093519023,-0.1258933166171281,0.07796812057495117,-0.6308060884475708,-0.7720133662223816,0,0,0,-1,-1,3447.736316875,walking,2,2022-05-12T10:43:28.774+02:00,2022-05-11T22:15:20.957+02:00,1089,0.8952781,0.8098162,1.750316,816.6997,0,0,2022-05-12T10:43:36.451+02:00,674037816.4513354,0,-2.93,100.9442,1,0.93
2022-05-12T10:43:38.764+02:00,1652345017.99992,53.22902170014869,10.39847223089114,40.65762,0,0.79,29.53125,20.25169018155352,4,5,-9999,3457.725420375,0.0839080810546875,-0.6313018798828125,-0.751373291015625,3457.720423375,-2.909038265869092,0.1002357288906591,0.6822494316710346,-0.01287305168807507,-0.03410957381129265,-0.007051018066704273,0.004759617149829865,-0.001204371452331543,0.01907187700271606,XArbitraryZVertical,-0.08565533905009211,0.3263937742900309,0.9328959042275863,-0.1258397798301959,0.07766839116811752,-0.6305405497550964,-0.7722605466842651,0,0,0,-1,-1,3447.736316875,walking,2,2022-05-12T10:43:28.774+02:00,2022-05-11T22:15:20.957+02:00,1089,0.8952781,0.8098162,1.750316,816.6997,0,0,2022-05-12T10:43:36.451+02:00,674037816.4513354,0,-2.93,100.9442,1,0.93
2022-05-12T10:43:38.774+02:00,1652345017.99992,53.22902170014869,10.39847223089114,40.65762,0,0.79,29.53125,20.25169018155352,4,5,-9999,3457.735416375,0.084320068359375,-0.623687744140625,-0.7538604736328125,3457.730418375,-2.909054114559363,0.09981056634768284,0.6818858619728742,-0.01684602163732052,-0.03878195583820343,-0.01105547975748777,0.006545208394527435,-0.001044154167175293,0.021148681640625,XArbitraryZVertical,-0.08543759720285896,0.3262508814536091,0.93297643350821,-0.1257615670157637,0.07736288756132126,-0.630258321762085,-0.7725215554237366,0,0,0,-1,-1,3447.736316875,walking,2,2022-05-12T10:43:28.774+02:00,2022-05-11T22:15:20.957+02:00,1089,0.8952781,0.8098162,1.750316,816.6997,0,0,2022-05-12T10:43:36.451+02:00,674037816.4513354,0,-2.93,100.9442,1,0.93
2022-05-12T10:43:38.784+02:00,1652345017.99992,53.22902170014869,10.39847223089114,40.65762,0,0.79,29.53125,20.25169018155352,4,5,-9999,3457.745411375,0.08526611328125,-0.6177520751953125,-0.7548980712890625,3457.740413375,-2.90918232400043,0.09943085183644176,0.6815530661207828,-0.02763555198907852,-0.04900370165705681,-0.01434954442083836,0.007229737937450409,0.006311595439910889,0.01889950037002563,XArbitraryZVertical,-0.08522413269933962,0.3261243201039939,0.9330567858829716,-0.1256385165967585,0.07709036022424698,-0.6299998760223389,-0.7727595567703247,0,0,0,-1,-1,3447.736316875,walking,2,2022-05-12T10:43:28.774+02:00,2022-05-11T22:15:20.957+02:00,1089,0.8952781,0.8098162,1.750316,816.6997,0,0,2022-05-12T10:43:36.451+02:00,674037816.4513354,0,-2.93,100.9442,1,0.93
2022-05-12T10:43:38.794+02:00,1652345017.99992,53.22902170014869,10.39847223089114,40.65762,0,0.79,29.53125,20.25169018155352,4,5,-9999,3457.755406375,0.085662841796875,-0.6198272705078125,-0.7553558349609375,3457.750408375,-2.90936667147661,0.09902973364569755,0.6811447765425538,-0.03599707782268524,-0.05868003144860268,-0.01502971537411213,0.008460327982902527,0.01193010807037354,0.01814866065979004,XArbitraryZVertical,-0.08498802453870521,0.3259660798522397,0.9331541864761568,-0.1254855304668981,0.07680580765008926,-0.6296827793121338,-0.7730463147163391,0,0,0,-1,-1,3447.736316875,walking,2,2022-05-12T10:43:28.774+02:00,2022-05-11T22:15:20.957+02:00,1089,0.8952781,0.8098162,1.750316,816.6997,0,0,2022-05-12T10:43:36.451+02:00,674037816.4513354,0,-2.93,100.9442,1,0.93
2022-05-12T10:43:38.804+02:00,1652345017.99992,53.22902170014869,10.39847223089114,40.65762,0,0.79,29.53125,20.25169018155352,4,5,-9999,3457.765401375,0.0854339599609375,-0.6214447021484375,-0.763671875,3457.760403375,-2.909535598057551,0.09854894496424163,0.6807646583038073,-0.03697232902050018,-0.06357092410326004,-0.01204750780016184,0.009205184876918793,0.00955963134765625,0.01796579360961914,XArbitraryZVertical,-0.08471855342415506,0.3258253349871852,0.9332490839130966,-0.1253268966782234,0.0764576718211174,-0.6293874382972717,-0.7733212113380432,0,0,0,-1,-1,3447.736316875,walking,2,2022-05-12T10:43:28.774+02:00,2022-05-11T22:15:20.957+02:00,1089,0.8952781,0.8098162,1.750316,816.6997,0,0,2022-05-12T10:43:36.451+02:00,674037816.4513354,0,-2.93,100.9442,1,0.93
2022-05-12T10:43:38.816+02:00,1652345017.99992,53.22902170014869,10.39847223089114,40.65762,0,0.79,29.53125,20.25169018155352,4,5,-9999,3457.775396375,0.0798187255859375,-0.6192474365234375,-0.7682952880859375,3457.770399375,-2.909636265828381,0.09803422733162649,0.6804347670387468,-0.04046043381094933,-0.06319282203912735,-0.005518435034900904,0.009354040026664734,0.00768578052520752,0.009895682334899902,XArbitraryZVertical,-0.08444667672948601,0.3257072399903558,0.933332714929358,-0.1251948758814091,0.07607993483543396,-0.629131019115448,-0.7735670804977417,0,0,0,-1,-1,3447.736316875,walking,2,2022-05-12T10:43:28.774+02:00,2022-05-11T22:15:20.957+02:00,1089,0.8952781,0.8098162,1.750316,816.6997,0,0,2022-05-12T10:43:36.451+02:00,674037816.4513354,0,-2.93,100.9442,1,0.93
2022-05-12T10:43:38.826+02:00,1652345017.99992,53.22902170014869,10.39847223089114,40.65762,0,0.79,29.53125,20.25169018155352,4,5,-9999,3457.785391375,0.08026123046875,-0.6133880615234375,-0.7690582275390625,3457.780394375,-2.909729665633957,0.09745156386350326,0.6800834369120418,-0.04611991718411446,-0.07411258667707443,-0.01083170715719461,0.004168048501014709,0.009609878063201904,0.005536377429962158,XArbitraryZVertical,-0.08414325401558675,0.3255830070618936,0.9334221875347202,-0.125055151424293,0.07565069943666458,-0.6288579106330872,-0.7738312482833862,0,0,0,-1,-1,3447.736316875,walking,2,2022-05-12T10:43:28.774+02:00,2022-05-11T22:15:20.957+02:00,1089,0.8952781,0.8098162,1.750316,816.6997,0,0,2022-05-12T10:43:36.451+02:00,674037816.4513354,0,-2.93,100.9442,1,0.93
2022-05-12T10:43:38.834+02:00,1652345017.99992,53.22902170014869,10.39847223089114,40.65762,0,0.79,29.53125,20.25169018155352,4,5,-9999,3457.795387375,0.071868896484375,-0.6107635498046875,-0.781280517578125,3457.790389375,-2.909876263126199,0.09686674198601077,0.6797978713040111,-0.03062052093446255,-0.07618732005357742,-0.0110776498913765,0.005045749247074127,0.01524722576141357,0.004996240139007568,XArbitraryZVertical,-0.08383318680295462,0.325491884794472,0.9335039125882033,-0.1248905491413303,0.07521549612283707,-0.6286358237266541,-0.7740540504455566,0,0,0,-1,-1,3447.736316875,walking,2,2022-05-12T10:43:28.774+02:00,2022-05-11T22:15:20.957+02:00,1089,0.8952781,0.8098162,1.750316,816.6997,0,0,2022-05-12T10:43:36.451+02:00,674037816.4513354,0,-2.93,100.9442,1,0.93
2022-05-12T10:43:38.844+02:00,1652345017.99992,53.22902170014869,10.39847223089114,40.65762,0,0.79,29.53125,20.25169018155352,4,5,-9999,3457.805382375,0.066558837890625,-0.6028594970703125,-0.784515380859375,3457.800384375,-2.910102935427271,0.09633426444394336,0.6796697419020025,-0.0178780946880579,-0.07323094457387924,-0.01638532988727093,-0.00294213742017746,0.01777207851409912,-0.00710594654083252,XArbitraryZVertical,-0.08354180880251484,0.3254745522744683,0.933561856570557,-0.1246976559858531,0.07481106370687485,-0.6285361647605896,-0.7741741538047791,0,0,0,-1,-1,3447.736316875,walking,2,2022-05-12T10:43:28.774+02:00,2022-05-11T22:15:20.957+02:00,1089,0.8952781,0.8098162,1.750316,816.6997,0,0,2022-05-12T10:43:36.451+02:00,674037816.4513354,0,-2.93,100.9442,1,0.93
2022-05-12T10:43:38.854+02:00,1652345017.99992,53.22902170014869,10.39847223089114,40.65762,0,0.79,29.53125,20.25169018155352,4,5,-9999,3457.815377375,0.0663604736328125,-0.608612060546875,-0.7870025634765625,3457.810379375,-2.910452053018667,0.09591924713071906,0.6796028145350693,-0.01933104917407036,-0.07163264602422714,-0.02383965253829956,-0.007934927940368652,0.02562409639358521,-0.01026797294616699,XArbitraryZVertical,-0.08328816168041406,0.3254835931954302,0.9336121727606729,-0.1244669359135888,0.07449379563331604,-0.6284841299057007,-0.7742470502853394,0,0,0,-1,-1,3447.736316875,walking,2,2022-05-12T10:43:28.774+02:00,2022-05-11T22:15:20.957+02:00,1089,0.8952781,0.8098162,1.750316,816.6997,0,0,2022-05-12T10:43:36.451+02:00,674037816.4513354,0,-2.93,100.9442,1,0.93
2022-05-12T10:43:38.864+02:00,1652345017.99992,53.22902170014869,10.39847223089114,40.65762,0,0.79,29.53125,20.25169018155352,4,5,-9999,3457.825372375,0.0718536376953125,-0.6124267578125,-0.7914581298828125,3457.820375375,-2.910860572856612,0.09557850004086038,0.6794339957784249,-0.02587204053997993,-0.07136739790439606,-0.02882349118590355,-0.007879592478275299,0.01974022388458252,-0.01262414455413818,XArbitraryZVertical,-0.08305479291359222,0.3254426547570974,0.9336800730172137,-0.124220227655532,0.07424008846282959,-0.6283528208732605,-0.7743779420852661,0,0,0,-1,-1,3447.736316875,walking,2,2022-05-12T10:43:28.774+02:00,2022-05-11T22:15:20.957+02:00,1089,0.8952781,0.8098162,1.750316,816.6997,0,0,2022-05-12T10:43:36.451+02:00,674037816.4513354,0,-2.93,100.9442,1,0.93
2022-05-12T10:43:38.874+02:00,1652345017.99992,53.22902170014869,10.39847223089114,40.65762,0,0.79,29.53125,20.25169018155352,4,5,-9999,3457.835367375,0.0693511962890625,-0.604644775390625,-0.7996368408203125,3457.830370375,-2.911330423340523,0.0952964513813421,0.6791321430010204,-0.03315428644418716,-0.06752944737672806,-0.0322720855474472,-0.002186067402362823,0.01569068431854248,-0.01687002182006836,XArbitraryZVertical,-0.08283270907244625,0.3253381474848845,0.9337716371686201,-0.1239540296966584,0.07403971999883652,-0.6281179785728455,-0.7745876908302307,0,0,0,-1,-1,3447.736316875,walking,2,2022-05-12T10:43:28.774+02:00,2022-05-11T22:15:20.957+02:00,1089,0.8952781,0.8098162,1.750316,816.6997,0,0,2022-05-12T10:43:36.451+02:00,674037816.4513354,0,-2.93,100.9442,1,0.93
2022-05-12T10:43:38.884+02:00,1652345017.99992,53.22902170014869,10.39847223089114,40.65762,0,0.79,29.53125,20.25169018155352,4,5,-9999,3457.845362375,0.0725250244140625,-0.6115264892578125,-0.8084564208984375,3457.840365375,-2.911774412025645,0.09507713849044162,0.6788196116358757,-0.03174281120300293,-0.05442988872528076,-0.0235275961458683,-0.004537254571914673,0.02322942018508911,-0.0248371958732605,XArbitraryZVertical,-0.08264366812403648,0.3252236252230563,0.9338605777675618,-0.1237100418186883,0.07388847321271896,-0.6278747320175171,-0.7747992277145386,0,0,0,-1,-1,3447.736316875,walking,2,2022-05-12T10:43:28.774+02:00,2022-05-11T22:15:20.957+02:00,1089,0.8952781,0.8098162,1.750316,816.6997,0,0,2022-05-12T10:43:36.451+02:00,674037816.4513354,0,-2.93,100.9442,1,0.93
2022-05-12T10:43:38.894+02:00,1652345017.99992,53.22902170014869,10.39847223089114,40.65762,0,0.79,29.53125,20.25169018155352,4,5,-9999,3457.855358375,0.076690673828125,-0.6147613525390625,-0.8146209716796875,3457.850360375,-2.912161380824976,0.09493623475547051,0.6785961010694147,-0.01074188947677612,-0.04611996188759804,-0.02350795455276966,-0.001267552375793457,0.01617372035980225,-0.03350669145584106,XArbitraryZVertical,-0.08250465183297657,0.3251435523106274,0.9339277609625317,-0.1235057124667463,0.07379259914159775,-0.6277007460594177,-0.774949312210083,0,0,0,-1,-1,3447.736316875,walking,2,2022-05-12T10:43:28.774+02:00,2022-05-11T22:15:20.957+02:00,1089,0.8952781,0.8098162,1.750316,816.6997,0,0,2022-05-12T10:43:36.451+02:00,674037816.4513354,0,-2.93,100.9442,1,0.93
2022-05-12T10:43:38.904+02:00,1652345017.99992,53.22902170014869,10.39847223089114,40.65762,0,0.79,29.53125,20.25169018155352,4,5,-9999,3457.865353375,0.06549072265625,-0.607818603515625,-0.8204345703125,3457.860355375,-2.912514693554722,0.09475735042369821,0.6785020261601407,-0.002515917178243399,-0.04535749927163124,-0.02560918778181076,0.003031134605407715,0.01286566257476807,-0.03959929943084717,XArbitraryZVertical,-0.08235934987387077,0.3251250512625442,0.9339727111809499,-0.1233113435851971,0.07365955412387848,-0.6276275515556335,-0.7750212550163269,0,0,0,-1,-1,3447.736316875,walking,2,2022-05-12T10:43:28.774+02:00,2022-05-11T22:15:20.957+02:00,1089,0.8952781,0.8098162,1.750316,816.6997,0,0,2022-05-12T10:43:36.451+02:00,674037816.4513354,0,-2.93,100.9442,1,0.93
2022-05-12T10:43:38.914+02:00,1652345017.99992,53.22902170014869,10.39847223089114,40.65762,0,0.79,29.53125,20.25169018155352,4,5,-9999,3457.875348375,0.06353759765625,-0.610931396484375,-0.82318115234375,3457.870350375,-2.912917784998226,0.09463160612617473,0.678412090165479,-0.003753754775971174,-0.0386631116271019,-0.02914480119943619,-0.008076682686805725,0.01973831653594971,-0.04534739255905151,XArbitraryZVertical,-0.08223096821661446,0.3251072051422244,0.9340178408340248,-0.1231023864785736,0.07356743514537811,-0.6275575160980225,-0.7750867605209351,0,0,0,-1,-1,3447.736316875,walking,2,2022-05-12T10:43:28.774+02:00,2022-05-11T22:15:20.957+02:00,1089,0.8952781,0.8098162,1.750316,816.6997,0,0,2022-05-12T10:43:36.451+02:00,674037816.4513354,0,-2.93,100.9442,1,0.93
2022-05-12T10:43:38.924+02:00,1652345017.99992,53.22902170014869,10.39847223089114,40.65762,0,0.79,29.53125,20.25169018155352,4,5,-9999,3457.885343375,0.0698089599609375,-0.617523193359375,-0.8221893310546875,3457.880346375,-2.913296306338653,0.09449749426849552,0.6781839833414743,-0.01283859647810459,-0.03213224187493324,-0.03149930387735367,-0.009939379990100861,0.01644796133041382,-0.04794162511825562,XArbitraryZVertical,-0.08209634763714027,0.3250240922055574,0.9340847853975504,-0.1229030564579246,0.07347699254751205,-0.6273798942565918,-0.7752390503883362,0,0,0,-1,-1,3447.736316875,walking,2,2022-05-12T10:43:28.774+02:00,2022-05-11T22:15:20.957+02:00,1089,0.8952781,0.8098162,1.750316,816.6997,0,0,2022-05-12T10:43:36.451+02:00,674037816.4513354,0,-2.93,100.9442,1,0.93
2022-05-12T10:43:38.934+02:00,1652345017.99992,53.22902170014869,10.39847223089114,40.65762,0,0.79,29.53125,20.25169018155352,4,5,-9999,3457.895338375,0.073638916015625,-0.615875244140625,-0.8149871826171875,3457.890341375,-2.913678240528319,0.09443959037040699,0.6779130910166985,-0.009004674851894379,-0.0189836174249649,-0.03710106015205383,-0.003639146685600281,0.009645164012908936,-0.0467764139175415,XArbitraryZVertical,-0.08199483638401725,0.3249163015338936,0.9341560210446357,-0.1227143958646192,0.07344812154769897,-0.6271689534187317,-0.7754124999046326,0,0,0,-1,-1,3447.736316875,walking,2,2022-05-12T10:43:28.774+02:00,2022-05-11T22:15:20.957+02:00,1089,0.8952781,0.8098162,1.750316,816.6997,0,0,2022-05-12T10:43:36.451+02:00,674037816.4513354,0,-2.93,100.9442,1,0.93
2022-05-12T10:43:38.944+02:00,1652345017.99992,53.22902170014869,10.39847223089114,40.65762,0,0.79,29.53125,20.25169018155352,4,5,-9999,3457.905334375,0.0788726806640625,-0.6137542724609375,-0.810333251953125,3457.900336375,-2.9139964489182,0.09443879806346664,0.6776407172814142,-0.01552143134176731,-0.0114615187048912,-0.0249253548681736,0.0001753196120262146,0.01108098030090332,-0.03940415382385254,XArbitraryZVertical,-0.08193032441292118,0.3248016845530471,0.9342211753513898,-0.1225647462657947,0.07346361875534058,-0.6269567608833313,-0.7755825519561768,0,0,0,-1,-1,3447.736316875,walking,2,2022-05-12T10:43:28.774+02:00,2022-05-11T22:15:20.957+02:00,1089,0.8952781,0.8098162,1.750316,816.6997,0,0,2022-05-12T10:43:36.451+02:00,674037816.4513354,0,-2.93,100.9442,1,0.93
2022-05-12T10:43:38.954+02:00,1652345017.99992,53.22902170014869,10.39847223089114,40.65762,0,0.79,29.53125,20.25169018155352,4,5,-9999,3457.915329375,0.0813140869140625,-0.619964599609375,-0.8103179931640625,3457.910331375,-2.914175558923051,0.09448545387539607,0.6773019525388616,-0.01939766108989716,0.004353396128863096,-0.01254272181540728,0.005352862179279327,0.01293796300888062,-0.0345422625541687,XArbitraryZVertical,-0.08190756377872382,0.3246472796948878,0.9342870418291939,-0.1224875685153762,0.07351984083652496,-0.6266928315162659,-0.7757905721664429,0,0,0,-1,-1,3447.736316875,walking,2,2022-05-12T10:43:28.774+02:00,2022-05-11T22:15:20.957+02:00,1089,0.8952781,0.8098162,1.750316,816.6997,0,0,2022-05-12T10:43:36.451+02:00,674037816.4513354,0,-2.93,100.9442,1,0.93
2022-05-12T10:43:38.964+02:00,1652345017.99992,53.22902170014869,10.39847223089114,40.65762,0,0.79,29.53125,20.25169018155352,4,5,-9999,3457.925324375,0.0838165283203125,-0.6252288818359375,-0.8058319091796875,3457.920326375,-2.914222046802488,0.09456904565729464,0.6768996729928952,-0.01221058890223503,0.02449009008705616,-0.01007530279457569,0.007705613970756531,0.006414115428924561,-0.03428220748901367,XArbitraryZVertical,-0.0819207058759442,0.3244554117898757,0.934353799495656,-0.1224780867965953,0.07360848784446716,-0.6263792514801025,-0.7760353684425354,0,0,0,-1,-1,3447.736316875,walking,2,2022-05-12T10:43:28.774+02:00,2022-05-11T22:15:20.957+02:00,1089,0.8952781,0.8098162,1.750316,816.6997,0,0,2022-05-12T10:43:36.451+02:00,674037816.4513354,0,-2.93,100.9442,1,0.93
2022-05-12T10:43:38.974+02:00,1652345017.99992,53.22902170014869,10.39847223089114,40.65762,0,0.79,29.53125,20.25169018155352,4,5,-9999,3457.935319375,0.088348388671875,-0.6261749267578125,-0.8022918701171875,3457.930322375,-2.914327543032007,0.09480693091925571,0.6766055751829588,-0.002920418512076139,0.01607716456055641,-0.01391584705561399,0.01000602543354034,0.0009205937385559082,-0.02963030338287354,XArbitraryZVertical,-0.08200131485000442,0.3243072908113441,0.9343995764025409,-0.1224663541228872,0.07381052523851395,-0.6261500120162964,-0.7762011289596558,0,0,0,-1,-1,3447.736316875,walking,2,2022-05-12T10:43:28.774+02:00,2022-05-11T22:15:20.957+02:00,1089,0.8952781,0.8098162,1.750316,816.6997,0,0,2022-05-12T10:43:36.451+02:00,674037816.4513354,0,-2.93,100.9442,1,0.93
2022-05-12T10:43:38.984+02:00,1652345017.99992,53.22902170014869,10.39847223089114,40.65762,0,0.79,29.53125,20.25169018155352,4,5,-9999,3457.945314375,0.0844268798828125,-0.627716064453125,-0.795318603515625,3457.940317375,-2.914517905093153,0.09508999695388631,0.6763710383619584,-0.003047184552997351,0.01543028093874454,-0.01757769286632538,0.01430422067642212,-0.0002083778381347656,-0.02596497535705566,XArbitraryZVertical,-0.08209201313802345,0.3241877200238987,0.9344389769716601,-0.122422538975373,0.07404418289661407,-0.6259670853614807,-0.7763264179229736,0,0,0,-1,-1,3447.736316875,walking,2,2022-05-12T10:43:28.774+02:00,2022-05-11T22:15:20.957+02:00,1089,0.8952781,0.8098162,1.750316,816.6997,0,0,2022-05-12T10:43:36.451+02:00,674037816.4513354,0,-2.93,100.9442,1,0.93
2022-05-12T10:43:38.994+02:00,1652345017.99992,53.22902170014869,10.39847223089114,40.65762,0,0.79,29.53125,20.25169018155352,4,5,-9999,3457.955309375,0.079559326171875,-0.623077392578125,-0.7939453125,3457.950312375,-2.914700469709735,0.09523220804949775,0.6761607731216138,0.001892180182039738,0.005530246999114752,-0.02218336425721645,0.01025980710983276,-0.001913487911224365,-0.01887130737304688,XArbitraryZVertical,-0.08211930038109978,0.3240879406840786,0.934479332035274,-0.1223595087993717,0.07416709512472153,-0.6258031129837036,-0.7764468789100647,0,0,0,-1,-1,3447.736316875,walking,2,2022-05-12T10:43:28.774+02:00,2022-05-11T22:15:20.957+02:00,1089,0.8952781,0.8098162,1.750316,816.6997,0,0,2022-05-12T10:43:36.451+02:00,674037816.4513354,0,-2.93,100.9442,1,0.93
2022-05-12T10:43:39.004+02:00,1652345017.99992,53.22902170014869,10.39847223089114,40.65762,0,0.79,29.53125,20.25169018155352,4,5,-9999,3457.965305375,0.0753936767578125,-0.6224822998046875,-0.7871246337890625,3457.960307375,-2.914937238124551,0.09536629069930182,0.6759899525831972,0.002755310386419296,0.003647658508270979,-0.02785376831889153,0.005277968943119049,0.002591907978057861,-0.01740157604217529,XArbitraryZVertical,-0.08213582244638044,0.3240093512527611,0.934516827201088,-0.1222699842299181,0.07428137958049774,-0.6256698966026306,-0.7765433192253113,0,0,0,-1,-1,3447.736316875,walking,2,2022-05-12T10:43:28.774+02:00,2022-05-11T22:15:20.957+02:00,1089,0.8952781,0.8098162,1.750316,816.6997,0,0,2022-05-12T10:43:36.451+02:00,674037816.4513354,0,-2.93,100.9442,1,0.93
2022-05-12T10:43:39.014+02:00,1652345017.99992,53.22902170014869,10.39847223089114,40.65762,0,0.79,29.53125,20.25169018155352,4,5,-9999,3457.975300375,0.0756072998046875,-0.62322998046875,-0.780303955078125,3457.970302375,-2.915254872301827,0.09557732610868323,0.6758291169364691,-0.003613306209445,0.005551686510443687,-0.02710821479558945,0.0009388402104377747,0.003061532974243164,-0.01049643754959106,XArbitraryZVertical,-0.08217567987886547,0.32393403907897,0.934554502256407,-0.1221551798532616,0.07445485889911652,-0.6255444288253784,-0.776627779006958,0,0,0,-1,-1,3447.736316875,walking,2,2022-05-12T10:43:28.774+02:00,2022-05-11T22:15:20.957+02:00,1089,0.8952781,0.8098162,1.750316,816.6997,0,0,2022-05-12T10:43:36.451+02:00,674037816.4513354,0,-2.93,100.9442,1,0.93
2022-05-12T10:43:39.024+02:00,1652345017.99992,53.22902170014869,10.39847223089114,40.65762,0,0.79,29.53125,20.25169018155352,4,5,-9999,3457.985295375,0.0762481689453125,-0.6233673095703125,-0.772796630859375,3457.980297375,-2.915614625748383,0.09582018702042429,0.6755869151033164,-0.01640143990516663,0.002934264950454235,-0.03326644375920296,0.0009493604302406311,0.002124905586242676,-0.00354301929473877,XArbitraryZVertical,-0.08221993897510192,0.3238204009313956,0.9346069003063521,-0.1220254823983168,0.07465796172618866,-0.6253554224967957,-0.776760458946228,0,0,0,-1,-1,3457.972630375,walking,2,2022-05-12T10:43:39.010+02:00,2022-05-11T22:15:20.957+02:00,1089,0.8952781,0.8098162,1.750316,816.6997,0,0,2022-05-12T10:43:36.451+02:00,674037816.4513354,0,-2.93,100.9442,1,0.93
2022-05-12T10:43:39.034+02:00,1652345017.99992,53.22902170014869,10.39847223089114,40.65762,0,0.79,29.53125,20.25169018155352,4,5,-9999,3457.995290375,0.0792694091796875,-0.622100830078125,-0.764373779296875,3457.990293375,-2.916039909117485,0.09608287696979878,0.6752120834037371,-0.02451163157820702,-0.003686220617964864,-0.03759580850601196,0.001363702118396759,0.001695036888122559,0.004177868366241455,XArbitraryZVertical,-0.08225692372314908,0.3236460259623992,0.9346846315437343,-0.1218678239973621,0.07488448917865753,-0.625062882900238,-0.776974081993103,0,0,0,-1,-1,3457.972630375,walking,2,2022-05-12T10:43:39.010+02:00,2022-05-11T22:15:20.957+02:00,1093,0.8940735,0.8098162,1.750316,819.5217,0,0,2022-05-12T10:43:39.010+02:00,674037816.4513354,0,-2.93,100.9442,1,0.93
2022-05-12T10:43:39.044+02:00,1652345017.99992,53.22902170014869,10.39847223089114,40.65762,0,0.79,29.53125,20.25169018155352,4,5,-9999,3458.005285375,0.0836944580078125,-0.6162261962890625,-0.76055908203125,3458.000288375,-2.916422656534627,0.09630233575656517,0.674783696149703,-0.03068989887833595,-0.006042319349944592,-0.02727206610143185,0.004188686609268188,0.002627015113830566,0.01285076141357422,XArbitraryZVertical,-0.0822782612141313,0.3234474223751346,0.9347704088799998,-0.1217227574193884,0.0750807449221611,-0.6247284412384033,-0.7772241234779358,0,0,0,-1,-1,3457.972630375,walking,2,2022-05-12T10:43:39.010+02:00,2022-05-11T22:15:20.957+02:00,1093,0.8940735,0.8098162,1.750316,819.5217,0,0,2022-05-12T10:43:39.010+02:00,674037819.0102764,0,-2.77,100.9422,1,0.93
2022-05-12T10:43:39.054+02:00,1652345017.99992,53.22902170014869,10.39847223089114,40.65762,0,0.79,29.53125,20.25169018155352,4,5,-9999,3458.015281375,0.083343505859375,-0.6169586181640625,-0.7592926025390625,3458.010283375,-2.916709108848476,0.09641745692420155,0.6743483190254125,-0.03362220525741577,-0.01182810310274363,-0.01970542594790459,0.008498087525367737,0.008161664009094238,0.01692748069763184,XArbitraryZVertical,-0.08226616790150261,0.3232479261472507,0.9348557081861369,-0.1216057273476598,0.07519639283418655,-0.6243883967399597,-0.7774860858917236,0,0,0,-1,-1,3457.972630375,walking,2,2022-05-12T10:43:39.010+02:00,2022-05-11T22:15:20.957+02:00,1093,0.8940735,0.8098162,1.750316,819.5217,0,0,2022-05-12T10:43:39.010+02:00,674037819.0102764,0,-2.77,100.9422,1,0.93
2022-05-12T10:43:39.064+02:00,1652345017.99992,53.22902170014869,10.39847223089114,40.65762,0,0.79,29.53125,20.25169018155352,4,5,-9999,3458.025276375,0.084686279296875,-0.6168365478515625,-0.756256103515625,3458.020278375,-2.916908902966542,0.09652316758126557,0.6738709937547089,-0.04205377399921417,-0.01013353373855352,-0.009582751430571079,0.008036233484745026,0.007056355476379395,0.018482506275177,XArbitraryZVertical,-0.08226185201637015,0.3230257500230701,0.9349430324024032,-0.1215274552894105,0.07530729472637177,-0.6240155100822449,-0.7777746915817261,0,0,0,-1,-1,3457.972630375,walking,2,2022-05-12T10:43:39.010+02:00,2022-05-11T22:15:20.957+02:00,1093,0.8940735,0.8098162,1.750316,819.5217,0,0,2022-05-12T10:43:39.010+02:00,674037819.0102764,0,-2.77,100.9422,1,0.93
2022-05-12T10:43:39.074+02:00,1652345017.99992,53.22902170014869,10.39847223089114,40.65762,0,0.79,29.53125,20.25169018155352,4,5,-9999,3458.035271375,0.0826873779296875,-0.6131439208984375,-0.7568817138671875,3458.030273375,-2.916995353819082,0.09652149140606406,0.6733597314745967,-0.05167510733008385,-0.01224568672478199,-0.005391734652221203,0.009349577128887177,0.006778836250305176,0.02183663845062256,XArbitraryZVertical,-0.08222414946586917,0.3227894788285597,0.9350335141583804,-0.1214846630242812,0.07533673197031021,-0.6236159205436707,-0.7780922651290894,0,0,0,-1,-1,3457.972630375,walking,2,2022-05-12T10:43:39.010+02:00,2022-05-11T22:15:20.957+02:00,1093,0.8940735,0.8098162,1.750316,819.5217,0,0,2022-05-12T10:43:39.010+02:00,674037819.0102764,0,-2.77,100.9422,1,0.93
2022-05-12T10:43:39.084+02:00,1652345017.99992,53.22902170014869,10.39847223089114,40.65762,0,0.79,29.53125,20.25169018155352,4,5,-9999,3458.045266375,0.0812835693359375,-0.60943603515625,-0.760528564453125,3458.040269375,-2.916999828718704,0.09645139529077727,0.672708138857937,-0.06640638411045074,-0.008712204173207283,-0.004655903205275536,0.007366098463535309,0.009961962699890137,0.02162057161331177,XArbitraryZVertical,-0.0821613878266885,0.3224880906338602,0.9351451544463993,-0.1214685819938582,0.07532130181789398,-0.6231064200401306,-0.7785018682479858,0,0,0,-1,-1,3457.972630375,walking,2,2022-05-12T10:43:39.010+02:00,2022-05-11T22:15:20.957+02:00,1093,0.8940735,0.8098162,1.750316,819.5217,0,0,2022-05-12T10:43:39.010+02:00,674037819.0102764,0,-2.77,100.9422,1,0.93
2022-05-12T10:43:39.094+02:00,1652345017.99992,53.22902170014869,10.39847223089114,40.65762,0,0.79,29.53125,20.25169018155352,4,5,-9999,3458.055261375,0.0782470703125,-0.60296630859375,-0.7636566162109375,3458.050264375,-2.917031507113239,0.09630132773674728,0.6719926057311426,-0.06954458355903625,-0.02417438477277756,-0.01440560258924961,0.006036266684532166,0.01311004161834717,0.01842856407165527,XArbitraryZVertical,-0.08205395893706381,0.3221626538717074,0.9352721738495671,-0.1214266182901833,0.07524732500314713,-0.6225466132164001,-0.7789567708969116,0,0,0,-1,-1,3457.972630375,walking,2,2022-05-12T10:43:39.010+02:00,2022-05-11T22:15:20.957+02:00,1093,0.8940735,0.8098162,1.750316,819.5217,0,0,2022-05-12T10:43:39.010+02:00,674037819.0102764,0,-2.77,100.9422,1,0.93
2022-05-12T10:43:39.104+02:00,1652345017.99992,53.22902170014869,10.39847223089114,40.65762,0,0.79,29.53125,20.25169018155352,4,5,-9999,3458.065256375,0.07550048828125,-0.5968170166015625,-0.7655029296875,3458.060259375,-2.917113040112628,0.09607299346622709,0.6712615747856991,-0.07285515964031219,-0.02927513793110847,-0.01073416881263256,0.003133997321128845,0.01900744438171387,0.0157705545425415,XArbitraryZVertical,-0.08190118579860134,0.3218366527995304,0.9354079566732824,-0.1213487356958408,0.07511310279369354,-0.6219743490219116,-0.7794267535209656,0,0,0,-1,-1,3457.972630375,walking,2,2022-05-12T10:43:39.010+02:00,2022-05-11T22:15:20.957+02:00,1093,0.8940735,0.8098162,1.750316,819.5217,0,0,2022-05-12T10:43:39.010+02:00,674037819.0102764,0,-2.77,100.9422,1,0.93
2022-05-12T10:43:39.114+02:00,1652345017.99992,53.22902170014869,10.39847223089114,40.65762,0,0.79,29.53125,20.25169018155352,4,5,-9999,3458.075252375,0.07568359375,-0.5985870361328125,-0.768646240234375,3458.070254375,-2.917181641392374,0.09581067609593269,0.6705519717413811,-0.07423408329486847,-0.03676247969269753,-0.01259239017963409,0.0005496665835380554,0.02460098266601562,0.01438307762145996,XArbitraryZVertical,-0.08173554599834952,0.3215221857750163,0.9355406400222513,-0.1212715756706814,0.07495084404945374,-0.6214185357093811,-0.7798855900764465,0,0,0,-1,-1,3457.972630375,walking,2,2022-05-12T10:43:39.010+02:00,2022-05-11T22:15:20.957+02:00,1093,0.8940735,0.8098162,1.750316,819.5217,0,0,2022-05-12T10:43:39.010+02:00,674037819.0102764,0,-2.77,100.9422,1,0.93
2022-05-12T10:43:39.124+02:00,1652345017.99992,53.22902170014869,10.39847223089114,40.65762,0,0.79,29.53125,20.25169018155352,4,5,-9999,3458.085247375,0.0726470947265625,-0.601348876953125,-0.7694244384765625,3458.080249375,-2.917287087482868,0.09556455992607565,0.6698934798394159,-0.07186226546764374,-0.03570227697491646,-0.01020513195544481,0.0008856877684593201,0.02231490612030029,0.01166534423828125,XArbitraryZVertical,-0.0815738486056984,0.3212322458915619,0.9356661118163331,-0.1211799984622956,0.07479792833328247,-0.6209024786949158,-0.780311107635498,0,0,0,-1,-1,3457.972630375,walking,2,2022-05-12T10:43:39.010+02:00,2022-05-11T22:15:20.957+02:00,1093,0.8940735,0.8098162,1.750316,819.5217,0,0,2022-05-12T10:43:39.010+02:00,674037819.0102764,0,-2.77,100.9422,1,0.93
2022-05-12T10:43:39.134+02:00,1652345017.99992,53.22902170014869,10.39847223089114,40.65762,0,0.79,29.53125,20.25169018155352,4,5,-9999,3458.095242375,0.071044921875,-0.6042022705078125,-0.770233154296875,3458.090244375,-2.917388504285433,0.09537574243045714,0.6691796392563697,-0.08633125573396683,-0.03461816906929016,-0.00612536957487464,-0.002045653760433197,0.0189933180809021,0.01134222745895386,XArbitraryZVertical,-0.08143710938768964,0.3209125622265462,0.9357981992654549,-0.1210993739005926,0.07469277828931808,-0.6203427910804749,-0.7807662487030029,0,0,0,-1,-1,3457.972630375,walking,2,2022-05-12T10:43:39.010+02:00,2022-05-11T22:15:20.957+02:00,1093,0.8940735,0.8098162,1.750316,819.5217,0,0,2022-05-12T10:43:39.010+02:00,674037819.0102764,0,-2.77,100.9422,1,0.93
2022-05-12T10:43:39.144+02:00,1652345017.99992,53.22902170014869,10.39847223089114,40.65762,0,0.79,29.53125,20.25169018155352,4,5,-9999,3458.105237375,0.0688018798828125,-0.6005706787109375,-0.767333984375,3458.100240375,-2.917398956329806,0.09514305976792831,0.6682611780222407,-0.111828625202179,-0.03121571615338326,-0.005234009120613337,-0.00352025032043457,0.01541930437088013,0.01111769676208496,XArbitraryZVertical,-0.08128521153452253,0.3204957236436892,0.9359600875880345,-0.1210534554218381,0.07456519454717636,-0.6196221113204956,-0.7813504338264465,0,0,0,-1,-1,3457.972630375,walking,2,2022-05-12T10:43:39.010+02:00,2022-05-11T22:15:20.957+02:00,1093,0.8940735,0.8098162,1.750316,819.5217,0,0,2022-05-12T10:43:39.010+02:00,674037819.0102764,0,-2.77,100.9422,1,0.93
2022-05-12T10:43:39.154+02:00,1652345017.99992,53.22902170014869,10.39847223089114,40.65762,0,0.79,29.53125,20.25169018155352,4,5,-9999,3458.115232375,0.066314697265625,-0.5972900390625,-0.769805908203125,3458.110235375,-2.917466929754308,0.0949127383228055,0.6671259842291043,-0.1285000145435333,-0.03595907241106033,-0.01941800490021706,-0.005649939179420471,0.01815944910049438,0.01473373174667358,XArbitraryZVertical,-0.08111539823985196,0.3199791374552635,0.9361610181517613,-0.120980232233764,0.07445184886455536,-0.6187307238578796,-0.7820672988891602,0,0,0,-1,-1,3457.972630375,walking,2,2022-05-12T10:43:39.010+02:00,2022-05-11T22:15:20.957+02:00,1093,0.8940735,0.8098162,1.750316,819.5217,0,0,2022-05-12T10:43:39.010+02:00,674037819.0102764,0,-2.77,100.9422,1,0.93
2022-05-12T10:43:39.164+02:00,1652345017.99992,53.22902170014869,10.39847223089114,40.65762,0,0.79,29.53125,20.25169018155352,4,5,-9999,3458.125228375,0.0592803955078125,-0.58697509765625,-0.7716217041015625,3458.120230375,-2.917664841411187,0.09473948221755013,0.6658300556033777,-0.1366887092590332,-0.03154275193810463,-0.03086879849433899,-0.008077420294284821,0.02042156457901001,0.01307231187820435,XArbitraryZVertical,-0.08094427051007702,0.3193887011680253,0.9363936606416716,-0.1208547222277774,0.07439213991165161,-0.6177120804786682,-0.7828777432441711,0,0,0,-1,-1,3457.972630375,walking,2,2022-05-12T10:43:39.010+02:00,2022-05-11T22:15:20.957+02:00,1093,0.8940735,0.8098162,1.750316,819.5217,0,0,2022-05-12T10:43:39.010+02:00,674037819.0102764,0,-2.77,100.9422,1,0.93
2022-05-12T10:43:39.174+02:00,1652345017.99992,53.22902170014869,10.39847223089114,40.65762,0,0.79,29.53125,20.25169018155352,4,5,-9999,3458.135223375,0.06036376953125,-0.5938262939453125,-0.769989013671875,3458.130225375,-2.917990127578603,0.09466430413048506,0.6644312792642263,-0.1443414837121964,-0.03253944218158722,-0.04330962151288986,-0.01513446122407913,0.02963584661483765,0.01212143898010254,XArbitraryZVertical,-0.08079418858463559,0.3187490007425751,0.9366464514117923,-0.120684770376563,0.07441487908363342,-0.6166114807128906,-0.7837427258491516,0,0,0,-1,-1,3457.972630375,walking,2,2022-05-12T10:43:39.010+02:00,2022-05-11T22:15:20.957+02:00,1093,0.8940735,0.8098162,1.750316,819.5217,0,0,2022-05-12T10:43:39.010+02:00,674037819.0102764,0,-2.77,100.9422,1,0.93
2022-05-12T10:43:39.184+02:00,1652345017.99992,53.22902170014869,10.39847223089114,40.65762,0,0.79,29.53125,20.25169018155352,4,5,-9999,3458.145218375,0.05902099609375,-0.605255126953125,-0.774078369140625,3458.140220375,-2.918495247874695,0.09465024050154923,0.662938101229239,-0.149074986577034,-0.03600740805268288,-0.05933572351932526,-0.01412699371576309,0.02160847187042236,0.01467090845108032,XArbitraryZVertical,-0.08064004436582094,0.3180682626898803,0.9369226700209456,-0.1204398368801254,0.07449079304933548,-0.6154353022575378,-0.7846595048904419,0,0,0,-1,-1,3457.972630375,walking,2,2022-05-12T10:43:39.010+02:00,2022-05-11T22:15:20.957+02:00,1093,0.8940735,0.8098162,1.750316,819.5217,0,0,2022-05-12T10:43:39.010+02:00,674037819.0102764,0,-2.77,100.9422,1,0.93
2022-05-12T10:43:39.194+02:00,1652345017.99992,53.22902170014869,10.39847223089114,40.65762,0,0.79,29.53125,20.25169018155352,4,5,-9999,3458.155213375,0.0596923828125,-0.6005401611328125,-0.77227783203125,3458.150215375,-2.919108852387909,0.09471194499276904,0.6612950083830328,-0.1710672527551651,-0.0301484540104866,-0.06488655507564545,-0.01561371237039566,0.008883655071258545,0.01158261299133301,XArbitraryZVertical,-0.08049777336079859,0.3173165946033235,0.9372263084796307,-0.120155267472873,0.07463473826646805,-0.6141393780708313,-0.7856605648994446,0,0,0,-1,-1,3457.972630375,walking,2,2022-05-12T10:43:39.010+02:00,2022-05-11T22:15:20.957+02:00,1093,0.8940735,0.8098162,1.750316,819.5217,0,0,2022-05-12T10:43:39.010+02:00,674037819.0102764,0,-2.77,100.9422,1,0.93
2022-05-12T10:43:39.204+02:00,1652345017.99992,53.22902170014869,10.39847223089114,40.65762,0,0.79,29.53125,20.25169018155352,4,5,-9999,3458.165208375,0.0634765625,-0.599761962890625,-0.7716522216796875,3458.160211375,-2.919750541854092,0.09479273146968228,0.6594244004257557,-0.1917701363563538,-0.03438953682780266,-0.06921818852424622,-0.01511441171169281,0.01212131977081299,0.01451939344406128,XArbitraryZVertical,-0.08035026747529965,0.3164576085807393,0.9375672599691353,-0.1198592481234613,0.0748068168759346,-0.6126620173454285,-0.7867968082427979,0,0,0,-1,-1,3457.972630375,walking,2,2022-05-12T10:43:39.010+02:00,2022-05-11T22:15:20.957+02:00,1093,0.8940735,0.8098162,1.750316,819.5217,0,0,2022-05-12T10:43:39.010+02:00,674037819.0102764,0,-2.77,100.9422,1,0.93
2022-05-12T10:43:39.214+02:00,1652345017.99992,53.22902170014869,10.39847223089114,40.65762,0,0.79,29.53125,20.25169018155352,4,5,-9999,3458.175203375,0.062042236328125,-0.5956573486328125,-0.7683868408203125,3458.170206375,-2.920475462908772,0.09476241446497026,0.6573480117434755,-0.2141085863113403,-0.06026481091976166,-0.08638465404510498,-0.01142658293247223,0.0112571120262146,0.01641201972961426,XArbitraryZVertical,-0.08012887047775066,0.3155114241176499,0.9379501756339667,-0.1195053469869985,0.07490317523479462,-0.6110196709632874,-0.7880638241767883,0,0,0,-1,-1,3457.972630375,walking,2,2022-05-12T10:43:39.010+02:00,2022-05-11T22:15:20.957+02:00,1093,0.8940735,0.8098162,1.750316,819.5217,0,0,2022-05-12T10:43:39.010+02:00,674037819.0102764,0,-2.77,100.9422,1,0.93
2022-05-12T10:43:39.224+02:00,1652345017.99992,53.22902170014869,10.39847223089114,40.65762,0,0.79,29.53125,20.25169018155352,4,5,-9999,3458.185199375,0.0675811767578125,-0.593017578125,-0.7699737548828125,3458.180201375,-2.921349889812755,0.09462660249503187,0.6550231641936926,-0.2408102452754974,-0.07312308996915817,-0.09311074018478394,-0.01288790255784988,0.01351970434188843,0.02109956741333008,XArbitraryZVertical,-0.07982402996512332,0.3144600410180419,0.9383853683797939,-0.1190632108352592,0.07493016123771667,-0.6091775894165039,-0.7894859910011292,0,0,0,-1,-1,3457.972630375,walking,2,2022-05-12T10:43:39.010+02:00,2022-05-11T22:15:20.957+02:00,1093,0.8940735,0.8098162,1.750316,819.5217,0,0,2022-05-12T10:43:39.010+02:00,674037819.0102764,0,-2.77,100.9422,1,0.93
2022-05-12T10:43:39.234+02:00,1652345017.99992,53.22902170014869,10.39847223089114,40.65762,0,0.79,29.53125,20.25169018155352,4,5,-9999,3458.195194375,0.0677947998046875,-0.59552001953125,-0.7754058837890625,3458.190196375,-2.92232708146439,0.09432736944055546,0.6524053319446588,-0.267936497926712,-0.1053659096360207,-0.1159985363483429,-0.007262662053108215,0.01408135890960693,0.02112001180648804,XArbitraryZVertical,-0.07941418311212144,0.3132837608688142,0.9388790365577624,-0.118545498465419,0.07484386116266251,-0.6070994734764099,-0.7910933494567871,0,0,0,-1,-1,3457.972630375,walking,2,2022-05-12T10:43:39.010+02:00,2022-05-11T22:15:20.957+02:00,1093,0.8940735,0.8098162,1.750316,819.5217,0,0,2022-05-12T10:43:39.010+02:00,674037819.0102764,0,-2.77,100.9422,1,0.93
2022-05-12T10:43:39.244+02:00,1652345017.99992,53.22902170014869,10.39847223089114,40.65762,0,0.79,29.53125,20.25169018155352,4,5,-9999,3458.205189375,0.0535430908203125,-0.5938568115234375,-0.7821197509765625,3458.200191375,-2.923639762588122,0.09387317177366811,0.6495677741832023,-0.2865216434001923,-0.1346207410097122,-0.1551936119794846,-0.006850890815258026,0.009321630001068115,0.01743370294570923,XArbitraryZVertical,-0.07887042352508153,0.3120254406356476,0.9394319596070991,-0.1178446756618369,0.07464572042226791,-0.6048422455787659,-0.7928391695022583,0,0,0,-1,-1,3457.972630375,walking,2,2022-05-12T10:43:39.010+02:00,2022-05-11T22:15:20.957+02:00,1093,0.8940735,0.8098162,1.750316,819.5217,0,0,2022-05-12T10:43:39.010+02:00,674037819.0102764,0,-2.77,100.9422,1,0.93
2022-05-12T10:43:39.254+02:00,1652345017.99992,53.22902170014869,10.39847223089114,40.65762,0,0.79,29.53125,20.25169018155352,4,5,-9999,3458.215184375,0.0486602783203125,-0.5960693359375,-0.7890167236328125,3458.210187375,-2.925536637351548,0.09342851136594119,0.6464970825052286,-0.3001731634140015,-0.1772329062223434,-0.2128523737192154,-0.0209229588508606,0.008536696434020996,0.01259839534759521,XArbitraryZVertical,-0.07823150141274668,0.3106782539268034,0.9400534993576202,-0.1168693093055509,0.07446608692407608,-0.6023941040039062,-0.7947177290916443,0,0,0,-1,-1,3457.972630375,walking,2,2022-05-12T10:43:39.010+02:00,2022-05-11T22:15:20.957+02:00,1093,0.8940735,0.8098162,1.750316,819.5217,0,0,2022-05-12T10:43:39.010+02:00,674037819.0102764,0,-2.77,100.9422,1,0.93
2022-05-12T10:43:39.264+02:00,1652345017.99992,53.22902170014869,10.39847223089114,40.65762,0,0.79,29.53125,20.25169018155352,4,5,-9999,3458.225179375,-0.01678466796875,-0.6126708984375,-0.811309814453125,3458.220182375,-2.928344733186421,0.09306779017284349,0.6432871836931693,-0.3087368011474609,-0.2079625874757767,-0.2992117702960968,-0.02569841593503952,0.00375896692276001,0.007649362087249756,XArbitraryZVertical,-0.07748733839914311,0.3092941764120583,0.9407433042478083,-0.1154768995605242,0.07435872405767441,-0.599828839302063,-0.7966656684875488,0,0,0,-1,-1,3457.972630375,walking,2,2022-05-12T10:43:39.010+02:00,2022-05-11T22:15:20.957+02:00,1093,0.8940735,0.8098162,1.750316,819.5217,0,0,2022-05-12T10:43:39.010+02:00,674037819.0102764,0,-2.77,100.9422,1,0.93
