loggingTime(txt),locationTimestamp_since1970(s),locationLatitude(WGS84),locationLongitude(WGS84),locationAltitude(m),locationSpeed(m/s),locationSpeedAccuracy(m/s),locationCourse(°),locationCourseAccuracy(°),locationVerticalAccuracy(m),locationHorizontalAccuracy(m),locationFloor(Z),accelerometerTimestamp_sinceReboot(s),accelerometerAccelerationX(G),accelerometerAccelerationY(G),accelerometerAccelerationZ(G),motionTimestamp_sinceReboot(s),motionYaw(rad),motionRoll(rad),motionPitch(rad),motionRotationRateX(rad/s),motionRotationRateY(rad/s),motionRotationRateZ(rad/s),motionUserAccelerationX(G),motionUserAccelerationY(G),motionUserAccelerationZ(G),motionAttitudeReferenceFrame(txt),motionQuaternionX(R),motionQuaternionY(R),motionQuaternionZ(R),motionQuaternionW(R),motionGravityX(G),motionGravityY(G),motionGravityZ(G),motionMagneticFieldX(µT),motionMagneticFieldY(µT),motionMagneticFieldZ(µT),motionHeading(°),motionMagneticFieldCalibrationAccuracy(Z),activityTimestamp_sinceReboot(s),activity(txt),activityActivityConfidence(Z),activityActivityStartDate(txt),pedometerStartDate(txt),pedometerNumberofSteps(N),pedometerAverageActivePace(s/m),pedometerCurrentPace(s/m),pedometerCurrentCadence(steps/s),pedometerDistance(m),pedometerFloorAscended(N),pedometerFloorDescended(N),pedometerEndDate(txt),altimeterTimestamp_sinceReboot(s),altimeterReset(bool),altimeterRelativeAltitude(m),altimeterPressure(kPa),batteryState(N),batteryLevel(R)
2022-05-12T10:44:30.772+02:00,1652345068.587041,53.22874370913438,10.39838658983421,39.70283,-1,-1,-1,-1,24.90268135070801,40.57044570437055,-9999,3484.728652875,0.1251373291015625,-0.7431488037109375,-0.6055755615234375,3484.723655875,-0.1222368153773222,0.1344496564299428,0.8188111427083693,-0.1018831133842468,-0.03517730161547661,-0.1197157204151154,0.02322690188884735,-0.0115477442741394,0.08097761869430542,XArbitraryZVertical,0.4001872973833493,0.03724873050906218,-0.02921626394824237,0.9152099427459598,0.09156477451324463,-0.7303342223167419,-0.6769253015518188,0,0,0,-1,-1,3484.093974791667,walking,2,2022-05-12T10:44:30.104+02:00,2022-05-11T22:15:20.957+02:00,1143,0.8977532,0.7616392,1.735548,854.7967,0,0,2022-05-12T10:44:30.104+02:00,674037870.1039381,0,-3.650002,100.9505,1,0.93
2022-05-12T10:44:30.775+02:00,1652345068.587041,53.22874370913438,10.39838658983421,39.70283,-1,-1,-1,-1,24.90268135070801,40.57044570437055,-9999,3484.738647875,0.1122894287109375,-0.7323760986328125,-0.6193695068359375,3484.733650875,-0.1237981963149188,0.134932194721257,0.81750659452075,-0.1265639662742615,-0.09499029815196991,-0.1237639859318733,0.03311764448881149,-0.01370596885681152,0.07224857807159424,XArbitraryZVertical,0.3996286246009182,0.03721149452067253,-0.02989046869570491,0.915433727196693,0.09201949089765549,-0.7294424772262573,-0.6778245568275452,0,0,0,-1,-1,3484.093974791667,walking,2,2022-05-12T10:44:30.104+02:00,2022-05-11T22:15:20.957+02:00,1143,0.8977532,0.7616392,1.735548,854.7967,0,0,2022-05-12T10:44:30.104+02:00,674037870.1039381,0,-3.650002,100.9505,1,0.93
2022-05-12T10:44:30.778+02:00,1652345068.587041,53.22874370913438,10.39838658983421,39.70283,-1,-1,-1,-1,24.90268135070801,40.57044570437055,-9999,3484.748643875,0.1013336181640625,-0.738433837890625,-0.6450347900390625,3484.743645875,-0.1251553740394656,0.1348620225361914,0.8159993729485675,-0.1454443037509918,-0.113178625702858,-0.1041482016444206,0.02016959339380264,-0.003965079784393311,0.05954980850219727,XArbitraryZVertical,0.398965264894418,0.03697146413736539,-0.03059087113816633,0.915709607177654,0.09211964160203934,-0.7284106612205505,-0.6789196729660034,0,0,0,-1,-1,3484.093974791667,walking,2,2022-05-12T10:44:30.104+02:00,2022-05-11T22:15:20.957+02:00,1143,0.8977532,0.7616392,1.735548,854.7967,0,0,2022-05-12T10:44:30.104+02:00,674037870.1039381,0,-3.650002,100.9505,1,0.93
2022-05-12T10:44:30.784+02:00,1652345068.587041,53.22874370913438,10.39838658983421,39.70283,-1,-1,-1,-1,24.90268135070801,40.57044570437055,-9999,3484.758638875,0.0960235595703125,-0.74658203125,-0.6659393310546875,3484.753640875,-0.1262907084492854,0.1344162201253156,0.8144065860790577,-0.1443747729063034,-0.1338210552930832,-0.09660612791776657,0.009361088275909424,-0.01111501455307007,0.03507435321807861,XArbitraryZVertical,0.3982525577938105,0.03660806120630269,-0.03126849787619174,0.9160114737870177,0.09197232872247696,-0.7273184657096863,-0.6801095008850098,0,0,0,-1,-1,3484.093974791667,walking,2,2022-05-12T10:44:30.104+02:00,2022-05-11T22:15:20.957+02:00,1143,0.8977532,0.7616392,1.735548,854.7967,0,0,2022-05-12T10:44:30.104+02:00,674037870.1039381,0,-3.650002,100.9505,1,0.93
2022-05-12T10:44:30.787+02:00,1652345068.587041,53.22874370913438,10.39838658983421,39.70283,-1,-1,-1,-1,24.90268135070801,40.57044570437055,-9999,3484.768633875,0.0416259765625,-0.81732177734375,-0.669158935546875,3484.763635875,-0.1284074481875083,0.1345854800952858,0.8126405700161569,-0.1981111168861389,-0.1651166528463364,-0.3630814850330353,0.003763705492019653,-0.02047640085220337,0.01542603969573975,XArbitraryZVertical,0.3974877820192476,0.03633941989372757,-0.03228103732359973,0.9163193151463801,0.09225966036319733,-0.7261053323745728,-0.6813658475875854,0,0,0,-1,-1,3484.093974791667,walking,2,2022-05-12T10:44:30.104+02:00,2022-05-11T22:15:20.957+02:00,1143,0.8977532,0.7616392,1.735548,854.7967,0,0,2022-05-12T10:44:30.104+02:00,674037870.1039381,0,-3.650002,100.9505,1,0.93
2022-05-12T10:44:30.792+02:00,1652345068.587041,53.22874370913438,10.39838658983421,39.70283,-1,-1,-1,-1,24.90268135070801,40.57044570437055,-9999,3484.778628875,0.1776580810546875,-0.655670166015625,-0.6700897216796875,3484.773631875,-0.1310241951872384,0.1359483021481014,0.8104918178685266,-0.1679667979478836,-0.1046972572803497,-0.06977105885744095,-0.05177361518144608,-0.09269529581069946,0.01362431049346924,XArbitraryZVertical,0.3965768655471882,0.03653689558937781,-0.03330360732470973,0.9166694762351418,0.09339939057826996,-0.7246261835098267,-0.6827836632728577,0,0,0,-1,-1,3484.093974791667,walking,2,2022-05-12T10:44:30.104+02:00,2022-05-11T22:15:20.957+02:00,1143,0.8977532,0.7616392,1.735548,854.7967,0,0,2022-05-12T10:44:30.104+02:00,674037870.1039381,0,-3.650002,100.9505,1,0.93
2022-05-12T10:44:30.800+02:00,1652345068.587041,53.22874370913438,10.39838658983421,39.70283,-1,-1,-1,-1,24.90268135070801,40.57044570437055,-9999,3484.788623875,0.084259033203125,-0.7174835205078125,-0.6912078857421875,3484.783626875,-0.1319349112866831,0.1355049806221401,0.809091257556198,-0.1270763874053955,-0.1145361065864563,-0.08033601939678192,0.08442418277263641,0.06799042224884033,0.01373982429504395,XArbitraryZVertical,0.3959464409319441,0.03621408697146179,-0.03387054796723683,0.916933966034995,0.09323369711637497,-0.7236602902412415,-0.6838299036026001,0,0,0,-1,-1,3484.093974791667,walking,2,2022-05-12T10:44:30.104+02:00,2022-05-11T22:15:20.957+02:00,1143,0.8977532,0.7616392,1.735548,854.7967,0,0,2022-05-12T10:44:30.104+02:00,674037870.1039381,0,-3.650002,100.9505,1,0.93
2022-05-12T10:44:30.810+02:00,1652345068.587041,53.22874370913438,10.39838658983421,39.70283,-1,-1,-1,-1,24.90268135070801,40.57044570437055,-9999,3484.798618875,0.0934295654296875,-0.6964874267578125,-0.70379638671875,3484.793621875,-0.1326420666313011,0.1348405926462206,0.8080881449977826,-0.0770782008767128,-0.1191963702440262,-0.0395750068128109,-0.008618056774139404,0.005484402179718018,-0.006597638130187988,XArbitraryZVertical,0.3954896778042443,0.03581324095428481,-0.03437032830611703,0.9171281791326096,0.09287688136100769,-0.7229676246643066,-0.6846106648445129,0,0,0,-1,-1,3484.093974791667,walking,2,2022-05-12T10:44:30.104+02:00,2022-05-11T22:15:20.957+02:00,1143,0.8977532,0.7616392,1.735548,854.7967,0,0,2022-05-12T10:44:30.104+02:00,674037870.1039381,0,-3.650002,100.9505,1,0.93
2022-05-12T10:44:30.820+02:00,1652345068.587041,53.22874370913438,10.39838658983421,39.70283,-1,-1,-1,-1,24.90268135070801,40.57044570437055,-9999,3484.808613875,0.0938720703125,-0.7135772705078125,-0.697845458984375,3484.803616875,-0.1330930535723577,0.1340323584427559,0.8075350301774714,-0.06114015355706215,-0.1151233986020088,-0.02943894825875759,0.001052416861057281,0.02609825134277344,-0.01871508359909058,XArbitraryZVertical,0.3952310420273966,0.03537756824002183,-0.03476116220559683,0.9172418617567175,0.0923769548535347,-0.7225853800773621,-0.6850817203521729,0,0,0,-1,-1,3484.093974791667,walking,2,2022-05-12T10:44:30.104+02:00,2022-05-11T22:15:20.957+02:00,1143,0.8977532,0.7616392,1.735548,854.7967,0,0,2022-05-12T10:44:30.104+02:00,674037870.1039381,0,-3.650002,100.9505,1,0.93
2022-05-12T10:44:30.830+02:00,1652345068.587041,53.22874370913438,10.39838658983421,39.70283,-1,-1,-1,-1,24.90268135070801,40.57044570437055,-9999,3484.818609875,0.0876312255859375,-0.704681396484375,-0.6996002197265625,3484.813611875,-0.1334904262946235,0.1331727244705033,0.8069974118267155,-0.06972484290599823,-0.1182155981659889,-0.02619308792054653,0.002032294869422913,0.008636713027954102,-0.01230007410049438,XArbitraryZVertical,0.3949773838198238,0.03492825372894889,-0.03513671875027763,0.9173539940082215,0.09183956682682037,-0.7222136259078979,-0.6855457425117493,0,0,0,-1,-1,3484.093974791667,walking,2,2022-05-12T10:44:30.104+02:00,2022-05-11T22:15:20.957+02:00,1143,0.8977532,0.7616392,1.735548,854.7967,0,0,2022-05-12T10:44:30.104+02:00,674037870.1039381,0,-3.650002,100.9505,1,0.93
2022-05-12T10:44:30.839+02:00,1652345068.587041,53.22874370913438,10.39838658983421,39.70283,-1,-1,-1,-1,24.90268135070801,40.57044570437055,-9999,3484.828604875,0.07745361328125,-0.7023468017578125,-0.709686279296875,3484.823606875,-0.1338530207990383,0.1323028965410991,0.8063834468143148,-0.06617658585309982,-0.1142283082008362,-0.03141341358423233,-0.003670677542686462,0.01710778474807739,-0.01353585720062256,XArbitraryZVertical,0.3946877539657193,0.03448446229047073,-0.03550147503168394,0.9174813845786867,0.09130170196294785,-0.7217888236045837,-0.6860647797584534,0,0,0,-1,-1,3484.093974791667,walking,2,2022-05-12T10:44:30.104+02:00,2022-05-11T22:15:20.957+02:00,1143,0.8977532,0.7616392,1.735548,854.7967,0,0,2022-05-12T10:44:30.104+02:00,674037870.1039381,0,-3.650002,100.9505,1,0.93
2022-05-12T10:44:30.850+02:00,1652345068.587041,53.22874370913438,10.39838658983421,39.70283,-1,-1,-1,-1,24.90268135070801,40.57044570437055,-9999,3484.838599875,0.0750579833984375,-0.69775390625,-0.7217254638671875,3484.833601875,-0.134143355860104,0.131470850461547,0.8057422676687565,-0.07078571617603302,-0.09430307149887085,-0.02204175293445587,-0.01333806663751602,0.01899844408035278,-0.02308744192123413,XArbitraryZVertical,0.394384860673836,0.03407343422739124,-0.03582659772172567,0.9176143166893679,0.0907914787530899,-0.7213449478149414,-0.6865991950035095,0,0,0,-1,-1,3484.093974791667,walking,2,2022-05-12T10:44:30.104+02:00,2022-05-11T22:15:20.957+02:00,1143,0.8977532,0.7616392,1.735548,854.7967,0,0,2022-05-12T10:44:30.104+02:00,674037870.1039381,0,-3.650002,100.9505,1,0.93
2022-05-12T10:44:30.859+02:00,1652345068.587041,53.22874370913438,10.39838658983421,39.70283,-1,-1,-1,-1,24.90268135070801,40.57044570437055,-9999,3484.848594875,0.07476806640625,-0.6928863525390625,-0.73272705078125,3484.843597875,-0.1343045836211734,0.1307111934322986,0.8050240075485773,-0.07515979558229446,-0.08029504865407944,-0.01681056991219521,-0.0152796134352684,0.02309364080429077,-0.03454434871673584,XArbitraryZVertical,0.3940455462849153,0.0337244009143954,-0.0360813229421736,0.917763100627572,0.09033738821744919,-0.7208473086357117,-0.6871815323829651,0,0,0,-1,-1,3484.093974791667,walking,2,2022-05-12T10:44:30.104+02:00,2022-05-11T22:15:20.957+02:00,1143,0.8977532,0.7616392,1.735548,854.7967,0,0,2022-05-12T10:44:30.104+02:00,674037870.1039381,0,-3.650002,100.9505,1,0.93
2022-05-12T10:44:30.870+02:00,1652345068.587041,53.22874370913438,10.39838658983421,39.70283,-1,-1,-1,-1,24.90268135070801,40.57044570437055,-9999,3484.858589875,0.0749359130859375,-0.690826416015625,-0.73681640625,3484.853592875,-0.1342048145662455,0.1299084140834389,0.8042745862861047,-0.09465919435024261,-0.05682540312409401,0.0006168894469738007,-0.0150877982378006,0.02744156122207642,-0.04493808746337891,XArbitraryZVertical,0.3936867099568561,0.03340824621414728,-0.03622584988238033,0.9179229663252683,0.08985566347837448,-0.7203276753425598,-0.6877893209457397,0,0,0,-1,-1,3484.093974791667,walking,2,2022-05-12T10:44:30.104+02:00,2022-05-11T22:15:20.957+02:00,1143,0.8977532,0.7616392,1.735548,854.7967,0,0,2022-05-12T10:44:30.104+02:00,674037870.1039381,0,-3.650002,100.9505,1,0.93
2022-05-12T10:44:30.879+02:00,1652345068.587041,53.22874370913438,10.39838658983421,39.70283,-1,-1,-1,-1,24.90268135070801,40.57044570437055,-9999,3484.868584875,0.0785980224609375,-0.69525146484375,-0.7395782470703125,3484.863587875,-0.1340477092542151,0.1294187372403629,0.8032511332428711,-0.09997130185365677,-0.03569914773106575,0.01530029438436031,-0.01467824727296829,0.02879130840301514,-0.04825288057327271,XArbitraryZVertical,0.3932071968820028,0.03325881548506014,-0.03629389460647867,0.9181311681091722,0.08961395174264908,-0.7196173667907715,-0.6885638833045959,0,0,0,-1,-1,3484.093974791667,walking,2,2022-05-12T10:44:30.104+02:00,2022-05-11T22:15:20.957+02:00,1143,0.8977532,0.7616392,1.735548,854.7967,0,0,2022-05-12T10:44:30.104+02:00,674037870.1039381,0,-3.650002,100.9505,1,0.93
2022-05-12T10:44:30.889+02:00,1652345068.587041,53.22874370913438,10.39838658983421,39.70283,-1,-1,-1,-1,24.90268135070801,40.57044570437055,-9999,3484.878579875,0.0739593505859375,-0.7063140869140625,-0.739501953125,3484.873582875,-0.1335839018362608,0.1288098778491743,0.8022270082720842,-0.1086705178022385,-0.01612065359950066,0.02292518876492977,-0.01069150120019913,0.0236547589302063,-0.05022984743118286,XArbitraryZVertical,0.3927200243683307,0.03311473025523594,-0.036244268265957,0.9183467558463839,0.08928930759429932,-0.7189058661460876,-0.6893488168716431,0,0,0,-1,-1,3484.093974791667,walking,2,2022-05-12T10:44:30.104+02:00,2022-05-11T22:15:20.957+02:00,1143,0.8977532,0.7616392,1.735548,854.7967,0,0,2022-05-12T10:44:30.104+02:00,674037870.1039381,0,-3.650002,100.9505,1,0.93
2022-05-12T10:44:30.899+02:00,1652345068.587041,53.22874370913438,10.39838658983421,39.70283,-1,-1,-1,-1,24.90268135070801,40.57044570437055,-9999,3484.888575875,0.0633697509765625,-0.714874267578125,-0.736419677734375,3484.883577875,-0.1330345612404817,0.1283749881227848,0.8011013844693331,-0.1166524142026901,0.002961162477731705,0.0272672064602375,-0.01513390988111496,0.01180922985076904,-0.04931259155273438,XArbitraryZVertical,0.3921879950481258,0.03307133400770835,-0.03612514961961204,0.9185804008229158,0.08909305930137634,-0.7181230187416077,-0.6901897192001343,0,0,0,-1,-1,3484.093974791667,walking,2,2022-05-12T10:44:30.104+02:00,2022-05-11T22:15:20.957+02:00,1143,0.8977532,0.7616392,1.735548,854.7967,0,0,2022-05-12T10:44:30.104+02:00,674037870.1039381,0,-3.650002,100.9505,1,0.93
2022-05-12T10:44:30.909+02:00,1652345068.587041,53.22874370913438,10.39838658983421,39.70283,-1,-1,-1,-1,24.90268135070801,40.57044570437055,-9999,3484.898570875,0.0362701416015625,-0.7512664794921875,-0.7290802001953125,3484.893572875,-0.1326784398639634,0.1282311717291004,0.799835650032536,-0.1414200663566589,0.02409840561449528,-0.04908189177513123,-0.02574041485786438,0.002367615699768066,-0.04531663656234741,XArbitraryZVertical,0.3916002012463969,0.03312943463335598,-0.03604336136919498,0.9188322268033048,0.08910995721817017,-0.7172415852546692,-0.691103458404541,0,0,0,-1,-1,3484.093974791667,walking,2,2022-05-12T10:44:30.104+02:00,2022-05-11T22:15:20.957+02:00,1143,0.8977532,0.7616392,1.735548,854.7967,0,0,2022-05-12T10:44:30.104+02:00,674037870.1039381,0,-3.650002,100.9505,1,0.93
2022-05-12T10:44:30.919+02:00,1652345068.587041,53.22874370913438,10.39838658983421,39.70283,-1,-1,-1,-1,24.90268135070801,40.57044570437055,-9999,3484.908565875,0.0671539306640625,-0.71685791015625,-0.70916748046875,3484.903567875,-0.1327490394534297,0.1288516167473591,0.7983710723014996,-0.1294066458940506,0.06492659449577332,-0.01322062965482473,-0.05340368300676346,-0.03504586219787598,-0.03699153661727905,XArbitraryZVertical,0.390942032376856,0.03346360234277532,-0.0360165018759006,0.9191014000857295,0.08967361599206924,-0.7162202596664429,-0.6920890212059021,0,0,0,-1,-1,3484.093974791667,walking,2,2022-05-12T10:44:30.104+02:00,2022-05-11T22:15:20.957+02:00,1143,0.8977532,0.7616392,1.735548,854.7967,0,0,2022-05-12T10:44:30.104+02:00,674037870.1039381,0,-3.650002,100.9505,1,0.93
2022-05-12T10:44:30.929+02:00,1652345068.587041,53.22874370913438,10.39838658983421,39.70283,-1,-1,-1,-1,24.90268135070801,40.57044570437055,-9999,3484.918560875,0.0499725341796875,-0.7266387939453125,-0.695220947265625,3484.913562875,-0.1328889163234864,0.1296165502990597,0.7969933880905016,-0.1370339393615723,0.07549215853214264,-0.04111671075224876,-0.02317672222852707,-0.001599490642547607,-0.01616978645324707,XArbitraryZVertical,0.3903272237889871,0.03384712827851206,-0.03599000091123007,0.9193497117740885,0.09033045172691345,-0.7152581214904785,-0.6929980516433716,0,0,0,-1,-1,3484.093974791667,walking,2,2022-05-12T10:44:30.104+02:00,2022-05-11T22:15:20.957+02:00,1143,0.8977532,0.7616392,1.735548,854.7967,0,0,2022-05-12T10:44:30.104+02:00,674037870.1039381,0,-3.650002,100.9505,1,0.93
2022-05-12T10:44:30.939+02:00,1652345068.587041,53.22874370913438,10.39838658983421,39.70283,-1,-1,-1,-1,24.90268135070801,40.57044570437055,-9999,3484.928555875,0.046661376953125,-0.7215576171875,-0.691680908203125,3484.923558875,-0.1333760100487773,0.1307400691212531,0.7954255380362246,-0.1450247019529343,0.08637529611587524,-0.06813035160303116,-0.04128274321556091,-0.01247698068618774,-0.001214206218719482,XArbitraryZVertical,0.3896375770565135,0.03433636728376223,-0.03606193234440983,0.9196212734635381,0.0912550762295723,-0.7141615152359009,-0.6940071582794189,0,0,0,-1,-1,3484.093974791667,walking,2,2022-05-12T10:44:30.104+02:00,2022-05-11T22:15:20.957+02:00,1143,0.8977532,0.7616392,1.735548,854.7967,0,0,2022-05-12T10:44:30.104+02:00,674037870.1039381,0,-3.650002,100.9505,1,0.93
2022-05-12T10:44:30.949+02:00,1652345068.587041,53.22874370913438,10.39838658983421,39.70283,-1,-1,-1,-1,24.90268135070801,40.57044570437055,-9999,3484.938550875,0.0324554443359375,-0.7210235595703125,-0.681488037109375,3484.933553875,-0.1343308996443596,0.1323183606547408,0.7937245637251029,-0.1477171629667282,0.1079668775200844,-0.1189748868346214,-0.0458492636680603,-0.008587479591369629,0.003384113311767578,XArbitraryZVertical,0.3889033109362465,0.03495024884026592,-0.03626725868080707,0.9199008278668035,0.09251043945550919,-0.7129698395729065,-0.6950653791427612,0,0,0,-1,-1,3484.093974791667,walking,2,2022-05-12T10:44:30.104+02:00,2022-05-11T22:15:20.957+02:00,1143,0.8977532,0.7616392,1.735548,854.7967,0,0,2022-05-12T10:44:30.104+02:00,674037870.1039381,0,-3.650002,100.9505,1,0.93
2022-05-12T10:44:30.959+02:00,1652345068.587041,53.22874370913438,10.39838658983421,39.70283,-1,-1,-1,-1,24.90268135070801,40.57044570437055,-9999,3484.948546875,0.0262908935546875,-0.7233734130859375,-0.6691436767578125,3484.943548875,-0.1359865484150748,0.1345493059357322,0.7917244370172334,-0.1588545292615891,0.1248070374131203,-0.177690863609314,-0.06179672479629517,-0.009457230567932129,0.01478058099746704,XArbitraryZVertical,0.3880566526384394,0.03574279046884178,-0.03668293974044171,0.9202113260426169,0.09425196051597595,-0.7115659713745117,-0.6962689757347107,0,0,0,-1,-1,3484.093974791667,walking,2,2022-05-12T10:44:30.104+02:00,2022-05-11T22:15:20.957+02:00,1143,0.8977532,0.7616392,1.735548,854.7967,0,0,2022-05-12T10:44:30.104+02:00,674037870.1039381,0,-3.650002,100.9505,1,0.93
2022-05-12T10:44:30.969+02:00,1652345068.587041,53.22874370913438,10.39838658983421,39.70283,-1,-1,-1,-1,24.90268135070801,40.57044570437055,-9999,3484.958541875,0.0291595458984375,-0.7200927734375,-0.661590576171875,3484.953543875,-0.1384849285508256,0.13750618027452,0.7893662158074923,-0.2087824046611786,0.1274259835481644,-0.2483202964067459,-0.07024937868118286,-0.01346606016159058,0.02850341796875,XArbitraryZVertical,0.3870756374010942,0.03672460084259222,-0.03736452309635672,0.9205583731927761,0.09654007107019424,-0.709907054901123,-0.6976475119590759,0,0,0,-1,-1,3484.093974791667,walking,2,2022-05-12T10:44:30.104+02:00,2022-05-11T22:15:20.957+02:00,1143,0.8977532,0.7616392,1.735548,854.7967,0,0,2022-05-12T10:44:30.104+02:00,674037870.1039381,0,-3.650002,100.9505,1,0.93
2022-05-12T10:44:30.979+02:00,1652345068.587041,53.22874370913438,10.39838658983421,39.70283,-1,-1,-1,-1,24.90268135070801,40.57044570437055,-9999,3484.968536875,0.040252685546875,-0.7071380615234375,-0.6547698974609375,3484.963538875,-0.1418671742851971,0.1409229387773522,0.7865626683631384,-0.253282368183136,0.1042204722762108,-0.311408132314682,-0.07004301995038986,-0.01216274499893188,0.03769046068191528,XArbitraryZVertical,0.3859178320046763,0.03777175633704117,-0.03838875638291349,0.9209599731717178,0.09920236468315125,-0.7079297304153442,-0.6992814540863037,0,0,0,-1,-1,3484.093974791667,walking,2,2022-05-12T10:44:30.104+02:00,2022-05-11T22:15:20.957+02:00,1143,0.8977532,0.7616392,1.735548,854.7967,0,0,2022-05-12T10:44:30.104+02:00,674037870.1039381,0,-3.650002,100.9505,1,0.93
2022-05-12T10:44:30.989+02:00,1652345068.587041,53.22874370913438,10.39838658983421,39.70283,-1,-1,-1,-1,24.90268135070801,40.57044570437055,-9999,3484.978531875,0.068328857421875,-0.6981353759765625,-0.6491241455078125,3484.973533875,-0.1458215051584218,0.1446199690176117,0.7832930220847724,-0.2946175634860992,0.0963902473449707,-0.3515195846557617,-0.06186749786138535,-0.001521050930023193,0.04642635583877563,XArbitraryZVertical,0.3845661903003258,0.03886565960480175,-0.03965025814823918,0.9214261946612906,0.1021199747920036,-0.7056166529655457,-0.7011966109275818,0,0,0,-1,-1,3484.093974791667,walking,2,2022-05-12T10:44:30.104+02:00,2022-05-11T22:15:20.957+02:00,1143,0.8977532,0.7616392,1.735548,854.7967,0,0,2022-05-12T10:44:30.104+02:00,674037870.1039381,0,-3.650002,100.9505,1,0.93
2022-05-12T10:44:30.999+02:00,1652345068.587041,53.22874370913438,10.39838658983421,39.70283,-1,-1,-1,-1,24.90268135070801,40.57044570437055,-9999,3484.988526875,0.1049041748046875,-0.694305419921875,-0.649871826171875,3484.983528875,-0.1499248980235805,0.148347139182453,0.779802714888672,-0.3154055774211884,0.09405538439750671,-0.3488653898239136,-0.03676745295524597,0.00500410795211792,0.05411809682846069,XArbitraryZVertical,0.3831209095397349,0.03996313512878192,-0.04099265705048252,0.9219224603182891,0.1050961092114449,-0.7031391263008118,-0.7032426595687866,0,0,0,-1,-1,3484.093974791667,walking,2,2022-05-12T10:44:30.104+02:00,2022-05-11T22:15:20.957+02:00,1143,0.8977532,0.7616392,1.735548,854.7967,0,0,2022-05-12T10:44:30.104+02:00,674037870.1039381,0,-3.650002,100.9505,1,0.93
2022-05-12T10:44:31.009+02:00,1652345068.587041,53.22874370913438,10.39838658983421,39.70283,-1,-1,-1,-1,24.90268135070801,40.57044570437055,-9999,3484.998521875,0.1060638427734375,-0.70623779296875,-0.64019775390625,3484.993524875,-0.1542311534666884,0.1519537050280363,0.7759882774409598,-0.3772100806236267,0.009169258177280426,-0.4231385588645935,-0.003132946789264679,0.006116747856140137,0.05563288927078247,XArbitraryZVertical,0.3815327296168424,0.04099069198118361,-0.04247559039888479,0.9224686806185327,0.1080369129776955,-0.7004217505455017,-0.7055050730705261,0,0,0,-1,-1,3484.093974791667,walking,2,2022-05-12T10:44:30.104+02:00,2022-05-11T22:15:20.957+02:00,1143,0.8977532,0.7616392,1.735548,854.7967,0,0,2022-05-12T10:44:30.104+02:00,674037870.1039381,0,-3.650002,100.9505,1,0.93
2022-05-12T10:44:31.020+02:00,1652345068.587041,53.22874370913438,10.39838658983421,39.70283,-1,-1,-1,-1,24.90268135070801,40.57044570437055,-9999,3485.008516875,0.157928466796875,-0.6910247802734375,-0.6504974365234375,3485.003519875,-0.1582411645293371,0.1551664013353792,0.7719073066070253,-0.3551670014858246,0.04908012226223946,-0.3061791360378265,-0.00468011200428009,-0.008734226226806641,0.06777435541152954,XArbitraryZVertical,0.3798115760817928,0.04191564493957808,-0.04391867196447963,0.9230695566315312,0.1107437536120415,-0.6975032687187195,-0.7079724669456482,0,0,0,-1,-1,3484.093974791667,walking,2,2022-05-12T10:44:30.104+02:00,2022-05-11T22:15:20.957+02:00,1143,0.8977532,0.7616392,1.735548,854.7967,0,0,2022-05-12T10:44:30.104+02:00,674037870.1039381,0,-3.650002,100.9505,1,0.93
2022-05-12T10:44:31.029+02:00,1652345068.587041,53.22874370913438,10.39838658983421,39.70283,-1,-1,-1,-1,24.90268135070801,40.57044570437055,-9999,3485.018512875,0.1366424560546875,-0.694915771484375,-0.6635284423828125,3485.013514875,-0.1617225108316493,0.1579772804260251,0.7679910603323573,-0.3417798280715942,0.03328890725970268,-0.2974298596382141,0.04476603865623474,0.003667175769805908,0.05985283851623535,XArbitraryZVertical,0.3781489579283931,0.04275558931779793,-0.0451933637007455,0.9236520672364769,0.1131622269749641,-0.6946915984153748,-0.7103506326675415,0,0,0,-1,-1,3484.093974791667,walking,2,2022-05-12T10:44:30.104+02:00,2022-05-11T22:15:20.957+02:00,1143,0.8977532,0.7616392,1.735548,854.7967,0,0,2022-05-12T10:44:30.104+02:00,674037870.1039381,0,-3.650002,100.9505,1,0.93
2022-05-12T10:44:31.039+02:00,1652345068.587041,53.22874370913438,10.39838658983421,39.70283,-1,-1,-1,-1,24.90268135070801,40.57044570437055,-9999,3485.028507875,0.1311187744140625,-0.6795806884765625,-0.68115234375,3485.023509875,-0.1648673040488919,0.1604417914823439,0.7642162748905863,-0.3286080956459045,0.02677667886018753,-0.2677102982997894,0.02131159603595734,-0.002943992614746094,0.04912436008453369,XArbitraryZVertical,0.3765384979579677,0.04349900994765674,-0.04637726712144774,0.9242164541604304,0.1153306514024734,-0.6919714212417603,-0.7126532196998596,0,0,0,-1,-1,3484.093974791667,walking,2,2022-05-12T10:44:30.104+02:00,2022-05-11T22:15:20.957+02:00,1143,0.8977532,0.7616392,1.735548,854.7967,0,0,2022-05-12T10:44:30.104+02:00,674037870.1039381,0,-3.650002,100.9505,1,0.93
2022-05-12T10:44:31.049+02:00,1652345068.587041,53.22874370913438,10.39838658983421,39.70283,-1,-1,-1,-1,24.90268135070801,40.57044570437055,-9999,3485.038502875,0.128387451171875,-0.692138671875,-0.6951446533203125,3485.033504875,-0.1676853014749626,0.1625111543405198,0.7605502919907747,-0.3356561362743378,-0.006170084234327078,-0.2569452822208405,0.01390378177165985,0.009739816188812256,0.03375875949859619,XArbitraryZVertical,0.3749633588862347,0.04412176994846163,-0.04748428465677868,0.9247708838261772,0.1172147914767265,-0.6893202066421509,-0.7149115204811096,0,0,0,-1,-1,3484.093974791667,walking,2,2022-05-12T10:44:30.104+02:00,2022-05-11T22:15:20.957+02:00,1143,0.8977532,0.7616392,1.735548,854.7967,0,0,2022-05-12T10:44:30.104+02:00,674037870.1039381,0,-3.650002,100.9505,1,0.93
2022-05-12T10:44:31.059+02:00,1652345068.587041,53.22874370913438,10.39838658983421,39.70283,-1,-1,-1,-1,24.90268135070801,40.57044570437055,-9999,3485.048497875,0.12689208984375,-0.6843719482421875,-0.7027435302734375,3485.043499875,-0.170303361594517,0.1643338772395094,0.7569632539548515,-0.3123352229595184,-0.003745476016774774,-0.2388981580734253,0.009465813636779785,-0.005421221256256104,0.02198636531829834,XArbitraryZVertical,0.373415283539997,0.04466914986489425,-0.04854553738012957,0.9253157747961341,0.1189214289188385,-0.68671715259552,-0.7171313762664795,0,0,0,-1,-1,3484.093974791667,walking,2,2022-05-12T10:44:30.104+02:00,2022-05-11T22:15:20.957+02:00,1143,0.8977532,0.7616392,1.735548,854.7967,0,0,2022-05-12T10:44:30.104+02:00,674037870.1039381,0,-3.650002,100.9505,1,0.93
2022-05-12T10:44:31.073+02:00,1652345068.587041,53.22874370913438,10.39838658983421,39.70283,-1,-1,-1,-1,24.90268135070801,40.57044570437055,-9999,3485.058492875,0.10986328125,-0.6731109619140625,-0.712310791015625,3485.053495875,-0.172723950932752,0.1658800416956171,0.7535235334749643,-0.3046432137489319,-0.01964534632861614,-0.223246768116951,0.006472468376159668,-0.0001589655876159668,0.01652818918228149,XArbitraryZVertical,0.371924641298908,0.04512221906688719,-0.04956312681993064,0.9258400407025895,0.1204194128513336,-0.6842126250267029,-0.7192720770835876,0,0,0,-1,-1,3484.093974791667,walking,2,2022-05-12T10:44:30.104+02:00,2022-05-11T22:15:20.957+02:00,1143,0.8977532,0.7616392,1.735548,854.7967,0,0,2022-05-12T10:44:30.104+02:00,674037870.1039381,0,-3.650002,100.9505,1,0.93
2022-05-12T10:44:31.087+02:00,1652345068.587041,53.22874370913438,10.39838658983421,39.70283,-1,-1,-1,-1,24.90268135070801,40.57044570437055,-9999,3485.068487875,0.1039581298828125,-0.6836395263671875,-0.71649169921875,3485.063490875,-0.1750562661730556,0.1672191334343107,0.7501484300996693,-0.3041287958621979,-0.03235388547182083,-0.22281514108181,-0.0119030624628067,0.008636713027954102,0.009071946144104004,XArbitraryZVertical,0.3704571290222221,0.04549658876991591,-0.05057825793922136,0.9263550081783646,0.12176613509655,-0.6817473769187927,-0.7213831543922424,0,0,0,-1,-1,3484.093974791667,walking,2,2022-05-12T10:44:30.104+02:00,2022-05-11T22:15:20.957+02:00,1143,0.8977532,0.7616392,1.735548,854.7967,0,0,2022-05-12T10:44:30.104+02:00,674037870.1039381,0,-3.650002,100.9505,1,0.93
2022-05-12T10:44:31.089+02:00,1652345068.587041,53.22874370913438,10.39838658983421,39.70283,-1,-1,-1,-1,24.90268135070801,40.57044570437055,-9999,3485.078482875,0.0989532470703125,-0.693267822265625,-0.7106475830078125,3485.073485875,-0.1774382282117004,0.1684769969692636,0.7467362396547058,-0.3103430271148682,-0.03789006546139717,-0.23518206179142,-0.01910487562417984,-0.004392087459564209,0.007026433944702148,XArbitraryZVertical,0.3689720053066114,0.04583038556925237,-0.05163660602897617,0.9268726596984068,0.123062789440155,-0.6792470812797546,-0.7235184907913208,0,0,0,-1,-1,3484.093974791667,walking,2,2022-05-12T10:44:30.104+02:00,2022-05-11T22:15:20.957+02:00,1143,0.8977532,0.7616392,1.735548,854.7967,0,0,2022-05-12T10:44:30.104+02:00,674037870.1039381,0,-3.650002,100.9505,1,0.93
2022-05-12T10:44:31.099+02:00,1652345068.587041,53.22874370913438,10.39838658983421,39.70283,-1,-1,-1,-1,24.90268135070801,40.57044570437055,-9999,3485.088478875,0.1075286865234375,-0.694915771484375,-0.7126922607421875,3485.083480875,-0.1800019485018892,0.1698772773841961,0.7432233873431893,-0.3155247569084167,-0.03550580143928528,-0.2602255642414093,-0.02552539855241776,-0.01660275459289551,0.01504480838775635,XArbitraryZVertical,0.3674487030006044,0.04620678314149715,-0.0527617744420869,0.9273956784809264,0.1244784295558929,-0.6766647696495056,-0.7256927490234375,0,0,0,-1,-1,3484.093974791667,walking,2,2022-05-12T10:44:30.104+02:00,2022-05-11T22:15:20.957+02:00,1143,0.8977532,0.7616392,1.735548,854.7967,0,0,2022-05-12T10:44:30.104+02:00,674037870.1039381,0,-3.650002,100.9505,1,0.93
2022-05-12T10:44:31.109+02:00,1652345068.587041,53.22874370913438,10.39838658983421,39.70283,-1,-1,-1,-1,24.90268135070801,40.57044570437055,-9999,3485.098473875,0.1279754638671875,-0.50030517578125,-0.6950531005859375,3485.093475875,-0.1830556763373926,0.1712162051862793,0.7406163085063074,0.01552613358944654,-0.1808068007230759,-0.2634802162647247,-0.0182216465473175,-0.02017247676849365,0.01456868648529053,XArbitraryZVertical,0.3663533692169958,0.0464173452769167,-0.05407813964111566,0.9277425737975533,0.1257501095533371,-0.6747429370880127,-0.7272613048553467,0,0,0,-1,-1,3484.093974791667,walking,2,2022-05-12T10:44:30.104+02:00,2022-05-11T22:15:20.957+02:00,1143,0.8977532,0.7616392,1.735548,854.7967,0,0,2022-05-12T10:44:30.104+02:00,674037870.1039381,0,-3.650002,100.9505,1,0.93
2022-05-12T10:44:31.119+02:00,1652345068.587041,53.22874370913438,10.39838658983421,39.70283,-1,-1,-1,-1,24.90268135070801,40.57044570437055,-9999,3485.108468875,0.0973663330078125,-0.763580322265625,-0.72705078125,3485.103470875,-0.1865923803149186,0.1720975873721493,0.7394226808808246,-0.05303961411118507,-0.117139145731926,-0.304178923368454,0.001446351408958435,0.1735566854476929,0.03288966417312622,XArbitraryZVertical,0.3659092027090111,0.04624834295208957,-0.0556247831912214,0.9278347884353154,0.1265288889408112,-0.6738614439964294,-0.7279430627822876,0,0,0,-1,-1,3484.093974791667,walking,2,2022-05-12T10:44:30.104+02:00,2022-05-11T22:15:20.957+02:00,1143,0.8977532,0.7616392,1.735548,854.7967,0,0,2022-05-12T10:44:30.104+02:00,674037870.1039381,0,-3.650002,100.9505,1,0.93
2022-05-12T10:44:31.129+02:00,1652345068.587041,53.22874370913438,10.39838658983421,39.70283,-1,-1,-1,-1,24.90268135070801,40.57044570437055,-9999,3485.118463875,0.127899169921875,-0.66741943359375,-0.7138824462890625,3485.113465875,-0.1902045195006351,0.1735429997827669,0.7384877520821295,-0.0677943229675293,-0.09734547138214111,-0.2588428556919098,-0.03032355010509491,-0.09040963649749756,0.001328587532043457,XArbitraryZVertical,0.3656024745312294,0.04631368219753581,-0.05708948428854262,0.9278635802936082,0.1276896744966507,-0.6731703877449036,-0.7283797264099121,0,0,0,-1,-1,3484.093974791667,walking,2,2022-05-12T10:44:30.104+02:00,2022-05-11T22:15:20.957+02:00,1143,0.8977532,0.7616392,1.735548,854.7967,0,0,2022-05-12T10:44:30.104+02:00,674037870.1039381,0,-3.650002,100.9505,1,0.93
2022-05-12T10:44:31.139+02:00,1652345068.587041,53.22874370913438,10.39838658983421,39.70283,-1,-1,-1,-1,24.90268135070801,40.57044570437055,-9999,3485.128458875,0.1258697509765625,-0.6698150634765625,-0.7391815185546875,3485.123461875,-0.1936922149886327,0.1748044759690085,0.7373311094609759,-0.0562574714422226,-0.1250201612710953,-0.2927649021148682,-0.0008447766304016113,0.004895567893981934,0.01510143280029297,XArbitraryZVertical,0.365186612264826,0.04633129953860426,-0.05854374154112478,0.9279357638533253,0.1287437230348587,-0.6723146438598633,-0.7289842963218689,0,0,0,-1,-1,3484.093974791667,walking,2,2022-05-12T10:44:30.104+02:00,2022-05-11T22:15:20.957+02:00,1143,0.8977532,0.7616392,1.735548,854.7967,0,0,2022-05-12T10:44:30.104+02:00,674037870.1039381,0,-3.650002,100.9505,1,0.93
2022-05-12T10:44:31.149+02:00,1652345068.587041,53.22874370913438,10.39838658983421,39.70283,-1,-1,-1,-1,24.90268135070801,40.57044570437055,-9999,3485.138453875,0.1109466552734375,-0.71173095703125,-0.7655792236328125,3485.133456875,-0.197607236680576,0.1761016898599373,0.736548926772664,-0.001776124816387892,-0.136429950594902,-0.3049739003181458,-0.003911823034286499,0.001920640468597412,-0.009847640991210938,XArbitraryZVertical,0.3649552299506221,0.04626631266634639,-0.06016890739685569,0.9279261175708071,0.1297813504934311,-0.671735405921936,-0.7293342351913452,0,0,0,-1,-1,3484.093974791667,walking,2,2022-05-12T10:44:30.104+02:00,2022-05-11T22:15:20.957+02:00,1143,0.8977532,0.7616392,1.735548,854.7967,0,0,2022-05-12T10:44:30.104+02:00,674037870.1039381,0,-3.650002,100.9505,1,0.93
2022-05-12T10:44:31.159+02:00,1652345068.587041,53.22874370913438,10.39838658983421,39.70283,-1,-1,-1,-1,24.90268135070801,40.57044570437055,-9999,3485.148448875,0.1004486083984375,-0.718994140625,-0.783416748046875,3485.143451875,-0.2015246008000661,0.1773890968641349,0.7360103170414096,-0.00992080383002758,-0.129815861582756,-0.291463315486908,-0.01983760297298431,-0.0403943657875061,-0.0360569953918457,XArbitraryZVertical,0.3648367992679437,0.04618233536522603,-0.06178316380603713,0.927870873298455,0.1307840347290039,-0.67133629322052,-0.7295225858688354,0,0,0,-1,-1,3484.093974791667,walking,2,2022-05-12T10:44:30.104+02:00,2022-05-11T22:15:20.957+02:00,1143,0.8977532,0.7616392,1.735548,854.7967,0,0,2022-05-12T10:44:30.104+02:00,674037870.1039381,0,-3.650002,100.9505,1,0.93
2022-05-12T10:44:31.169+02:00,1652345068.587041,53.22874370913438,10.39838658983421,39.70283,-1,-1,-1,-1,24.90268135070801,40.57044570437055,-9999,3485.158444875,0.1000213623046875,-0.7319183349609375,-0.7967681884765625,3485.153446875,-0.2052772365696911,0.1787460583877319,0.7353508609367569,-0.02213938720524311,-0.107316680252552,-0.2773445546627045,-0.03140413761138916,-0.04814642667770386,-0.05363714694976807,XArbitraryZVertical,0.3646620987652383,0.04616908032569553,-0.06331584292435112,0.9278368447898495,0.1318525224924088,-0.6708474159240723,-0.7297799587249756,0,0,0,-1,-1,3484.093974791667,walking,2,2022-05-12T10:44:30.104+02:00,2022-05-11T22:15:20.957+02:00,1143,0.8977532,0.7616392,1.735548,854.7967,0,0,2022-05-12T10:44:30.104+02:00,674037870.1039381,0,-3.650002,100.9505,1,0.93
2022-05-12T10:44:31.179+02:00,1652345068.587041,53.22874370913438,10.39838658983421,39.70283,-1,-1,-1,-1,24.90268135070801,40.57044570437055,-9999,3485.168439875,0.1077880859375,-0.7322235107421875,-0.7962646484375,3485.163441875,-0.2088910526753917,0.1801942089896214,0.7345688189055145,-0.03095711208879948,-0.08988229185342789,-0.2756054997444153,-0.03298206627368927,-0.06165075302124023,-0.06666439771652222,XArbitraryZVertical,0.3644317838499829,0.04623228079539918,-0.06477537511385337,0.9278233767543446,0.1330031901597977,-0.6702672243118286,-0.7301040887832642,0,0,0,-1,-1,3484.093974791667,walking,2,2022-05-12T10:44:30.104+02:00,2022-05-11T22:15:20.957+02:00,1143,0.8977532,0.7616392,1.735548,854.7967,0,0,2022-05-12T10:44:30.104+02:00,674037870.1039381,0,-3.650002,100.9505,1,0.93
2022-05-12T10:44:31.189+02:00,1652345068.587041,53.22874370913438,10.39838658983421,39.70283,-1,-1,-1,-1,24.90268135070801,40.57044570437055,-9999,3485.178434875,0.1049346923828125,-0.7378997802734375,-0.782928466796875,3485.173436875,-0.2124580628068301,0.1817952940787677,0.7337093146673243,-0.04839762300252914,-0.07110594213008881,-0.2759088575839996,-0.02648822963237762,-0.06259411573410034,-0.06580841541290283,XArbitraryZVertical,0.3641709774936508,0.04638117283415715,-0.06619071011873519,0.9278184899013104,0.1342760920524597,-0.6696291565895081,-0.7304565906524658,0,0,0,-1,-1,3484.093974791667,walking,2,2022-05-12T10:44:30.104+02:00,2022-05-11T22:15:20.957+02:00,1143,0.8977532,0.7616392,1.735548,854.7967,0,0,2022-05-12T10:44:30.104+02:00,674037870.1039381,0,-3.650002,100.9505,1,0.93
2022-05-12T10:44:31.199+02:00,1652345068.587041,53.22874370913438,10.39838658983421,39.70283,-1,-1,-1,-1,24.90268135070801,40.57044570437055,-9999,3485.188429875,0.107452392578125,-0.741424560546875,-0.7678375244140625,3485.183432875,-0.2160746302595664,0.1835617185116539,0.7326550985180512,-0.0620095357298851,-0.0562765933573246,-0.290102481842041,-0.0307604968547821,-0.06905364990234375,-0.05201691389083862,XArbitraryZVertical,0.3638287476859653,0.04661196190643459,-0.06761174377681048,0.9278387564367058,0.1356949657201767,-0.6688457727432251,-0.730911910533905,0,0,0,-1,-1,3484.093974791667,walking,2,2022-05-12T10:44:30.104+02:00,2022-05-11T22:15:20.957+02:00,1143,0.8977532,0.7616392,1.735548,854.7967,0,0,2022-05-12T10:44:30.104+02:00,674037870.1039381,0,-3.650002,100.9505,1,0.93
2022-05-12T10:44:31.210+02:00,1652345068.587041,53.22874370913438,10.39838658983421,39.70283,-1,-1,-1,-1,24.90268135070801,40.57044570437055,-9999,3485.198424875,0.1118621826171875,-0.7203216552734375,-0.7518768310546875,3485.193427875,-0.2198698642908706,0.1855432988885969,0.7314657402375444,-0.06814918667078018,-0.05654264613986015,-0.3126520216464996,-0.02983754873275757,-0.0734630823135376,-0.0364149808883667,XArbitraryZVertical,0.3634376983400987,0.04692087194636274,-0.06908608599356866,0.9278678467278275,0.1372897177934647,-0.6679611206054688,-0.7314229607582092,0,0,0,-1,-1,3484.093974791667,walking,2,2022-05-12T10:44:30.104+02:00,2022-05-11T22:15:20.957+02:00,1143,0.8977532,0.7616392,1.735548,854.7967,0,0,2022-05-12T10:44:30.104+02:00,674037870.1039381,0,-3.650002,100.9505,1,0.93
2022-05-12T10:44:31.219+02:00,1652345068.587041,53.22874370913438,10.39838658983421,39.70283,-1,-1,-1,-1,24.90268135070801,40.57044570437055,-9999,3485.208419875,0.117095947265625,-0.712158203125,-0.7411956787109375,3485.203422875,-0.2240229630957945,0.1877674542576877,0.7302612377405617,-0.04741594567894936,-0.05484168231487274,-0.3432956635951996,-0.02720430493354797,-0.05325698852539062,-0.01997154951095581,XArbitraryZVertical,0.3630588956076697,0.04728038682033451,-0.07068472710180985,0.9278773920068891,0.1390662491321564,-0.6670643091201782,-0.7319055795669556,0,0,0,-1,-1,3484.093974791667,walking,2,2022-05-12T10:44:30.104+02:00,2022-05-11T22:15:20.957+02:00,1143,0.8977532,0.7616392,1.735548,854.7967,0,0,2022-05-12T10:44:30.104+02:00,674037870.1039381,0,-3.650002,100.9505,1,0.93
2022-05-12T10:44:31.230+02:00,1652345068.587041,53.22874370913438,10.39838658983421,39.70283,-1,-1,-1,-1,24.90268135070801,40.57044570437055,-9999,3485.218415875,0.1335296630859375,-0.7007293701171875,-0.7288818359375,3485.213417875,-0.2285596106152317,0.1902879640602409,0.7293060753548909,-0.01317595131695271,-0.04715633392333984,-0.3531770706176758,-0.02393531799316406,-0.04580545425415039,-0.009017884731292725,XArbitraryZVertical,0.3628172707561376,0.04769257940468278,-0.07239298405525671,0.9278191119194109,0.14103102684021,-0.666352391242981,-0.7321780920028687,0,0,0,-1,-1,3484.093974791667,walking,2,2022-05-12T10:44:30.104+02:00,2022-05-11T22:15:20.957+02:00,1143,0.8977532,0.7616392,1.735548,854.7967,0,0,2022-05-12T10:44:30.104+02:00,674037870.1039381,0,-3.650002,100.9505,1,0.93
2022-05-12T10:44:31.240+02:00,1652345068.587041,53.22874370913438,10.39838658983421,39.70283,-1,-1,-1,-1,24.90268135070801,40.57044570437055,-9999,3485.228410875,0.151947021484375,-0.7142181396484375,-0.7234344482421875,3485.223412875,-0.2333004475453978,0.1929575558092403,0.7285459321996105,-0.005262035876512527,-0.05154562368988991,-0.3736752867698669,-0.009552821516990662,-0.03494364023208618,0.003413736820220947,XArbitraryZVertical,0.3626789995348126,0.04812469179060504,-0.07415726402701811,0.9277115412109375,0.1430822312831879,-0.6657853722572327,-0.7322959303855896,0,0,0,-1,-1,3484.093974791667,walking,2,2022-05-12T10:44:30.104+02:00,2022-05-11T22:15:20.957+02:00,1143,0.8977532,0.7616392,1.735548,854.7967,0,0,2022-05-12T10:44:30.104+02:00,674037870.1039381,0,-3.650002,100.9505,1,0.93
2022-05-12T10:44:31.250+02:00,1652345068.587041,53.22874370913438,10.39838658983421,39.70283,-1,-1,-1,-1,24.90268135070801,40.57044570437055,-9999,3485.238405875,0.1448974609375,-0.7524871826171875,-0.7086639404296875,3485.233407875,-0.2383419697803059,0.1956994539450336,0.7276965801354516,-0.03110508620738983,-0.07648240029811859,-0.4022432565689087,0.006747305393218994,-0.04906642436981201,0.009020447731018066,XArbitraryZVertical,0.3625132809551527,0.04854347760191685,-0.0760544997456898,0.9276009363295479,0.1451994776725769,-0.6651514172554016,-0.732455313205719,0,0,0,-1,-1,3484.093974791667,walking,2,2022-05-12T10:44:30.104+02:00,2022-05-11T22:15:20.957+02:00,1143,0.8977532,0.7616392,1.735548,854.7967,0,0,2022-05-12T10:44:30.104+02:00,674037870.1039381,0,-3.650002,100.9505,1,0.93
2022-05-12T10:44:31.259+02:00,1652345068.587041,53.22874370913438,10.39838658983421,39.70283,-1,-1,-1,-1,24.90268135070801,40.57044570437055,-9999,3485.248400875,0.14337158203125,-0.8228759765625,-0.7465362548828125,3485.243402875,-0.2438953675082503,0.1985625162614853,0.7257852282832009,-0.1462190449237823,-0.05824859812855721,-0.4393050968647003,-0.002649247646331787,-0.08876389265060425,0.02461731433868408,XArbitraryZVertical,0.3618806772902343,0.04900578086052673,-0.07823964930709582,0.9276419182206102,0.1475464701652527,-0.6637229919433594,-0.7332816123962402,0,0,0,-1,-1,3484.093974791667,walking,2,2022-05-12T10:44:30.104+02:00,2022-05-11T22:15:20.957+02:00,1143,0.8977532,0.7616392,1.735548,854.7967,0,0,2022-05-12T10:44:30.104+02:00,674037870.1039381,0,-3.650002,100.9505,1,0.93
2022-05-12T10:44:31.270+02:00,1652345068.587041,53.22874370913438,10.39838658983421,39.70283,-1,-1,-1,-1,24.90268135070801,40.57044570437055,-9999,3485.258394666667,0.1566314697265625,-0.7689056396484375,-0.75482177734375,3485.253397666667,-0.2489830306571973,0.2014933942281026,0.7232851577790558,-0.2158439308404922,-0.03781869262456894,-0.4335688948631287,-0.006655260920524597,-0.1610247492790222,-0.01206713914871216,XArbitraryZVertical,0.3609734679346762,0.04963273028666861,-0.08023996031027393,0.9277911341997814,0.1500266045331955,-0.6618509292602539,-0.734469473361969,0,0,0,-1,-1,3484.093974791667,walking,2,2022-05-12T10:44:30.104+02:00,2022-05-11T22:15:20.957+02:00,1143,0.8977532,0.7616392,1.735548,854.7967,0,0,2022-05-12T10:44:30.104+02:00,674037870.1039381,0,-3.650002,100.9505,1,0.93
2022-05-12T10:44:31.279+02:00,1652345068.587041,53.22874370913438,10.39838658983421,39.70283,-1,-1,-1,-1,24.90268135070801,40.57044570437055,-9999,3485.268389666667,0.1351776123046875,-0.7363739013671875,-0.7765655517578125,3485.263392666667,-0.2540641332853057,0.2043539780120225,0.7199380106604063,-0.2661058008670807,-0.0515158623456955,-0.4465768337249756,0.004055514931678772,-0.1095672845840454,-0.01861965656280518,XArbitraryZVertical,0.3596786776295503,0.05029928532916003,-0.08231312478471979,0.9280764901934544,0.1525757163763046,-0.6593380570411682,-0.7362024784088135,0,0,0,-1,-1,3484.093974791667,walking,2,2022-05-12T10:44:30.104+02:00,2022-05-11T22:15:20.957+02:00,1143,0.8977532,0.7616392,1.735548,854.7967,0,0,2022-05-12T10:44:30.104+02:00,674037870.1039381,0,-3.650002,100.9505,1,0.93
2022-05-12T10:44:31.289+02:00,1652345068.587041,53.22874370913438,10.39838658983421,39.70283,-1,-1,-1,-1,24.90268135070801,40.57044570437055,-9999,3485.278384666667,0.139984130859375,-0.70538330078125,-0.7815399169921875,3485.273387666667,-0.2592638256196154,0.2072903180883626,0.7165986268074556,-0.230226069688797,-0.04896002635359764,-0.4573959410190582,-0.02001170814037323,-0.07954990863800049,-0.03866410255432129,XArbitraryZVertical,0.3583983405415046,0.05098739923247563,-0.08443316909072035,0.9283437879854947,0.1551890820264816,-0.6568236947059631,-0.7379018068313599,0,0,0,-1,-1,3484.093974791667,walking,2,2022-05-12T10:44:30.104+02:00,2022-05-11T22:15:20.957+02:00,1143,0.8977532,0.7616392,1.735548,854.7967,0,0,2022-05-12T10:44:30.104+02:00,674037870.1039381,0,-3.650002,100.9505,1,0.93
2022-05-12T10:44:31.299+02:00,1652345068.587041,53.22874370913438,10.39838658983421,39.70283,-1,-1,-1,-1,24.90268135070801,40.57044570437055,-9999,3485.288380666667,0.1258392333984375,-0.6967010498046875,-0.7628936767578125,3485.283382666667,-0.2647249027701669,0.210292023121646,0.7135926935613889,-0.1878735572099686,-0.06764129549264908,-0.4762905240058899,-0.01783087849617004,-0.05082887411117554,-0.04218012094497681,XArbitraryZVertical,0.3572857622413255,0.05164099428214744,-0.08664503022779543,0.9285326500248253,0.1578147709369659,-0.6545541286468506,-0.7393602132797241,0,0,0,-1,-1,3484.093974791667,walking,2,2022-05-12T10:44:30.104+02:00,2022-05-11T22:15:20.957+02:00,1143,0.8977532,0.7616392,1.735548,854.7967,0,0,2022-05-12T10:44:30.104+02:00,674037870.1039381,0,-3.650002,100.9505,1,0.93
2022-05-12T10:44:31.309+02:00,1652345068.587041,53.22874370913438,10.39838658983421,39.70283,-1,-1,-1,-1,24.90268135070801,40.57044570437055,-9999,3485.298375666667,0.11285400390625,-0.717041015625,-0.7385101318359375,3485.293377666667,-0.2705041218552726,0.213316375489299,0.7108512927274007,-0.1687371432781219,-0.08206471055746078,-0.5024129748344421,-0.03459042310714722,-0.04422158002853394,-0.02226358652114868,XArbitraryZVertical,0.356309323547443,0.05223467381116796,-0.08898674298028905,0.9286530915036149,0.1604293882846832,-0.6524791121482849,-0.7406303882598877,0,0,0,-1,-1,3484.093974791667,walking,2,2022-05-12T10:44:30.104+02:00,2022-05-11T22:15:20.957+02:00,1143,0.8977532,0.7616392,1.735548,854.7967,0,0,2022-05-12T10:44:30.104+02:00,674037870.1039381,0,-3.650002,100.9505,1,0.93
2022-05-12T10:44:31.319+02:00,1652345068.587041,53.22874370913438,10.39838658983421,39.70283,-1,-1,-1,-1,24.90268135070801,40.57044570437055,-9999,3485.308370666667,0.097320556640625,-0.719696044921875,-0.71588134765625,3485.303372666667,-0.2767263895196577,0.2164867169825927,0.7080289716838463,-0.1889252066612244,-0.09431066364049911,-0.5410069823265076,-0.05031779408454895,-0.06670290231704712,0.003403186798095703,XArbitraryZVertical,0.3553195631109236,0.0528313553013134,-0.09151908719655677,0.9287525602772456,0.1631715595722198,-0.6503377556800842,-0.7419137358665466,0,0,0,-1,-1,3484.093974791667,walking,2,2022-05-12T10:44:30.104+02:00,2022-05-11T22:15:20.957+02:00,1143,0.8977532,0.7616392,1.735548,854.7967,0,0,2022-05-12T10:44:30.104+02:00,674037870.1039381,0,-3.650002,100.9505,1,0.93
2022-05-12T10:44:31.329+02:00,1652345068.587041,53.22874370913438,10.39838658983421,39.70283,-1,-1,-1,-1,24.90268135070801,40.57044570437055,-9999,3485.318365666667,0.0773773193359375,-0.7286834716796875,-0.699920654296875,3485.313367666667,-0.2833038030635301,0.219819686017871,0.7047864057004093,-0.2331371456384659,-0.09826093167066574,-0.5766129493713379,-0.06878206133842468,-0.07182455062866211,0.02753818035125732,XArbitraryZVertical,0.3541603144719916,0.05348406159905481,-0.09422431321704748,0.9288874415443678,0.1661023646593094,-0.6478711366653442,-0.7434198260307312,0,0,0,-1,-1,3484.093974791667,walking,2,2022-05-12T10:44:30.104+02:00,2022-05-11T22:15:20.957+02:00,1143,0.8977532,0.7616392,1.735548,854.7967,0,0,2022-05-12T10:44:30.104+02:00,674037870.1039381,0,-3.650002,100.9505,1,0.93
2022-05-12T10:44:31.339+02:00,1652345068.587041,53.22874370913438,10.39838658983421,39.70283,-1,-1,-1,-1,24.90268135070801,40.57044570437055,-9999,3485.328360666667,0.055694580078125,-0.7391510009765625,-0.6902313232421875,3485.323363666667,-0.2901668674168941,0.2233279405498678,0.7008135745714195,-0.3154334127902985,-0.0899735689163208,-0.620361328125,-0.09190110862255096,-0.0838434100151062,0.04541563987731934,XArbitraryZVertical,0.3526891502711978,0.05424051504672975,-0.09709342607910834,0.9291078623927099,0.1692781746387482,-0.6448397040367126,-0.745336651802063,0,0,0,-1,-1,3484.093974791667,walking,2,2022-05-12T10:44:30.104+02:00,2022-05-11T22:15:20.957+02:00,1143,0.8977532,0.7616392,1.735548,854.7967,0,0,2022-05-12T10:44:30.104+02:00,674037870.1039381,0,-3.650002,100.9505,1,0.93
2022-05-12T10:44:31.350+02:00,1652345068.587041,53.22874370913438,10.39838658983421,39.70283,-1,-1,-1,-1,24.90268135070801,40.57044570437055,-9999,3485.338355666667,0.027313232421875,-0.753021240234375,-0.6798095703125,3485.333358666667,-0.297237382934247,0.2270799909585606,0.6958662070917292,-0.4129557311534882,-0.07176047563552856,-0.6580716967582703,-0.1170953065156937,-0.09810018539428711,0.05756378173828125,XArbitraryZVertical,0.3507966333020133,0.05517239674421956,-0.1001002131162873,0.9294502401182206,0.1727896332740784,-0.6410505175590515,-0.7477954626083374,0,0,0,-1,-1,3484.093974791667,walking,2,2022-05-12T10:44:30.104+02:00,2022-05-11T22:15:20.957+02:00,1143,0.8977532,0.7616392,1.735548,854.7967,0,0,2022-05-12T10:44:30.104+02:00,674037870.1039381,0,-3.650002,100.9505,1,0.93
2022-05-12T10:44:31.360+02:00,1652345068.587041,53.22874370913438,10.39838658983421,39.70283,-1,-1,-1,-1,24.90268135070801,40.57044570437055,-9999,3485.348351666667,-0.003082275390625,-0.773651123046875,-0.6750030517578125,3485.343353666667,-0.3045735681395846,0.2311598214896887,0.6897831608937844,-0.522529125213623,-0.04771113395690918,-0.72040855884552,-0.1494162380695343,-0.1166509985923767,0.07105636596679688,XArbitraryZVertical,0.3484162426631928,0.05632920550321661,-0.1032743345022619,0.9299288810871619,0.176729217171669,-0.6363699436187744,-0.7508662939071655,0,0,0,-1,-1,3484.093974791667,walking,2,2022-05-12T10:44:30.104+02:00,2022-05-11T22:15:20.957+02:00,1143,0.8977532,0.7616392,1.735548,854.7967,0,0,2022-05-12T10:44:30.104+02:00,674037870.1039381,0,-3.650002,100.9505,1,0.93
2022-05-12T10:44:31.369+02:00,1652345068.587041,53.22874370913438,10.39838658983421,39.70283,-1,-1,-1,-1,24.90268135070801,40.57044570437055,-9999,3485.358346666667,-0.0384979248046875,-0.796051025390625,-0.672210693359375,3485.353348666667,-0.312251131770204,0.2356127952454892,0.6823095327316472,-0.666222870349884,-0.0327814519405365,-0.7844207882881165,-0.1842587739229202,-0.1430636644363403,0.07967203855514526,XArbitraryZVertical,0.3454376782809824,0.05775006332490742,-0.1066695302038935,0.9305694771672035,0.1811762452125549,-0.6305871605873108,-0.7546755075454712,0,0,0,-1,-1,3484.093974791667,walking,2,2022-05-12T10:44:30.104+02:00,2022-05-11T22:15:20.957+02:00,1143,0.8977532,0.7616392,1.735548,854.7967,0,0,2022-05-12T10:44:30.104+02:00,674037870.1039381,0,-3.650002,100.9505,1,0.93
2022-05-12T10:44:31.380+02:00,1652345068.587041,53.22874370913438,10.39838658983421,39.70283,-1,-1,-1,-1,24.90268135070801,40.57044570437055,-9999,3485.368341666667,-0.06787109375,-0.8145599365234375,-0.6886749267578125,3485.363343666667,-0.3202070432644196,0.2405450694042779,0.6729884416395971,-0.8592700958251953,0.02381018362939358,-0.859836220741272,-0.2247866988182068,-0.1727250814437866,0.08723735809326172,XArbitraryZVertical,0.3416574450318702,0.05954831093555261,-0.1102834657675177,0.9314300235320097,0.1862885057926178,-0.6233255863189697,-0.7594483494758606,0,0,0,-1,-1,3484.093974791667,walking,2,2022-05-12T10:44:30.104+02:00,2022-05-11T22:15:20.957+02:00,1143,0.8977532,0.7616392,1.735548,854.7967,0,0,2022-05-12T10:44:30.104+02:00,674037870.1039381,0,-3.650002,100.9505,1,0.93
2022-05-12T10:44:31.390+02:00,1652345068.587041,53.22874370913438,10.39838658983421,39.70283,-1,-1,-1,-1,24.90268135070801,40.57044570437055,-9999,3485.378336666667,-0.0658111572265625,-0.8057098388671875,-0.71728515625,3485.373338666667,-0.3283086180086879,0.2462612590002066,0.6614592809124202,-1.073604822158813,0.1132391393184662,-0.9321133494377136,-0.2602371573448181,-0.2002905607223511,0.07661491632461548,XArbitraryZVertical,0.3369254791263689,0.06193650330166339,-0.1140440554492118,0.9325444917307845,0.1923657804727554,-0.6142690181732178,-0.7652902007102966,0,0,0,-1,-1,3484.093974791667,walking,2,2022-05-12T10:44:30.104+02:00,2022-05-11T22:15:20.957+02:00,1143,0.8977532,0.7616392,1.735548,854.7967,0,0,2022-05-12T10:44:30.104+02:00,674037870.1039381,0,-3.650002,100.9505,1,0.93
2022-05-12T10:44:31.399+02:00,1652345068.587041,53.22874370913438,10.39838658983421,39.70283,-1,-1,-1,-1,24.90268135070801,40.57044570437055,-9999,3485.388331666667,-0.05181884765625,-0.77154541015625,-0.732574462890625,3485.383334666667,-0.3365773668913428,0.2526345481245995,0.6477944925889768,-1.237465500831604,0.1487867385149002,-1.02344822883606,-0.2651302814483643,-0.2022803425788879,0.05481898784637451,XArbitraryZVertical,0.3312715852054633,0.06486067340239893,-0.1179920255456631,0.9338791472741493,0.1993188709020615,-0.6034291386604309,-0.7721044421195984,0,0,0,-1,-1,3484.093974791667,walking,2,2022-05-12T10:44:30.104+02:00,2022-05-11T22:15:20.957+02:00,1143,0.8977532,0.7616392,1.735548,854.7967,0,0,2022-05-12T10:44:30.104+02:00,674037870.1039381,0,-3.650002,100.9505,1,0.93
2022-05-12T10:44:31.409+02:00,1652345068.587041,53.22874370913438,10.39838658983421,39.70283,-1,-1,-1,-1,24.90268135070801,40.57044570437055,-9999,3485.398326666667,-0.05902099609375,-0.7234649658203125,-0.743865966796875,3485.393329666667,-0.3454029734262944,0.2595571361642005,0.6327060439983198,-1.314236879348755,0.1865698099136353,-1.1128751039505,-0.2587915360927582,-0.1802158951759338,0.04684317111968994,XArbitraryZVertical,0.325032954057756,0.06815130507409921,-0.1222810282482983,0.935284210321383,0.2069724053144455,-0.5913291573524475,-0.7794179320335388,0,0,0,-1,-1,3484.093974791667,walking,2,2022-05-12T10:44:30.104+02:00,2022-05-11T22:15:20.957+02:00,1143,0.8977532,0.7616392,1.735548,854.7967,0,0,2022-05-12T10:44:30.104+02:00,674037870.1039381,0,-3.650002,100.9505,1,0.93
2022-05-12T10:44:31.419+02:00,1652345068.587041,53.22874370913438,10.39838658983421,39.70283,-1,-1,-1,-1,24.90268135070801,40.57044570437055,-9999,3485.408321666667,-0.0665435791015625,-0.6669921875,-0.7429046630859375,3485.403324666667,-0.3550552897441297,0.2677095581764619,0.6170400225393727,-1.285215377807617,0.303320050239563,-1.214532613754272,-0.2747650742530823,-0.1448410749435425,0.04267644882202148,XArbitraryZVertical,0.3186579530096515,0.07201206421207344,-0.1268666361053403,0.9365769908818178,0.2157438099384308,-0.5786235332489014,-0.7865427136421204,0,0,0,-1,-1,3484.093974791667,walking,2,2022-05-12T10:44:30.104+02:00,2022-05-11T22:15:20.957+02:00,1143,0.8977532,0.7616392,1.735548,854.7967,0,0,2022-05-12T10:44:30.104+02:00,674037870.1039381,0,-3.650002,100.9505,1,0.93
2022-05-12T10:44:31.430+02:00,1652345068.587041,53.22874370913438,10.39838658983421,39.70283,-1,-1,-1,-1,24.90268135070801,40.57044570437055,-9999,3485.418317666667,0.00445556640625,-0.57171630859375,-0.7390899658203125,3485.413319666667,-0.3660487900424466,0.2768983225572037,0.6021132557444191,-1.092896819114685,0.2686813771724701,-1.329664826393127,-0.2918420135974884,-0.1006064414978027,0.04984241724014282,XArbitraryZVertical,0.3127749172301971,0.07614565471350182,-0.1319154534503739,0.9375351112799323,0.225298136472702,-0.5663853287696838,-0.7927473783493042,0,0,0,-1,-1,3484.093974791667,walking,2,2022-05-12T10:44:30.104+02:00,2022-05-11T22:15:20.957+02:00,1143,0.8977532,0.7616392,1.735548,854.7967,0,0,2022-05-12T10:44:30.104+02:00,674037870.1039381,0,-3.650002,100.9505,1,0.93
2022-05-12T10:44:31.440+02:00,1652345068.587041,53.22874370913438,10.39838658983421,39.70283,-1,-1,-1,-1,24.90268135070801,40.57044570437055,-9999,3485.428312666667,-0.016082763671875,-0.57330322265625,-0.7426910400390625,3485.423314666667,-0.3786657713101121,0.2870204903323697,0.5887771193171283,-0.8968561291694641,0.3627097010612488,-1.422866463661194,-0.230973020195961,-0.01637148857116699,0.05850988626480103,XArbitraryZVertical,0.3077988219758558,0.08037284074814539,-0.1374998384143822,0.938026610017995,0.2354283034801483,-0.5553444623947144,-0.7976002097129822,0,0,0,-1,-1,3484.093974791667,walking,2,2022-05-12T10:44:30.104+02:00,2022-05-11T22:15:20.957+02:00,1143,0.8977532,0.7616392,1.735548,854.7967,0,0,2022-05-12T10:44:30.104+02:00,674037870.1039381,0,-3.650002,100.9505,1,0.93
2022-05-12T10:44:31.449+02:00,1652345068.587041,53.22874370913438,10.39838658983421,39.70283,-1,-1,-1,-1,24.90268135070801,40.57044570437055,-9999,3485.438307666667,-0.0135650634765625,-0.61419677734375,-0.7146759033203125,3485.433309666667,-0.3922189686165758,0.2992907028444032,0.576386084583254,-0.8262155055999756,0.517509400844574,-1.455406546592712,-0.263290137052536,-0.02830541133880615,0.05847430229187012,XArbitraryZVertical,0.3035091280902489,0.08543634655464252,-0.1431695195307791,0.9381286559066977,0.2472070753574371,-0.5449974536895752,-0.8011656999588013,0,0,0,-1,-1,3484.093974791667,walking,2,2022-05-12T10:44:30.104+02:00,2022-05-11T22:15:20.957+02:00,1143,0.8977532,0.7616392,1.735548,854.7967,0,0,2022-05-12T10:44:30.104+02:00,674037870.1039381,0,-3.650002,100.9505,1,0.93
2022-05-12T10:44:31.459+02:00,1652345068.587041,53.22874370913438,10.39838658983421,39.70283,-1,-1,-1,-1,24.90268135070801,40.57044570437055,-9999,3485.448302666667,0.0746917724609375,-0.602020263671875,-0.7262725830078125,3485.443305666667,-0.4062292434963767,0.3116360972423289,0.5639825577978598,-0.8587881922721863,0.4710894823074341,-1.544306755065918,-0.2726969122886658,-0.07964020967483521,0.08974933624267578,XArbitraryZVertical,0.2993147999133129,0.09054207135764501,-0.1491099019340051,0.9380719862006217,0.2591315507888794,-0.5345562100410461,-0.8044255971908569,0,0,0,-1,-1,3484.093974791667,walking,2,2022-05-12T10:44:30.104+02:00,2022-05-11T22:15:20.957+02:00,1143,0.8977532,0.7616392,1.735548,854.7967,0,0,2022-05-12T10:44:30.104+02:00,674037870.1039381,0,-3.650002,100.9505,1,0.93
