loggingTime(txt),locationTimestamp_since1970(s),locationLatitude(WGS84),locationLongitude(WGS84),locationAltitude(m),locationSpeed(m/s),locationSpeedAccuracy(m/s),locationCourse(°),locationCourseAccuracy(°),locationVerticalAccuracy(m),locationHorizontalAccuracy(m),locationFloor(Z),accelerometerTimestamp_sinceReboot(s),accelerometerAccelerationX(G),accelerometerAccelerationY(G),accelerometerAccelerationZ(G),motionTimestamp_sinceReboot(s),motionYaw(rad),motionRoll(rad),motionPitch(rad),motionRotationRateX(rad/s),motionRotationRateY(rad/s),motionRotationRateZ(rad/s),motionUserAccelerationX(G),motionUserAccelerationY(G),motionUserAccelerationZ(G),motionAttitudeReferenceFrame(txt),motionQuaternionX(R),motionQuaternionY(R),motionQuaternionZ(R),motionQuaternionW(R),motionGravityX(G),motionGravityY(G),motionGravityZ(G),motionMagneticFieldX(µT),motionMagneticFieldY(µT),motionMagneticFieldZ(µT),motionHeading(°),motionMagneticFieldCalibrationAccuracy(Z),activityTimestamp_sinceReboot(s),activity(txt),activityActivityConfidence(Z),activityActivityStartDate(txt),pedometerStartDate(txt),pedometerNumberofSteps(N),pedometerAverageActivePace(s/m),pedometerCurrentPace(s/m),pedometerCurrentCadence(steps/s),pedometerDistance(m),pedometerFloorAscended(N),pedometerFloorDescended(N),pedometerEndDate(txt),altimeterTimestamp_sinceReboot(s),altimeterReset(bool),altimeterRelativeAltitude(m),altimeterPressure(kPa),batteryState(N),batteryLevel(R)
2022-05-12T10:28:53.477+02:00,1652344131.999722,53.22900305041413,10.3984795231469,41.26553,0,0.07,176.484375,22.83087377253518,3,5,-9999,2650.534358375,0.0629730224609375,-0.569854736328125,-0.8202362060546875,2650.524363375,2.694006362677898,0.05849202114746449,0.5635572291397661,-0.04307712614536285,-0.1240828111767769,-0.08186087757349014,-0.01172901317477226,0.004167020320892334,0.01620179414749146,XArbitraryZVertical,-0.03429625335321086,-0.2772481248261111,-0.9380125106762118,-0.2051578624813634,0.04941863566637039,-0.5341967344284058,-0.8439145088195801,0,0,0,-1,-1,2630.896532875,walking,2,2022-05-12T10:28:33.798+02:00,2022-05-11T22:15:20.957+02:00,68,0.8826587,0,0,58.386,0,0,2022-05-12T10:28:46.589+02:00,674036931.7002666,0,0.1699982,100.9045,1,0.98
2022-05-12T10:28:53.481+02:00,1652344131.999722,53.22900305041413,10.3984795231469,41.26553,0,0.07,176.484375,22.83087377253518,3,5,-9999,2650.544353375,0.0761871337890625,-0.586944580078125,-0.8264923095703125,2650.534358375,2.69329630975927,0.05750208487962807,0.5629298999177532,-0.0672236755490303,-0.1513403952121735,-0.04424146190285683,0.002484403550624847,-0.02178460359573364,0.02255088090896606,XArbitraryZVertical,-0.03478954374468749,-0.2768410758805341,-0.9380055583534652,-0.2056559193274323,0.04860243946313858,-0.5336663126945496,-0.8442974090576172,0,0,0,-1,-1,2630.896532875,walking,2,2022-05-12T10:28:33.798+02:00,2022-05-11T22:15:20.957+02:00,68,0.8826587,0,0,58.386,0,0,2022-05-12T10:28:46.589+02:00,674036931.7002666,0,0.1699982,100.9045,1,0.98
2022-05-12T10:28:53.487+02:00,1652344131.999722,53.22900305041413,10.3984795231469,41.26553,0,0.07,176.484375,22.83087377253518,3,5,-9999,2650.554348375,0.071502685546875,-0.5731201171875,-0.8356781005859375,2650.544353375,2.693000801368473,0.05616211174521547,0.5621785515126447,-0.07456041872501373,-0.1517622470855713,-0.008807572536170483,0.02333816140890121,-0.04811596870422363,0.02438867092132568,XArbitraryZVertical,-0.03537578016464913,-0.2763468889342637,-0.938051052142465,-0.2060130536648569,0.04749355837702751,-0.5330307483673096,-0.8447619080543518,0,0,0,-1,-1,2630.896532875,walking,2,2022-05-12T10:28:33.798+02:00,2022-05-11T22:15:20.957+02:00,68,0.8826587,0,0,58.386,0,0,2022-05-12T10:28:46.589+02:00,674036931.7002666,0,0.1699982,100.9045,1,0.98
2022-05-12T10:28:53.489+02:00,1652344131.999722,53.22900305041413,10.3984795231469,41.26553,0,0.07,176.484375,22.83087377253518,3,5,-9999,2650.564344375,0.056182861328125,-0.5635986328125,-0.84869384765625,2650.554348375,2.693208487145885,0.05455585240347441,0.5612994314385393,-0.1023609936237335,-0.1682154536247253,0.03856760263442993,0.0272483304142952,-0.04977554082870483,0.01321268081665039,XArbitraryZVertical,-0.03600336325890003,-0.2757742342700878,-0.9381598974048518,-0.2061757996442038,0.04616212472319603,-0.5322867035865784,-0.8453046679496765,0,0,0,-1,-1,2630.896532875,walking,2,2022-05-12T10:28:33.798+02:00,2022-05-11T22:15:20.957+02:00,68,0.8826587,0,0,58.386,0,0,2022-05-12T10:28:46.589+02:00,674036931.7002666,0,0.1699982,100.9045,1,0.98
2022-05-12T10:28:53.491+02:00,1652344131.999722,53.22900305041413,10.3984795231469,41.26553,0,0.07,176.484375,22.83087377253518,3,5,-9999,2650.574339375,0.0476837158203125,-0.54864501953125,-0.8519134521484375,2650.564344375,2.693857886649414,0.05265387961514341,0.5601645698794709,-0.1208065822720528,-0.1495171338319778,0.06477870047092438,0.02310234308242798,-0.03749191761016846,0.004563271999359131,XArbitraryZVertical,-0.0366810054621346,-0.2750594246923505,-0.938342109365274,-0.2061822144026034,0.04458605870604515,-0.53132563829422,-0.8459936380386353,0,0,0,-1,-1,2630.896532875,walking,2,2022-05-12T10:28:33.798+02:00,2022-05-11T22:15:20.957+02:00,68,0.8826587,0,0,58.386,0,0,2022-05-12T10:28:46.589+02:00,674036931.7002666,0,0.1699982,100.9045,1,0.98
2022-05-12T10:28:53.494+02:00,1652344131.999722,53.22900305041413,10.3984795231469,41.26553,0,0.07,176.484375,22.83087377253518,3,5,-9999,2650.584334375,0.0532073974609375,-0.5474395751953125,-0.8577728271484375,2650.574339375,2.694857762780054,0.05081415760980695,0.55883069589301,-0.1271695643663406,-0.1147450953722,0.0883336216211319,0.00425238162279129,-0.02479797601699829,-0.004491031169891357,XArbitraryZVertical,-0.03726019542150082,-0.2742645619050139,-0.938586899137146,-0.2060226275080968,0.04306554794311523,-0.5301951169967651,-0.8467812538146973,0,0,0,-1,-1,2630.896532875,walking,2,2022-05-12T10:28:33.798+02:00,2022-05-11T22:15:20.957+02:00,68,0.8826587,0,0,58.386,0,0,2022-05-12T10:28:46.589+02:00,674036931.7002666,0,0.1699982,100.9045,1,0.98
2022-05-12T10:28:53.497+02:00,1652344131.999722,53.22900305041413,10.3984795231469,41.26553,0,0.07,176.484375,22.83087377253518,3,5,-9999,2650.594329375,0.039459228515625,-0.53631591796875,-0.8663177490234375,2650.584334375,2.695959303749616,0.04921681643866661,0.5576797181907851,-0.1119956746697426,-0.1005081012845039,0.09184979647397995,0.009343948215246201,-0.01960963010787964,-0.006591439247131348,XArbitraryZVertical,-0.0377328149421124,-0.2735823175588026,-0.9388218502533799,-0.205772933685359,0.04174289107322693,-0.5292189121246338,-0.8474578857421875,0,0,0,-1,-1,2630.896532875,walking,2,2022-05-12T10:28:33.798+02:00,2022-05-11T22:15:20.957+02:00,68,0.8826587,0,0,58.386,0,0,2022-05-12T10:28:46.589+02:00,674036931.7002666,0,0.1699982,100.9045,1,0.98
2022-05-12T10:28:53.506+02:00,1652344131.999722,53.22900305041413,10.3984795231469,41.26553,0,0.07,176.484375,22.83087377253518,3,5,-9999,2650.604324375,0.0279083251953125,-0.523651123046875,-0.87921142578125,2650.594329375,2.697028046420911,0.04777998515595269,0.5567762110648451,-0.08972365409135818,-0.08604208379983902,0.08640123903751373,0.007883802056312561,-0.01451712846755981,-0.01447796821594238,XArbitraryZVertical,-0.03816253584622813,-0.2730320062629567,-0.9390233623524837,-0.2055052853890633,0.04054801538586617,-0.5284520983695984,-0.8479942679405212,0,0,0,-1,-1,2630.896532875,walking,2,2022-05-12T10:28:33.798+02:00,2022-05-11T22:15:20.957+02:00,68,0.8826587,0,0,58.386,0,0,2022-05-12T10:28:46.589+02:00,674036931.7002666,0,0.1699982,100.9045,1,0.98
2022-05-12T10:28:53.516+02:00,1652344131.999722,53.22900305041413,10.3984795231469,41.26553,0,0.07,176.484375,22.83087377253518,3,5,-9999,2650.614320375,0.0268402099609375,-0.5382537841796875,-0.885498046875,2650.604324375,2.698071632419428,0.04641428388328321,0.5561004086842064,-0.06617545336484909,-0.0792025551199913,0.0829300731420517,-0.008598513901233673,-0.0008698105812072754,-0.02523624897003174,XArbitraryZVertical,-0.0385878001806523,-0.2725954204374001,-0.9391931643960875,-0.2052294726185974,0.0394064337015152,-0.5278782248497009,-0.8484054207801819,0,0,0,-1,-1,2630.896532875,walking,2,2022-05-12T10:28:33.798+02:00,2022-05-11T22:15:20.957+02:00,68,0.8826587,0,0,58.386,0,0,2022-05-12T10:28:46.589+02:00,674036931.7002666,0,0.1699982,100.9045,1,0.98
2022-05-12T10:28:53.527+02:00,1652344131.999722,53.22900305041413,10.3984795231469,41.26553,0,0.07,176.484375,22.83087377253518,3,5,-9999,2650.624315375,0.027801513671875,-0.534698486328125,-0.88153076171875,2650.614320375,2.698940910272857,0.04526874003021891,0.555735356381954,-0.04457555338740349,-0.06976151466369629,0.06776376813650131,-0.01071760058403015,-0.001759707927703857,-0.03551256656646729,XArbitraryZVertical,-0.03896767225161253,-0.2723238779262075,-0.9393080125444273,-0.2049921816994143,0.03844323754310608,-0.5275681614875793,-0.8486424684524536,0,0,0,-1,-1,2630.896532875,walking,2,2022-05-12T10:28:33.798+02:00,2022-05-11T22:15:20.957+02:00,68,0.8826587,0,0,58.386,0,0,2022-05-12T10:28:46.589+02:00,674036931.7002666,0,0.1699982,100.9045,1,0.98
2022-05-12T10:28:53.536+02:00,1652344131.999722,53.22900305041413,10.3984795231469,41.26553,0,0.07,176.484375,22.83087377253518,3,5,-9999,2650.634310375,0.0230865478515625,-0.5126800537109375,-0.88165283203125,2650.624315375,2.699543461414683,0.04439437278031523,0.555616711217675,-0.03246323019266129,-0.06557662039995193,0.04651174321770668,-0.008452460169792175,-0.01269423961639404,-0.03535568714141846,XArbitraryZVertical,-0.03928344105890844,-0.2721905260331598,-0.9393682065164388,-0.2048330049982965,0.0377039760351181,-0.5274673700332642,-0.8487382531166077,0,0,0,-1,-1,2630.896532875,walking,2,2022-05-12T10:28:33.798+02:00,2022-05-11T22:15:20.957+02:00,68,0.8826587,0,0,58.386,0,0,2022-05-12T10:28:46.589+02:00,674036931.7002666,0,0.1699982,100.9045,1,0.98
2022-05-12T10:28:53.546+02:00,1652344132.999738,53.22900305041413,10.3984795231469,41.2684,0,0.06,176.484375,22.83087377253518,3,5,-9999,2650.644305375,0.021026611328125,-0.5045013427734375,-0.8739013671875,2650.634310375,2.699861934043815,0.04374495864634653,0.5555968147263327,-0.009807020425796509,-0.04913100227713585,0.01673247665166855,-0.00945812463760376,0.002105116844177246,-0.03120100498199463,XArbitraryZVertical,-0.03954298130917309,-0.2721209486938651,-0.9393907345442027,-0.2047726693020339,0.03715324401855469,-0.5274504423141479,-0.8487730622291565,0,0,0,-1,-1,2630.896532875,walking,2,2022-05-12T10:28:33.798+02:00,2022-05-11T22:15:20.957+02:00,68,0.8826587,0,0,58.386,0,0,2022-05-12T10:28:46.589+02:00,674036931.7002666,0,0.1699982,100.9045,1,0.98
2022-05-12T10:28:53.556+02:00,1652344132.999738,53.22900305041413,10.3984795231469,41.2684,0,0.06,176.484375,22.83087377253518,3,5,-9999,2650.654300375,0.041351318359375,-0.5206451416015625,-0.8632965087890625,2650.644305375,2.699919618993728,0.04341601976070492,0.5557428332915041,0.009209548123180866,-0.02966063097119331,0.008891863748431206,-0.01721696555614471,0.02273702621459961,-0.03149467706680298,XArbitraryZVertical,-0.0397054247946775,-0.2721568376170443,-0.9393708270962999,-0.204784382516556,0.03687070310115814,-0.5275744795799255,-0.8487082719802856,0,0,0,-1,-1,2630.896532875,walking,2,2022-05-12T10:28:33.798+02:00,2022-05-11T22:15:20.957+02:00,68,0.8826587,0,0,58.386,0,0,2022-05-12T10:28:46.589+02:00,674036931.7002666,0,0.1699982,100.9045,1,0.98
2022-05-12T10:28:53.566+02:00,1652344132.999738,53.22900305041413,10.3984795231469,41.2684,0,0.06,176.484375,22.83087377253518,3,5,-9999,2650.664295375,0.0401611328125,-0.5307769775390625,-0.86065673828125,2650.654300375,2.700019504375533,0.04313533097040202,0.5559532645471121,0.01616449281573296,-0.02082406170666218,0.01216601952910423,-0.00475165992975235,0.01626288890838623,-0.01914411783218384,XArbitraryZVertical,-0.03984643143496033,-0.2722286374279309,-0.9393478189623089,-0.2047672323094775,0.03662769123911858,-0.5277532339096069,-0.8486076593399048,0,0,0,-1,-1,2630.896532875,walking,2,2022-05-12T10:28:33.798+02:00,2022-05-11T22:15:20.957+02:00,68,0.8826587,0,0,58.386,0,0,2022-05-12T10:28:46.589+02:00,674036931.7002666,0,0.1699982,100.9045,1,0.98
2022-05-12T10:28:53.576+02:00,1652344132.999738,53.22900305041413,10.3984795231469,41.2684,0,0.06,176.484375,22.83087377253518,3,5,-9999,2650.674291375,0.03302001953125,-0.524658203125,-0.8578338623046875,2650.664295375,2.700102966973907,0.04287473877081949,0.5562158638331337,0.02638117782771587,-0.03486025333404541,0.009051719680428505,0.005637772381305695,0.0006473064422607422,-0.01362735033035278,XArbitraryZVertical,-0.03998586116067642,-0.2723266036094608,-0.939316645108223,-0.2047530030806453,0.03640060871839523,-0.5279762744903564,-0.8484786748886108,0,0,0,-1,-1,2630.896532875,walking,2,2022-05-12T10:28:33.798+02:00,2022-05-11T22:15:20.957+02:00,68,0.8826587,0,0,58.386,0,0,2022-05-12T10:28:46.589+02:00,674036931.7002666,0,0.1699982,100.9045,1,0.98
2022-05-12T10:28:53.586+02:00,1652344132.999738,53.22900305041413,10.3984795231469,41.2684,0,0.06,176.484375,22.83087377253518,3,5,-9999,2650.684286375,0.0209503173828125,-0.5277099609375,-0.8509674072265625,2650.674291375,2.700169876499663,0.04247907632246781,0.556447247136043,0.01423183735460043,-0.03199202567338943,0.008725482039153576,0.003827191889286041,0.002201855182647705,-0.01213294267654419,XArbitraryZVertical,-0.04018757523642885,-0.2723958430055639,-0.9392849955982292,-0.2047661175202956,0.03605970740318298,-0.5281727910041809,-0.8483709096908569,0,0,0,-1,-1,2630.896532875,walking,2,2022-05-12T10:28:33.798+02:00,2022-05-11T22:15:20.957+02:00,68,0.8826587,0,0,58.386,0,0,2022-05-12T10:28:46.589+02:00,674036931.7002666,0,0.1699982,100.9045,1,0.98
2022-05-12T10:28:53.596+02:00,1652344132.999738,53.22900305041413,10.3984795231469,41.2684,0,0.06,176.484375,22.83087377253518,3,5,-9999,2650.694281375,0.0265350341796875,-0.5419921875,-0.843963623046875,2650.684286375,2.700236019234422,0.04214080771467535,0.556455117793468,-0.004172470420598984,-0.02900689095258713,0.002492086961865425,-0.01273136958479881,0.002529025077819824,-0.006372332572937012,XArbitraryZVertical,-0.04033828312412657,-0.2723662259246989,-0.9392839233646696,-0.2047808101537694,0.03577255085110664,-0.5281794667243958,-0.8483788967132568,0,0,0,-1,-1,2630.896532875,walking,2,2022-05-12T10:28:33.798+02:00,2022-05-11T22:15:20.957+02:00,68,0.8826587,0,0,58.386,0,0,2022-05-12T10:28:46.589+02:00,674036931.7002666,0,0.1699982,100.9045,1,0.98
2022-05-12T10:28:53.606+02:00,1652344132.999738,53.22900305041413,10.3984795231469,41.2684,0,0.06,176.484375,22.83087377253518,3,5,-9999,2650.704276375,0.0402984619140625,-0.5474395751953125,-0.834197998046875,2650.694281375,2.700228671076087,0.04190134331682073,0.5563832315394689,-0.002976045478135347,-0.0229005292057991,-0.002097072079777718,-0.01068347692489624,-0.006733119487762451,0.000479578971862793,XArbitraryZVertical,-0.04044399072191839,-0.2723078476799042,-0.9392879185682015,-0.2048198212514479,0.03557098656892776,-0.5281184315681458,-0.8484254479408264,0,0,0,-1,-1,2630.896532875,walking,2,2022-05-12T10:28:33.798+02:00,2022-05-11T22:15:20.957+02:00,68,0.8826587,0,0,58.386,0,0,2022-05-12T10:28:46.589+02:00,674036931.7002666,0,0.1699982,100.9045,1,0.98
2022-05-12T10:28:53.616+02:00,1652344132.999738,53.22900305041413,10.3984795231469,41.2684,0,0.06,176.484375,22.83087377253518,3,5,-9999,2650.714271375,0.031524658203125,-0.5432891845703125,-0.8294677734375,2650.704276375,2.700277477705252,0.04164516391048704,0.5564319904990201,0.01931381411850452,-0.02054070122539997,0.008667425252497196,-0.00222531333565712,-0.01668620109558105,0.009847104549407959,XArbitraryZVertical,-0.04056292444761705,-0.2723054387639366,-0.9392813028915912,-0.204829835149741,0.03535256162285805,-0.5281597971916199,-0.8484088182449341,0,0,0,-1,-1,2630.896532875,walking,2,2022-05-12T10:28:33.798+02:00,2022-05-11T22:15:20.957+02:00,68,0.8826587,0,0,58.386,0,0,2022-05-12T10:28:46.589+02:00,674036931.7002666,0,0.1699982,100.9045,1,0.98
2022-05-12T10:28:53.626+02:00,1652344132.999738,53.22900305041413,10.3984795231469,41.2684,0,0.06,176.484375,22.83087377253518,3,5,-9999,2650.724267375,0.024810791015625,-0.535491943359375,-0.8311614990234375,2650.714271375,2.700390640437467,0.04136353221251117,0.5566250661484493,0.02490049414336681,-0.01508435048162937,0.006226571276783943,0.003221094608306885,-0.01888740062713623,0.01703351736068726,XArbitraryZVertical,-0.04070062336819653,-0.2723693408192823,-0.9392616919963019,-0.2048073352787687,0.03510940447449684,-0.528323769569397,-0.8483167886734009,0,0,0,-1,-1,2630.896532875,walking,2,2022-05-12T10:28:33.798+02:00,2022-05-11T22:15:20.957+02:00,68,0.8826587,0,0,58.386,0,0,2022-05-12T10:28:46.589+02:00,674036931.7002666,0,0.1699982,100.9045,1,0.98
2022-05-12T10:28:53.636+02:00,1652344132.999738,53.22900305041413,10.3984795231469,41.2684,0,0.06,176.484375,22.83087377253518,3,5,-9999,2650.734262375,0.0283203125,-0.5410614013671875,-0.83404541015625,2650.724267375,2.700464423742406,0.04117369752414245,0.5567615687705041,0.02307542972266674,-0.01022594515234232,0.001583350822329521,-0.01024099439382553,-0.008456528186798096,0.01797515153884888,XArbitraryZVertical,-0.04079445402775484,-0.2724153596089167,-0.9392473266628245,-0.2047930755118734,0.03494539484381676,-0.5284396409988403,-0.8482513427734375,0,0,0,-1,-1,2630.896532875,walking,2,2022-05-12T10:28:33.798+02:00,2022-05-11T22:15:20.957+02:00,68,0.8826587,0,0,58.386,0,0,2022-05-12T10:28:46.589+02:00,674036931.7002666,0,0.1699982,100.9045,1,0.98
2022-05-12T10:28:53.646+02:00,1652344132.999738,53.22900305041413,10.3984795231469,41.2684,0,0.06,176.484375,22.83087377253518,3,5,-9999,2650.744257375,0.030181884765625,-0.546478271484375,-0.8377838134765625,2650.734262375,2.700434861738755,0.04111362446844048,0.5568947261275193,0.02544571086764336,-0.00290318438783288,-0.004556700587272644,-0.008340835571289062,-0.007351696491241455,0.01648789644241333,XArbitraryZVertical,-0.04084106248672567,-0.2724709727266802,-0.9392255120654893,-0.2048098551703997,0.03489154577255249,-0.5285527110099792,-0.8481831550598145,0,0,0,-1,-1,2630.896532875,walking,2,2022-05-12T10:28:33.798+02:00,2022-05-11T22:15:20.957+02:00,68,0.8826587,0,0,58.386,0,0,2022-05-12T10:28:46.589+02:00,674036931.7002666,0,0.1699982,100.9045,1,0.98
2022-05-12T10:28:53.656+02:00,1652344132.999738,53.22900305041413,10.3984795231469,41.2684,0,0.06,176.484375,22.83087377253518,3,5,-9999,2650.754252375,0.0343475341796875,-0.5312957763671875,-0.8420257568359375,2650.744257375,2.70024292710085,0.04123982687487181,0.5570989509959668,0.02237455174326897,0.0008169854991137981,-0.01937026903033257,-0.004155702888965607,-0.01631832122802734,0.01280504465103149,XArbitraryZVertical,-0.0408299938925011,-0.2725756379976564,-0.939181466963717,-0.2048746622105426,0.03499413654208183,-0.5287260413169861,-0.8480708599090576,0,0,0,-1,-1,2630.896532875,walking,2,2022-05-12T10:28:33.798+02:00,2022-05-11T22:15:20.957+02:00,68,0.8826587,0,0,58.386,0,0,2022-05-12T10:28:46.589+02:00,674036931.7002666,0,0.1699982,100.9045,1,0.98
2022-05-12T10:28:53.666+02:00,1652344132.999738,53.22900305041413,10.3984795231469,41.2684,0,0.06,176.484375,22.83087377253518,3,5,-9999,2650.764247375,0.04278564453125,-0.5305938720703125,-0.8442535400390625,2650.754252375,2.700067512448251,0.04132252249661608,0.5572744142161611,0.02626819163560867,-0.008629580028355122,-0.009473628364503384,-0.003871053457260132,-0.01066100597381592,0.008757412433624268,XArbitraryZVertical,-0.04083402465209099,-0.2726626907408088,-0.9391420710031946,-0.2049388134039654,0.03506043553352356,-0.528874933719635,-0.8479752540588379,0,0,0,-1,-1,2630.896532875,walking,2,2022-05-12T10:28:33.798+02:00,2022-05-11T22:15:20.957+02:00,68,0.8826587,0,0,58.386,0,0,2022-05-12T10:28:46.589+02:00,674036931.7002666,0,0.1699982,100.9045,1,0.98
2022-05-12T10:28:53.676+02:00,1652344132.999738,53.22900305041413,10.3984795231469,41.2684,0,0.06,176.484375,22.83087377253518,3,5,-9999,2650.774243375,0.032440185546875,-0.5217132568359375,-0.8497467041015625,2650.764247375,2.700010791286508,0.04117110477800028,0.5575133863518974,0.02588043734431267,-0.02186362631618977,-0.0006135581061244011,0.004670143127441406,-0.004232645034790039,0.003631532192230225,XArbitraryZVertical,-0.04093867516798649,-0.2727579136166997,-0.9391016606465906,-0.2049766194167269,0.03492683544754982,-0.5290777683258057,-0.8478543162345886,0,0,0,-1,-1,2630.896532875,walking,2,2022-05-12T10:28:33.798+02:00,2022-05-11T22:15:20.957+02:00,68,0.8826587,0,0,58.386,0,0,2022-05-12T10:28:46.589+02:00,674036931.7002666,0,0.1699982,100.9045,1,0.98
2022-05-12T10:28:53.686+02:00,1652344132.999738,53.22900305041413,10.3984795231469,41.2684,0,0.06,176.484375,22.83087377253518,3,5,-9999,2650.784238375,0.03277587890625,-0.5222015380859375,-0.853546142578125,2650.774243375,2.700070625012038,0.04093308168468652,0.5578253285308904,0.03785224631428719,-0.006455974653363228,0.007870275527238846,0.004832930862903595,0.004744827747344971,0.002299964427947998,XArbitraryZVertical,-0.04107596551148894,-0.2728808242490889,-0.9390617251667633,-0.2049686043481092,0.03471826761960983,-0.5293424129486084,-0.8476976156234741,0,0,0,-1,-1,2630.896532875,walking,2,2022-05-12T10:28:33.798+02:00,2022-05-11T22:15:20.957+02:00,68,0.8826587,0,0,58.386,0,0,2022-05-12T10:28:46.589+02:00,674036931.7002666,0,0.1699982,100.9045,1,0.98
2022-05-12T10:28:53.696+02:00,1652344132.999738,53.22900305041413,10.3984795231469,41.2684,0,0.06,176.484375,22.83087377253518,3,5,-9999,2650.794233375,0.0345611572265625,-0.52587890625,-0.854827880859375,2650.784238375,2.700120915116815,0.04091784016178766,0.5583884289376999,0.0594443567097187,0.01104818284511566,0.005235875956714153,-0.004297226667404175,0.008594691753387451,-0.004360377788543701,XArbitraryZVertical,-0.04113704906488908,-0.2731440111640805,-0.9389920453842187,-0.204924634035374,0.0346931479871273,-0.5298200845718384,-0.8474001884460449,0,0,0,-1,-1,2630.896532875,walking,2,2022-05-12T10:28:33.798+02:00,2022-05-11T22:15:20.957+02:00,68,0.8826587,0,0,58.386,0,0,2022-05-12T10:28:46.589+02:00,674036931.7002666,0,0.1699982,100.9045,1,0.98
2022-05-12T10:28:53.706+02:00,1652344132.999738,53.22900305041413,10.3984795231469,41.2684,0,0.06,176.484375,22.83087377253518,3,5,-9999,2650.804228375,0.0447845458984375,-0.520904541015625,-0.8492279052734375,2650.794233375,2.700068069468642,0.04116420325634386,0.5590985922008216,0.05516711622476578,0.02573245577514172,-0.005907722283154726,-0.001408219337463379,0.005488991737365723,-0.008544564247131348,XArbitraryZVertical,-0.04110529811601413,-0.2735006541982878,-0.9388978087450637,-0.2048875788911093,0.03488642349839211,-0.5304222702980042,-0.8470155000686646,0,0,0,-1,-1,2630.896532875,walking,2,2022-05-12T10:28:33.798+02:00,2022-05-11T22:15:20.957+02:00,68,0.8826587,0,0,58.386,0,0,2022-05-12T10:28:46.589+02:00,674036931.7002666,0,0.1699982,100.9045,1,0.98
2022-05-12T10:28:53.716+02:00,1652344132.999738,53.22900305041413,10.3984795231469,41.2684,0,0.06,176.484375,22.83087377253518,3,5,-9999,2650.814223375,0.0362701416015625,-0.525787353515625,-0.851837158203125,2650.804228375,2.69994115964969,0.0413570437294869,0.5596451024246352,0.041700579226017,0.01126137003302574,-0.01543171890079975,0.00600878894329071,0.008363068103790283,-0.004019260406494141,XArbitraryZVertical,-0.04109115271650504,-0.273773702463589,-0.938816269986505,-0.2048988923744106,0.03503777086734772,-0.5308854579925537,-0.846718966960907,0,0,0,-1,-1,2630.896532875,walking,2,2022-05-12T10:28:33.798+02:00,2022-05-11T22:15:20.957+02:00,68,0.8826587,0,0,58.386,0,0,2022-05-12T10:28:46.589+02:00,674036931.7002666,0,0.1699982,100.9045,1,0.98
2022-05-12T10:28:53.726+02:00,1652344132.999738,53.22900305041413,10.3984795231469,41.2684,0,0.06,176.484375,22.83087377253518,3,5,-9999,2650.824218375,0.033935546875,-0.5094451904296875,-0.8507080078125,2650.814223375,2.699744092656466,0.04151142544582342,0.5600409352139338,0.03356505557894707,0.006250699050724506,-0.01635803282260895,0.00758051872253418,0.006669044494628906,-0.003578603267669678,XArbitraryZVertical,-0.04108844718753547,-0.2739707552897596,-0.9387468328843537,-0.2049544766900389,0.03515976667404175,-0.5312208533287048,-0.8465035557746887,0,0,0,-1,-1,2630.896532875,walking,2,2022-05-12T10:28:33.798+02:00,2022-05-11T22:15:20.957+02:00,68,0.8826587,0,0,58.386,0,0,2022-05-12T10:28:46.589+02:00,674036931.7002666,0,0.1699982,100.9045,1,0.98
2022-05-12T10:28:53.736+02:00,1652344132.999738,53.22900305041413,10.3984795231469,41.2684,0,0.06,176.484375,22.83087377253518,3,5,-9999,2650.834214375,0.0266265869140625,-0.5170440673828125,-0.848907470703125,2650.824218375,2.699614067290774,0.04165894127567524,0.5604577381846563,0.03790920227766037,0.01352166105061769,-0.005627358332276344,0.000247471034526825,0.01202702522277832,-0.005834460258483887,XArbitraryZVertical,-0.04108208298458546,-0.2741782983820617,-0.9386812687391909,-0.2049786193882953,0.0352754145860672,-0.5315739512443542,-0.8462770581245422,0,0,0,-1,-1,2630.896532875,walking,2,2022-05-12T10:28:33.798+02:00,2022-05-11T22:15:20.957+02:00,68,0.8826587,0,0,58.386,0,0,2022-05-12T10:28:46.589+02:00,674036931.7002666,0,0.1699982,100.9045,1,0.98
2022-05-12T10:28:53.746+02:00,1652344132.999738,53.22900305041413,10.3984795231469,41.2684,0,0.06,176.484375,22.83087377253518,3,5,-9999,2650.844209375,0.027679443359375,-0.522186279296875,-0.8469085693359375,2650.834214375,2.699517267421969,0.04185776291916502,0.5608297619081045,0.0360858365893364,0.017088633030653,-0.006961002014577389,-0.006443280726671219,0.02226030826568604,-0.003124713897705078,XArbitraryZVertical,-0.04104226259243763,-0.2743708494826747,-0.9386259557001208,-0.2049817957026916,0.03543539345264435,-0.531889021396637,-0.8460723161697388,0,0,0,-1,-1,2630.896532875,walking,2,2022-05-12T10:28:33.798+02:00,2022-05-11T22:15:20.957+02:00,68,0.8826587,0,0,58.386,0,0,2022-05-12T10:28:46.589+02:00,674036931.7002666,0,0.1699982,100.9045,1,0.98
2022-05-12T10:28:53.756+02:00,1652344132.999738,53.22900305041413,10.3984795231469,41.2684,0,0.06,176.484375,22.83087377253518,3,5,-9999,2650.854204375,0.0327301025390625,-0.5341033935546875,-0.8427581787109375,2650.844209375,2.699429712790035,0.04214217446288303,0.5612420253870847,0.03550100699067116,0.02512205764651299,-0.001137201674282551,-0.007819078862667084,0.01038706302642822,-0.003888070583343506,XArbitraryZVertical,-0.0409653967328901,-0.2745911449672018,-0.9385680788952727,-0.2049672993398986,0.03566678240895271,-0.5322381258010864,-0.8458430767059326,0,0,0,-1,-1,2630.896532875,walking,2,2022-05-12T10:28:33.798+02:00,2022-05-11T22:15:20.957+02:00,68,0.8826587,0,0,58.386,0,0,2022-05-12T10:28:46.589+02:00,674036931.7002666,0,0.1699982,100.9045,1,0.98
2022-05-12T10:28:53.766+02:00,1652344132.999738,53.22900305041413,10.3984795231469,41.2684,0,0.06,176.484375,22.83087377253518,3,5,-9999,2650.864199375,0.0361480712890625,-0.5390625,-0.844146728515625,2650.854204375,2.69938846267001,0.04246894384166944,0.5615440423513773,0.0358644612133503,0.03495005145668983,-2.786237746477127e-05,-0.005738791078329086,0.005790472030639648,0.00329434871673584,XArbitraryZVertical,-0.04085039333027709,-0.2747651260207196,-0.93853040708688,-0.2049296158909639,0.03593635186553001,-0.5324937701225281,-0.845670759677887,0,0,0,-1,-1,2630.896532875,walking,2,2022-05-12T10:28:33.798+02:00,2022-05-11T22:15:20.957+02:00,68,0.8826587,0,0,58.386,0,0,2022-05-12T10:28:46.589+02:00,674036931.7002666,0,0.1699982,100.9045,1,0.98
2022-05-12T10:28:53.776+02:00,1652344132.999738,53.22900305041413,10.3984795231469,41.2684,0,0.06,176.484375,22.83087377253518,3,5,-9999,2650.874194375,0.0399322509765625,-0.5417633056640625,-0.8443756103515625,2650.864199375,2.699456396046467,0.04284289768364159,0.5617965663331551,0.02384401671588421,0.05605746805667877,0.01474336069077253,-0.0002356730401515961,-0.006202816963195801,0.001574814319610596,XArbitraryZVertical,-0.04069290369209812,-0.2749229822147181,-0.9385114487593509,-0.2048361714807836,0.03624682873487473,-0.5327075123786926,-0.8455228805541992,0,0,0,-1,-1,2630.896532875,walking,2,2022-05-12T10:28:33.798+02:00,2022-05-11T22:15:20.957+02:00,68,0.8826587,0,0,58.386,0,0,2022-05-12T10:28:46.589+02:00,674036931.7002666,0,0.1699982,100.9045,1,0.98
2022-05-12T10:28:53.786+02:00,1652344132.999738,53.22900305041413,10.3984795231469,41.2684,0,0.06,176.484375,22.83087377253518,3,5,-9999,2650.884190375,0.0459136962890625,-0.5462188720703125,-0.842926025390625,2650.874194375,2.699625479535734,0.0433635106468034,0.5620425580932678,0.03177614137530327,0.06933978945016861,0.01626049727201462,0.0004437156021595001,-0.006879687309265137,0.001226544380187988,XArbitraryZVertical,-0.04045196696731591,-0.2750948419507816,-0.9385065542368506,-0.20467523908392,0.03668133169412613,-0.5329156517982483,-0.8453729152679443,0,0,0,-1,-1,2630.896532875,walking,2,2022-05-12T10:28:33.798+02:00,2022-05-11T22:15:20.957+02:00,68,0.8826587,0,0,58.386,0,0,2022-05-12T10:28:46.589+02:00,674036931.7002666,0,0.1699982,100.9045,1,0.98
2022-05-12T10:28:53.796+02:00,1652344132.999738,53.22900305041413,10.3984795231469,41.2684,0,0.06,176.484375,22.83087377253518,3,5,-9999,2650.894185375,0.0451202392578125,-0.5390167236328125,-0.84344482421875,2650.894185375,2.700099708245436,0.04478087473873672,0.5624666680831583,0.008583605289459229,0.08291391283273697,0.0257666502147913,0.008853454142808914,-0.008565545082092285,0.0008715391159057617,XArbitraryZVertical,-0.03976747088149744,-0.2754477021097501,-0.9385270395080775,-0.2042403476245861,0.03786937519907951,-0.5332744717597961,-0.8450942039489746,0,0,0,-1,-1,2630.896532875,walking,2,2022-05-12T10:28:33.798+02:00,2022-05-11T22:15:20.957+02:00,68,0.8826587,0,0,58.386,0,0,2022-05-12T10:28:46.589+02:00,674036931.7002666,0,0.1699982,100.9045,1,0.98
2022-05-12T10:28:53.806+02:00,1652344132.999738,53.22900305041413,10.3984795231469,41.2684,0,0.06,176.484375,22.83087377253518,3,5,-9999,2650.904180375,0.04510498046875,-0.546539306640625,-0.841888427734375,2650.894185375,2.700099708245436,0.04478087473873672,0.5624666680831583,0.008583605289459229,0.08291391283273697,0.0257666502147913,0.008853454142808914,-0.008565545082092285,0.0008715391159057617,XArbitraryZVertical,-0.03976747088149744,-0.2754477021097501,-0.9385270395080775,-0.2042403476245861,0.03786937519907951,-0.5332744717597961,-0.8450942039489746,0,0,0,-1,-1,2630.896532875,walking,2,2022-05-12T10:28:33.798+02:00,2022-05-11T22:15:20.957+02:00,68,0.8826587,0,0,58.386,0,0,2022-05-12T10:28:46.589+02:00,674036931.7002666,0,0.1699982,100.9045,1,0.98
2022-05-12T10:28:53.816+02:00,1652344132.999738,53.22900305041413,10.3984795231469,41.2684,0,0.06,176.484375,22.83087377253518,3,5,-9999,2650.914175375,0.0407257080078125,-0.547088623046875,-0.839080810546875,2650.904180375,2.700366995374049,0.04535970780140574,0.5624607153055859,7.187621667981148e-05,0.06432665139436722,0.02021875232458115,0.008318372070789337,-0.007578790187835693,0.003461897373199463,XArbitraryZVertical,-0.03945838840751298,-0.2755092605534388,-0.9385666678101546,-0.2040354995724085,0.03835868462920189,-0.533269464969635,-0.8450753688812256,0,0,0,-1,-1,2630.896532875,walking,2,2022-05-12T10:28:33.798+02:00,2022-05-11T22:15:20.957+02:00,68,0.8826587,0,0,58.386,0,0,2022-05-12T10:28:46.589+02:00,674036931.7002666,0,0.1699982,100.9045,1,0.98
2022-05-12T10:28:53.827+02:00,1652344132.999738,53.22900305041413,10.3984795231469,41.2684,0,0.06,176.484375,22.83087377253518,3,5,-9999,2650.924170375,0.043914794921875,-0.54180908203125,-0.84185791015625,2650.914175375,2.700658679284363,0.04574599473308586,0.5622499330436517,-0.0293869785964489,0.04908451437950134,0.01986967958509922,0.003561742603778839,-0.01595109701156616,0.002369105815887451,XArbitraryZVertical,-0.03921413461460294,-0.2754557549952631,-0.9386320463595482,-0.2038540601553275,0.03869026154279709,-0.533091127872467,-0.8451727628707886,0,0,0,-1,-1,2630.896532875,walking,2,2022-05-12T10:28:33.798+02:00,2022-05-11T22:15:20.957+02:00,68,0.8826587,0,0,58.386,0,0,2022-05-12T10:28:46.589+02:00,674036931.7002666,0,0.1699982,100.9045,1,0.98
2022-05-12T10:28:53.836+02:00,1652344132.999738,53.22900305041413,10.3984795231469,41.2684,0,0.06,176.484375,22.83087377253518,3,5,-9999,2650.934165375,0.04254150390625,-0.540069580078125,-0.8478851318359375,2650.924170375,2.70085170345883,0.04597270861658424,0.5618885061754982,-0.02704872563481331,0.02630703151226044,0.008899586275219917,0.001637034118175507,-0.01003134250640869,0.005467116832733154,XArbitraryZVertical,-0.03904207326458103,-0.2753135309935184,-0.9387041038382847,-0.2037470368697033,0.03889072313904762,-0.5327852964401245,-0.8453563451766968,0,0,0,-1,-1,2630.896532875,walking,2,2022-05-12T10:28:33.798+02:00,2022-05-11T22:15:20.957+02:00,68,0.8826587,0,0,58.386,0,0,2022-05-12T10:28:46.589+02:00,674036931.7002666,0,0.1699982,100.9045,1,0.98
2022-05-12T10:28:53.846+02:00,1652344132.999738,53.22900305041413,10.3984795231469,41.2684,0,0.06,176.484375,22.83087377253518,3,5,-9999,2650.944161375,0.042022705078125,-0.53753662109375,-0.848602294921875,2650.934165375,2.700993530795332,0.04611539905755699,0.5616393244672295,-0.01827926747500896,0.0205528736114502,0.01109869126230478,0.006438884884119034,-0.008853614330291748,-0.001241743564605713,XArbitraryZVertical,-0.03892864614884234,-0.2752142248312645,-0.9387544069377748,-0.2036710536545179,0.03901746496558189,-0.5325744152069092,-0.8454833626747131,0,0,0,-1,-1,2630.896532875,walking,2,2022-05-12T10:28:33.798+02:00,2022-05-11T22:15:20.957+02:00,68,0.8826587,0,0,58.386,0,0,2022-05-12T10:28:46.589+02:00,674036931.7002666,0,0.1699982,100.9045,1,0.98
2022-05-12T10:28:53.856+02:00,1652344132.999738,53.22900305041413,10.3984795231469,41.2684,0,0.06,176.484375,22.83087377253518,3,5,-9999,2650.954156375,0.04034423828125,-0.5440521240234375,-0.856414794921875,2650.944161375,2.701094047564288,0.04621112818622875,0.5614351947595749,-0.01759936287999153,0.01002166792750359,0.00400855764746666,0.001744769513607025,-0.005272805690765381,-0.001869380474090576,XArbitraryZVertical,-0.03884782583488454,-0.2751303874611014,-0.9387936245968634,-0.2036191064979803,0.0391034260392189,-0.5324016213417053,-0.845588207244873,0,0,0,-1,-1,2630.896532875,walking,2,2022-05-12T10:28:33.798+02:00,2022-05-11T22:15:20.957+02:00,68,0.8826587,0,0,58.386,0,0,2022-05-12T10:28:46.589+02:00,674036931.7002666,0,0.1699982,100.9045,1,0.98
2022-05-12T10:28:53.866+02:00,1652344132.999738,53.22900305041413,10.3984795231469,41.2684,0,0.06,176.484375,22.83087377253518,3,5,-9999,2650.964151375,0.0411529541015625,-0.5407867431640625,-0.859283447265625,2650.954156375,2.701148664986211,0.04627256295383574,0.5613496511461027,-0.007338469382375479,0.006193641107529402,0.003254351206123829,0.002636760473251343,-0.008961498737335205,-0.008692741394042969,XArbitraryZVertical,-0.03880223340796851,-0.2750976625718852,-0.9388117431111316,-0.2035885434247203,0.03915748000144958,-0.5323292016983032,-0.8456313014030457,0,0,0,-1,-1,2630.896532875,walking,2,2022-05-12T10:28:33.798+02:00,2022-05-11T22:15:20.957+02:00,68,0.8826587,0,0,58.386,0,0,2022-05-12T10:28:46.589+02:00,674036931.7002666,0,0.1699982,100.9045,1,0.98
2022-05-12T10:28:53.876+02:00,1652344132.999738,53.22900305041413,10.3984795231469,41.2684,0,0.06,176.484375,22.83087377253518,3,5,-9999,2650.974146375,0.04241943359375,-0.5460662841796875,-0.857513427734375,2650.964151375,2.701186531456159,0.04635333568868431,0.5613872371558534,0.002827881835401058,0.01325607858598232,0.009842478670179844,0.001867480576038361,-0.01106595993041992,-0.01201176643371582,XArbitraryZVertical,-0.03876316888748374,-0.2751242147787737,-0.9388121590329868,-0.2035581003237538,0.03922485560178757,-0.5323610305786133,-0.8456081748008728,0,0,0,-1,-1,2630.896532875,walking,2,2022-05-12T10:28:33.798+02:00,2022-05-11T22:15:20.957+02:00,68,0.8826587,0,0,58.386,0,0,2022-05-12T10:28:46.589+02:00,674036931.7002666,0,0.1699982,100.9045,1,0.98
2022-05-12T10:28:53.886+02:00,1652344132.999738,53.22900305041413,10.3984795231469,41.2684,0,0.06,176.484375,22.83087377253518,3,5,-9999,2650.984141375,0.046356201171875,-0.5427398681640625,-0.8603973388671875,2650.974146375,2.7013143930564,0.04650542286274419,0.5614416239355454,0.001500528771430254,0.02547166496515274,0.01383808441460133,0.0009925439953804016,-0.01074522733688354,-0.0120619535446167,XArbitraryZVertical,-0.03868005955228355,-0.2751676332291281,-0.9388208577401327,-0.2034748918429061,0.03935211524367332,-0.5324070453643799,-0.8455732464790344,0,0,0,-1,-1,2630.896532875,walking,2,2022-05-12T10:28:33.798+02:00,2022-05-11T22:15:20.957+02:00,68,0.8826587,0,0,58.386,0,0,2022-05-12T10:28:46.589+02:00,674036931.7002666,0,0.1699982,100.9045,1,0.98
2022-05-12T10:28:53.896+02:00,1652344132.999738,53.22900305041413,10.3984795231469,41.2684,0,0.06,176.484375,22.83087377253518,3,5,-9999,2650.994137375,0.0455322265625,-0.5407562255859375,-0.8639068603515625,2650.984141375,2.701493874069314,0.04668057963565227,0.5614560657500012,-0.005709979683160782,0.02274725027382374,0.02044938318431377,0.006841495633125305,-0.01343381404876709,-0.01190871000289917,XArbitraryZVertical,-0.03857470344492323,-0.2751956727365976,-0.9388405822115025,-0.2033659485765609,0.03949986398220062,-0.5324192643165588,-0.8455586433410645,0,0,0,-1,-1,2630.896532875,walking,2,2022-05-12T10:28:33.798+02:00,2022-05-11T22:15:20.957+02:00,68,0.8826587,0,0,58.386,0,0,2022-05-12T10:28:46.589+02:00,674036931.7002666,0,0.1699982,100.9045,1,0.98
2022-05-12T10:28:53.907+02:00,1652344132.999738,53.22900305041413,10.3984795231469,41.2684,0,0.06,176.484375,22.83087377253518,3,5,-9999,2651.004132375,0.04132080078125,-0.5400848388671875,-0.871734619140625,2650.994137375,2.701706960330471,0.04681554378115099,0.5614449364217824,-0.005706184543669224,0.02367150038480759,0.01747769489884377,0.006040453910827637,-0.009033441543579102,-0.01572275161743164,XArbitraryZVertical,-0.03848083679566643,-0.2752082453307876,-0.9388664455788095,-0.2032479004401506,0.03961426392197609,-0.5324098467826843,-0.845559298992157,0,0,0,-1,-1,2630.896532875,walking,2,2022-05-12T10:28:33.798+02:00,2022-05-11T22:15:20.957+02:00,68,0.8826587,0,0,58.386,0,0,2022-05-12T10:28:46.589+02:00,674036931.7002666,0,0.1699982,100.9045,1,0.98
2022-05-12T10:28:53.916+02:00,1652344132.999738,53.22900305041413,10.3984795231469,41.2684,0,0.06,176.484375,22.83087377253518,3,5,-9999,2651.014127375,0.044677734375,-0.5379638671875,-0.8681488037109375,2651.004132375,2.701904871755108,0.04701886173096243,0.5615362524417951,0.009083947166800499,0.03766774386167526,0.01625237241387367,0.004268646240234375,-0.00959700345993042,-0.02295106649398804,XArbitraryZVertical,-0.03836800236333605,-0.2752754745745926,-0.9388782419462331,-0.2031231771829745,0.03978389129042625,-0.532487154006958,-0.8455026149749756,0,0,0,-1,-1,2630.896532875,walking,2,2022-05-12T10:28:33.798+02:00,2022-05-11T22:15:20.957+02:00,68,0.8826587,0,0,58.386,0,0,2022-05-12T10:28:46.589+02:00,674036931.7002666,0,0.1699982,100.9045,1,0.98
2022-05-12T10:28:53.931+02:00,1652344132.999738,53.22900305041413,10.3984795231469,41.2684,0,0.06,176.484375,22.83087377253518,3,5,-9999,2651.024122375,0.04296875,-0.534393310546875,-0.8721466064453125,2651.014127375,2.70208792580852,0.04732025565501218,0.561653691554734,0.01008795853704214,0.03411748260259628,0.01624198630452156,0.000675104558467865,-0.005072593688964844,-0.02465826272964478,XArbitraryZVertical,-0.03821398763998094,-0.2753645471645744,-0.9388869981438061,-0.202990899156211,0.04003576189279556,-0.5325865745544434,-0.8454281091690063,0,0,0,-1,-1,2630.896532875,walking,2,2022-05-12T10:28:33.798+02:00,2022-05-11T22:15:20.957+02:00,68,0.8826587,0,0,58.386,0,0,2022-05-12T10:28:46.589+02:00,674036931.7002666,0,0.1699982,100.9045,1,0.98
2022-05-12T10:28:53.953+02:00,1652344132.999738,53.22900305041413,10.3984795231469,41.2684,0,0.06,176.484375,22.83087377253518,3,5,-9999,2651.034117375,0.042266845703125,-0.5350341796875,-0.86859130859375,2651.024122375,2.702251640757109,0.04760888204444175,0.5617842873014305,0.01179477758705616,0.04160123318433762,0.0129218241199851,0.004996784031391144,-0.003909170627593994,-0.02492243051528931,XArbitraryZVertical,-0.03807004218471744,-0.2754580607283924,-0.9388918208742576,-0.2028689329048773,0.04027646407485008,-0.5326970815658569,-0.8453470468521118,0,0,0,-1,-1,2630.896532875,walking,2,2022-05-12T10:28:33.798+02:00,2022-05-11T22:15:20.957+02:00,68,0.8826587,0,0,58.386,0,0,2022-05-12T10:28:46.589+02:00,674036931.7002666,0,0.1699982,100.9045,1,0.98
2022-05-12T10:28:53.955+02:00,1652344132.999738,53.22900305041413,10.3984795231469,41.2684,0,0.06,176.484375,22.83087377253518,3,5,-9999,2651.044113375,0.0490570068359375,-0.5424652099609375,-0.866363525390625,2651.034117375,2.702415604565833,0.04794876688722665,0.5618856026196055,0.008345984853804111,0.0428214929997921,0.0152787221595645,-0.0003843829035758972,-0.001885592937469482,-0.02650070190429688,XArbitraryZVertical,-0.03789882796791359,-0.2755430496658693,-0.9389014713248947,-0.2027409612703066,0.04056119546294212,-0.5327828526496887,-0.8452793955802917,0,0,0,-1,-1,2630.896532875,walking,2,2022-05-12T10:28:33.798+02:00,2022-05-11T22:15:20.957+02:00,68,0.8826587,0,0,58.386,0,0,2022-05-12T10:28:46.589+02:00,674036931.7002666,0,0.1699982,100.9045,1,0.98
2022-05-12T10:28:53.957+02:00,1652344132.999738,53.22900305041413,10.3984795231469,41.2684,0,0.06,176.484375,22.83087377253518,3,5,-9999,2651.054108375,0.046600341796875,-0.537506103515625,-0.8679046630859375,2651.054108375,2.702838265430834,0.0486737857363277,0.562403959010729,0.054164107888937,0.05237751454114914,0.01600197143852711,0.008446156978607178,-0.007932007312774658,-0.0235866904258728,XArbitraryZVertical,-0.03755609868597873,-0.2758670459360754,-0.9388891193836931,-0.2024210784799093,0.04116058349609375,-0.533221423625946,-0.8449738025665283,0,0,0,-1,-1,2630.896532875,walking,2,2022-05-12T10:28:33.798+02:00,2022-05-11T22:15:20.957+02:00,68,0.8826587,0,0,58.386,0,0,2022-05-12T10:28:46.589+02:00,674036931.7002666,0,0.1699982,100.9045,1,0.98
2022-05-12T10:28:53.966+02:00,1652344132.999738,53.22900305041413,10.3984795231469,41.2684,0,0.06,176.484375,22.83087377253518,3,5,-9999,2651.064103375,0.0417938232421875,-0.5302581787109375,-0.8634490966796875,2651.054108375,2.702838265430834,0.0486737857363277,0.562403959010729,0.054164107888937,0.05237751454114914,0.01600197143852711,0.008446156978607178,-0.007932007312774658,-0.0235866904258728,XArbitraryZVertical,-0.03755609868597873,-0.2758670459360754,-0.9388891193836931,-0.2024210784799093,0.04116058349609375,-0.533221423625946,-0.8449738025665283,0,0,0,-1,-1,2630.896532875,walking,2,2022-05-12T10:28:33.798+02:00,2022-05-11T22:15:20.957+02:00,68,0.8826587,0,0,58.386,0,0,2022-05-12T10:28:46.589+02:00,674036931.7002666,0,0.1699982,100.9045,1,0.98
2022-05-12T10:28:53.976+02:00,1652344132.999738,53.22900305041413,10.3984795231469,41.2684,0,0.06,176.484375,22.83087377253518,3,5,-9999,2651.074098375,0.0440216064453125,-0.534210205078125,-0.8581695556640625,2651.064103375,2.702973994259219,0.04919720431845939,0.563037402531492,0.06647510081529617,0.0691402480006218,0.01515428721904755,0.001718625426292419,0.001011371612548828,-0.02122980356216431,XArbitraryZVertical,-0.03735993972566287,-0.2762189732092372,-0.9388284347995774,-0.2022587030814607,0.04158623516559601,-0.533757209777832,-0.8446146249771118,0,0,0,-1,-1,2630.896532875,walking,2,2022-05-12T10:28:33.798+02:00,2022-05-11T22:15:20.957+02:00,68,0.8826587,0,0,58.386,0,0,2022-05-12T10:28:46.589+02:00,674036931.7002666,0,0.1699982,100.9045,1,0.98
2022-05-12T10:28:53.986+02:00,1652344132.999738,53.22900305041413,10.3984795231469,41.2684,0,0.06,176.484375,22.83087377253518,3,5,-9999,2651.084093375,0.04656982421875,-0.5420074462890625,-0.8524169921875,2651.074098375,2.70310035929366,0.04983177781272839,0.5636656737305237,0.05582175776362419,0.07297779619693756,0.01394234877079725,-0.001638755202293396,0.003327846527099609,-0.01734954118728638,XArbitraryZVertical,-0.037112334141411,-0.2765794515556173,-0.9387694186714471,-0.2020853901443885,0.04210548475384712,-0.5342884063720703,-0.8442529439926147,0,0,0,-1,-1,2630.896532875,walking,2,2022-05-12T10:28:33.798+02:00,2022-05-11T22:15:20.957+02:00,68,0.8826587,0,0,58.386,0,0,2022-05-12T10:28:46.589+02:00,674036931.7002666,0,0.1699982,100.9045,1,0.98
2022-05-12T10:28:53.996+02:00,1652344132.999738,53.22900305041413,10.3984795231469,41.2684,0,0.06,176.484375,22.83087377253518,3,5,-9999,2651.094089375,0.046661376953125,-0.5510101318359375,-0.848907470703125,2651.084093375,2.703207050755072,0.05051578611557446,0.5641712439013064,0.04666661098599434,0.07885698974132538,0.01249971333891153,0.003412656486034393,-0.002195775508880615,-0.00957643985748291,XArbitraryZVertical,-0.03683103555938756,-0.2768869995402941,-0.9387256616637033,-0.2019195271221797,0.04266930744051933,-0.5347156524658203,-0.8439541459083557,0,0,0,-1,-1,2630.896532875,walking,2,2022-05-12T10:28:33.798+02:00,2022-05-11T22:15:20.957+02:00,68,0.8826587,0,0,58.386,0,0,2022-05-12T10:28:46.589+02:00,674036931.7002666,0,0.1699982,100.9045,1,0.98
2022-05-12T10:28:54.006+02:00,1652344132.999738,53.22900305041413,10.3984795231469,41.2684,0,0.06,176.484375,22.83087377253518,3,5,-9999,2651.104084375,0.041351318359375,-0.54400634765625,-0.847686767578125,2651.094089375,2.70332789920412,0.05125858792166087,0.564572141935851,0.03629865497350693,0.078390933573246,0.01154816616326571,0.001667611300945282,-0.01261448860168457,-0.007076025009155273,XArbitraryZVertical,-0.03650887981884717,-0.2771517496497549,-0.9386979974626063,-0.2017429494615068,0.04328519850969315,-0.5350543856620789,-0.8437080383300781,0,0,0,-1,-1,2630.896532875,walking,2,2022-05-12T10:28:33.798+02:00,2022-05-11T22:15:20.957+02:00,68,0.8826587,0,0,58.386,0,0,2022-05-12T10:28:46.589+02:00,674036931.7002666,0,0.1699982,100.9045,1,0.98
2022-05-12T10:28:54.016+02:00,1652344132.999738,53.22900305041413,10.3984795231469,41.2684,0,0.06,176.484375,22.83087377253518,3,5,-9999,2651.114079375,0.031036376953125,-0.5345916748046875,-0.84918212890625,2651.104084375,2.703445086386442,0.0519204259675598,0.5648182152417086,0.02055511251091957,0.06892020255327225,0.00815130490809679,0.003404874354600906,-0.01443600654602051,-0.003299534320831299,XArbitraryZVertical,-0.03620854654499617,-0.2773357065932877,-0.9386891095815734,-0.2015858170149125,0.04383675381541252,-0.5352622866630554,-0.8435477018356323,0,0,0,-1,-1,2630.896532875,walking,2,2022-05-12T10:28:33.798+02:00,2022-05-11T22:15:20.957+02:00,68,0.8826587,0,0,58.386,0,0,2022-05-12T10:28:46.589+02:00,674036931.7002666,0,0.1699982,100.9045,1,0.98
2022-05-12T10:28:54.026+02:00,1652344132.999738,53.22900305041413,10.3984795231469,41.2684,0,0.06,176.484375,22.83087377253518,3,5,-9999,2651.124074375,0.0320892333984375,-0.53643798828125,-0.84429931640625,2651.114079375,2.703545495044179,0.05255307872746545,0.5650204286996588,0.02714137732982635,0.07088002562522888,0.007451425306499004,-0.009711600840091705,-0.001478433609008789,-0.00607532262802124,XArbitraryZVertical,-0.03591949818786222,-0.2774958519610785,-0.938683679360737,-0.201442333886329,0.04436473175883293,-0.5354330539703369,-0.8434116840362549,0,0,0,-1,-1,2630.896532875,walking,2,2022-05-12T10:28:33.798+02:00,2022-05-11T22:15:20.957+02:00,68,0.8826587,0,0,58.386,0,0,2022-05-12T10:28:46.589+02:00,674036931.7002666,0,0.1699982,100.9045,1,0.98
2022-05-12T10:28:54.036+02:00,1652344132.999738,53.22900305041413,10.3984795231469,41.2684,0,0.06,176.484375,22.83087377253518,3,5,-9999,2651.134069375,0.0355377197265625,-0.5313262939453125,-0.8394012451171875,2651.124074375,2.703559009147762,0.05322689452845789,0.5653311517412922,0.03745340183377266,0.06432199478149414,-0.004129596520215273,-0.01379582285881042,0.0003556609153747559,-0.002884149551391602,XArbitraryZVertical,-0.03563489927217062,-0.2777092840647915,-0.9386556602574557,-0.201329190494087,0.04492416977882385,-0.535695493221283,-0.8432154059410095,0,0,0,-1,-1,2630.896532875,walking,2,2022-05-12T10:28:33.798+02:00,2022-05-11T22:15:20.957+02:00,68,0.8826587,0,0,58.386,0,0,2022-05-12T10:28:46.589+02:00,674036931.7002666,0,0.1699982,100.9045,1,0.98
2022-05-12T10:28:54.046+02:00,1652344132.999738,53.22900305041413,10.3984795231469,41.2684,0,0.06,176.484375,22.83087377253518,3,5,-9999,2651.144064375,0.035247802734375,-0.5354156494140625,-0.8364410400390625,2651.134069375,2.703429664047852,0.05387429768200781,0.5657526417295107,0.04969419166445732,0.05234169587492943,-0.01050540339201689,-0.01236116886138916,0.002100110054016113,0.001362442970275879,XArbitraryZVertical,-0.0353945324528956,-0.2779692692713022,-0.938597960840289,-0.201281911522388,0.04545789957046509,-0.536051332950592,-0.8429605960845947,0,0,0,-1,-1,2630.896532875,walking,2,2022-05-12T10:28:33.798+02:00,2022-05-11T22:15:20.957+02:00,68,0.8826587,0,0,58.386,0,0,2022-05-12T10:28:46.589+02:00,674036931.7002666,0,0.1699982,100.9045,1,0.98
2022-05-12T10:28:54.056+02:00,1652344132.999738,53.22900305041413,10.3984795231469,41.2684,0,0.06,176.484375,22.83087377253518,3,5,-9999,2651.154060375,0.0438690185546875,-0.541778564453125,-0.832305908203125,2651.144064375,2.703243339720298,0.05447905719790279,0.5662157570872008,0.04956822469830513,0.04933977872133255,-0.01264871563762426,-0.01021765917539597,0.003696441650390625,0.004550516605377197,XArbitraryZVertical,-0.03518666445605899,-0.2782434119620791,-0.9385281033836652,-0.2012653294744061,0.04595415666699409,-0.5364422202110291,-0.8426849842071533,0,0,0,-1,-1,2630.896532875,walking,2,2022-05-12T10:28:33.798+02:00,2022-05-11T22:15:20.957+02:00,68,0.8826587,0,0,58.386,0,0,2022-05-12T10:28:46.589+02:00,674036931.7002666,0,0.1699982,100.9045,1,0.98
2022-05-12T10:28:54.066+02:00,1652344132.999738,53.22900305041413,10.3984795231469,41.2684,0,0.06,176.484375,22.83087377253518,3,5,-9999,2651.164055375,0.0490570068359375,-0.539886474609375,-0.83245849609375,2651.154060375,2.703073923188983,0.0550407244167008,0.5666086460125295,0.03810447826981544,0.04614711552858353,-0.01166088320314884,-0.008085362613201141,-0.002823233604431152,0.009090065956115723,XArbitraryZVertical,-0.03498915434001531,-0.2784806598204622,-0.9384684979791715,-0.2012497006628766,0.04641586169600487,-0.5367737412452698,-0.8424485325813293,0,0,0,-1,-1,2630.896532875,walking,2,2022-05-12T10:28:33.798+02:00,2022-05-11T22:15:20.957+02:00,68,0.8826587,0,0,58.386,0,0,2022-05-12T10:28:46.589+02:00,674036931.7002666,0,0.1699982,100.9045,1,0.98
2022-05-12T10:28:54.076+02:00,1652344132.999738,53.22900305041413,10.3984795231469,41.2684,0,0.06,176.484375,22.83087377253518,3,5,-9999,2651.174050375,0.0459747314453125,-0.5293731689453125,-0.840057373046875,2651.164055375,2.702927677432812,0.05554959267781982,0.5668594289627877,0.01899416744709015,0.04271030426025391,-0.007321794517338276,0.001381110399961472,-0.006151676177978516,0.009740650653839111,XArbitraryZVertical,-0.03479786849976309,-0.2786465909884367,-0.9384290986764744,-0.2012365147747397,0.04683707281947136,-0.5369853377342224,-0.8422903418540955,0,0,0,-1,-1,2630.896532875,walking,2,2022-05-12T10:28:33.798+02:00,2022-05-11T22:15:20.957+02:00,68,0.8826587,0,0,58.386,0,0,2022-05-12T10:28:46.589+02:00,674036931.7002666,0,0.1699982,100.9045,1,0.98
2022-05-12T10:28:54.086+02:00,1652344132.999738,53.22900305041413,10.3984795231469,41.2684,0,0.06,176.484375,22.83087377253518,3,5,-9999,2651.184045375,0.0477447509765625,-0.533935546875,-0.8441925048828125,2651.174050375,2.702888947127981,0.05598956201500023,0.5669851546299272,0.006892431061714888,0.03904220089316368,0.0006819367408752441,-2.327561378479004e-05,0.002712905406951904,0.006615996360778809,XArbitraryZVertical,-0.03461042615340634,-0.2787489837764343,-0.9384159835295065,-0.2011878629942988,0.04720387235283852,-0.5370913743972778,-0.8422022461891174,0,0,0,-1,-1,2630.896532875,walking,2,2022-05-12T10:28:33.798+02:00,2022-05-11T22:15:20.957+02:00,68,0.8826587,0,0,58.386,0,0,2022-05-12T10:28:46.589+02:00,674036931.7002666,0,0.1699982,100.9045,1,0.98
2022-05-12T10:28:54.096+02:00,1652344132.999738,53.22900305041413,10.3984795231469,41.2684,0,0.06,176.484375,22.83087377253518,3,5,-9999,2651.194040375,0.046844482421875,-0.53179931640625,-0.84002685546875,2651.184045375,2.702875917154918,0.05631164672403651,0.5670986420708423,0.009673570282757282,0.02567286603152752,0.0005418546497821808,-0.0007641315460205078,0.005585730075836182,-0.0006012320518493652,XArbitraryZVertical,-0.03447340261975369,-0.2788342125773873,-0.9384050739742561,-0.2011441285165553,0.04747169837355614,-0.5371870994567871,-0.8421261310577393,0,0,0,-1,-1,2630.896532875,walking,2,2022-05-12T10:28:33.798+02:00,2022-05-11T22:15:20.957+02:00,68,0.8826587,0,0,58.386,0,0,2022-05-12T10:28:46.589+02:00,674036931.7002666,0,0.1699982,100.9045,1,0.98
2022-05-12T10:28:54.106+02:00,1652344132.999738,53.22900305041413,10.3984795231469,41.2684,0,0.06,176.484375,22.83087377253518,3,5,-9999,2651.204036375,0.0435638427734375,-0.5272369384765625,-0.8396453857421875,2651.194040375,2.702943043825055,0.05641122437162559,0.5672074180987917,0.01297116279602051,0.01271352544426918,0.009973039850592613,2.506375312805176e-05,0.003281831741333008,-0.0004659295082092285,XArbitraryZVertical,-0.03442910628570842,-0.2788961995244528,-0.9383991113509291,-0.2010940757602853,0.04755226150155067,-0.5372788906097412,-0.8420630693435669,0,0,0,-1,-1,2630.896532875,walking,2,2022-05-12T10:28:33.798+02:00,2022-05-11T22:15:20.957+02:00,68,0.8826587,0,0,58.386,0,0,2022-05-12T10:28:46.589+02:00,674036931.7002666,0,0.1699982,100.9045,1,0.98
2022-05-12T10:28:54.116+02:00,1652344132.999738,53.22900305041413,10.3984795231469,41.2684,0,0.06,176.484375,22.83087377253518,3,5,-9999,2651.214031375,0.0397796630859375,-0.532501220703125,-0.842132568359375,2651.204036375,2.703087348195727,0.05636157803627177,0.5673377075665211,0.0172780267894268,0.006123799365013838,0.009889949113130569,-0.001912832260131836,0.008915424346923828,0.002564072608947754,XArbitraryZVertical,-0.03444638171184326,-0.2789545830199485,-0.9383954130123473,-0.2010276465481777,0.04750651493668556,-0.5373887419700623,-0.8419955968856812,0,0,0,-1,-1,2630.896532875,walking,2,2022-05-12T10:28:33.798+02:00,2022-05-11T22:15:20.957+02:00,68,0.8826587,0,0,58.386,0,0,2022-05-12T10:28:46.589+02:00,674036931.7002666,0,0.1699982,100.9045,1,0.98
2022-05-12T10:28:54.126+02:00,1652344132.999738,53.22900305041413,10.3984795231469,41.2684,0,0.06,176.484375,22.83087377253518,3,5,-9999,2651.224026375,0.030853271484375,-0.5335540771484375,-0.8436431884765625,2651.214031375,2.70321788432062,0.05627304963178087,0.5675425523804511,0.02251243777573109,-0.0009418998379260302,0.004459298215806484,-0.006104558706283569,0.00716555118560791,0.001069784164428711,XArbitraryZVertical,-0.03449186372395572,-0.2790437237132309,-0.9383795556834343,-0.2009697562321025,0.0474257804453373,-0.5375614762306213,-0.8418897986412048,0,0,0,-1,-1,2630.896532875,walking,2,2022-05-12T10:28:33.798+02:00,2022-05-11T22:15:20.957+02:00,68,0.8826587,0,0,58.386,0,0,2022-05-12T10:28:46.589+02:00,674036931.7002666,0,0.1699982,100.9045,1,0.98
2022-05-12T10:28:54.136+02:00,1652344132.999738,53.22900305041413,10.3984795231469,41.2684,0,0.06,176.484375,22.83087377253518,3,5,-9999,2651.234021375,0.033111572265625,-0.5340423583984375,-0.8417510986328125,2651.224026375,2.703277764383967,0.05618876449122647,0.5677705359365266,0.02494789659976959,-0.001199427526444197,-0.0009218854829668999,-0.01324412226676941,0.005389392375946045,-0.001978278160095215,XArbitraryZVertical,-0.03454771651039538,-0.2791428486216786,-0.9383536861222285,-0.2009435164155884,0.04734793677926064,-0.537753701210022,-0.8417714238166809,0,0,0,-1,-1,2630.896532875,walking,2,2022-05-12T10:28:33.798+02:00,2022-05-11T22:15:20.957+02:00,68,0.8826587,0,0,58.386,0,0,2022-05-12T10:28:46.589+02:00,674036931.7002666,0,0.1699982,100.9045,1,0.98
2022-05-12T10:28:54.147+02:00,1652344132.999738,53.22900305041413,10.3984795231469,41.2684,0,0.06,176.484375,22.83087377253518,3,5,-9999,2651.244016375,0.0354156494140625,-0.5311431884765625,-0.8404388427734375,2651.234021375,2.703282493727388,0.05611623391755716,0.5679947559329541,0.01413599587976933,-0.006567294709384441,-0.001356246881186962,-0.01728092133998871,0.003381133079528809,-0.001088142395019531,XArbitraryZVertical,-0.03460533514263098,-0.2792404536831747,-0.9383229300207687,-0.2009416551091588,0.04728011786937714,-0.5379427671432495,-0.8416544795036316,0,0,0,-1,-1,2630.896532875,walking,2,2022-05-12T10:28:33.798+02:00,2022-05-11T22:15:20.957+02:00,68,0.8826587,0,0,58.386,0,0,2022-05-12T10:28:46.589+02:00,674036931.7002666,0,0.1699982,100.9045,1,0.98
2022-05-12T10:28:54.156+02:00,1652344132.999738,53.22900305041413,10.3984795231469,41.2684,0,0.06,176.484375,22.83087377253518,3,5,-9999,2651.254011375,0.033447265625,-0.5377655029296875,-0.8384246826171875,2651.244016375,2.703216213916537,0.05609703363655355,0.5681847091712868,0.01385769620537758,-0.006383536383509636,-0.005768571980297565,-0.01277294754981995,0.005067169666290283,0.001160502433776855,XArbitraryZVertical,-0.03464413410539559,-0.279326196613449,-0.9382904465511522,-0.2009670927986814,0.04725822806358337,-0.5381028652191162,-0.8415533304214478,0,0,0,-1,-1,2630.896532875,walking,2,2022-05-12T10:28:33.798+02:00,2022-05-11T22:15:20.957+02:00,68,0.8826587,0,0,58.386,0,0,2022-05-12T10:28:46.589+02:00,674036931.7002666,0,0.1699982,100.9045,1,0.98
2022-05-12T10:28:54.166+02:00,1652344132.999738,53.22900305041413,10.3984795231469,41.2684,0,0.06,176.484375,22.83087377253518,3,5,-9999,2651.264007375,0.0322265625,-0.537017822265625,-0.834686279296875,2651.254011375,2.703080327512129,0.05609568720643114,0.5682568121938807,0.004462629556655884,-0.00630650483071804,-0.01442684233188629,-0.01144212484359741,0.003769874572753906,0.001747488975524902,XArbitraryZVertical,-0.03467154717096883,-0.2793574008039528,-0.9382671437220229,-0.2010279054466795,0.04725492000579834,-0.5381636619567871,-0.8415146470069885,0,0,0,-1,-1,2630.896532875,walking,2,2022-05-12T10:28:33.798+02:00,2022-05-11T22:15:20.957+02:00,68,0.8826587,0,0,58.386,0,0,2022-05-12T10:28:46.589+02:00,674036931.7002666,0,0.1699982,100.9045,1,0.98
2022-05-12T10:28:54.176+02:00,1652344132.999738,53.22900305041413,10.3984795231469,41.2684,0,0.06,176.484375,22.83087377253518,3,5,-9999,2651.274002375,0.03875732421875,-0.5430908203125,-0.826171875,2651.264007375,2.70288239747186,0.0561151597355914,0.5682030771998842,-0.009486209601163864,-0.009330257773399353,-0.0203491784632206,-0.01480180770158768,-0.0007004737854003906,0.004476249217987061,XArbitraryZVertical,-0.03468424034389904,-0.2793308176599472,-0.9382547499098591,-0.201120367687577,0.0472729280591011,-0.5381183624267578,-0.8415426015853882,0,0,0,-1,-1,2630.896532875,walking,2,2022-05-12T10:28:33.798+02:00,2022-05-11T22:15:20.957+02:00,68,0.8826587,0,0,58.386,0,0,2022-05-12T10:28:46.589+02:00,674036931.7002666,0,0.1699982,100.9045,1,0.98
2022-05-12T10:28:54.186+02:00,1652344132.999738,53.22900305041413,10.3984795231469,41.2684,0,0.06,176.484375,22.83087377253518,3,5,-9999,2651.283997375,0.041839599609375,-0.5411529541015625,-0.822235107421875,2651.274002375,2.702625895283694,0.05616539032120834,0.5680197203175057,-0.0213983952999115,-0.007810924202203751,-0.02674928866326809,-0.01201148331165314,-0.002365648746490479,0.01153039932250977,XArbitraryZVertical,-0.03467664807265824,-0.2792457018864297,-0.9382543974850329,-0.2012417227563434,0.04732073843479156,-0.5379638075828552,-0.8416387438774109,0,0,0,-1,-1,2630.896532875,walking,2,2022-05-12T10:28:33.798+02:00,2022-05-11T22:15:20.957+02:00,68,0.8826587,0,0,58.386,0,0,2022-05-12T10:28:46.589+02:00,674036931.7002666,0,0.1699982,100.9045,1,0.98
