loggingTime(txt),locationTimestamp_since1970(s),locationLatitude(WGS84),locationLongitude(WGS84),locationAltitude(m),locationSpeed(m/s),locationSpeedAccuracy(m/s),locationCourse(°),locationCourseAccuracy(°),locationVerticalAccuracy(m),locationHorizontalAccuracy(m),locationFloor(Z),accelerometerTimestamp_sinceReboot(s),accelerometerAccelerationX(G),accelerometerAccelerationY(G),accelerometerAccelerationZ(G),motionTimestamp_sinceReboot(s),motionYaw(rad),motionRoll(rad),motionPitch(rad),motionRotationRateX(rad/s),motionRotationRateY(rad/s),motionRotationRateZ(rad/s),motionUserAccelerationX(G),motionUserAccelerationY(G),motionUserAccelerationZ(G),motionAttitudeReferenceFrame(txt),motionQuaternionX(R),motionQuaternionY(R),motionQuaternionZ(R),motionQuaternionW(R),motionGravityX(G),motionGravityY(G),motionGravityZ(G),motionMagneticFieldX(µT),motionMagneticFieldY(µT),motionMagneticFieldZ(µT),motionHeading(°),motionMagneticFieldCalibrationAccuracy(Z),activityTimestamp_sinceReboot(s),activity(txt),activityActivityConfidence(Z),activityActivityStartDate(txt),pedometerStartDate(txt),pedometerNumberofSteps(N),pedometerAverageActivePace(s/m),pedometerCurrentPace(s/m),pedometerCurrentCadence(steps/s),pedometerDistance(m),pedometerFloorAscended(N),pedometerFloorDescended(N),pedometerEndDate(txt),altimeterTimestamp_sinceReboot(s),altimeterReset(bool),altimeterRelativeAltitude(m),altimeterPressure(kPa),batteryState(N),batteryLevel(R)
2022-05-12T10:29:51.994+02:00,1652344184.408893,53.2291044714425,10.39894161746874,16.80575,0.6,1.65,313.9453125,4.248898465672145,64,30,-9999,2689.563943625,-4.57763671875e-05,-0.673309326171875,-0.7594451904296875,2689.558946625,2.664025339034982,0.01667681611831139,0.6999244251458772,-0.0419536717236042,0.03319017216563225,-0.0435052290558815,-0.003538608551025391,-0.04112797975540161,0.005782186985015869,XArbitraryZVertical,0.07348067047226708,0.3349751020690339,0.9133764176491533,0.2193989582232612,0.01275535393506289,-0.6441598534584045,-0.7647845149040222,0,0,0,-1,-1,2682.955782,walking,2,2022-05-12T10:29:45.372+02:00,2022-05-11T22:15:20.957+02:00,141,0.8256019,0.6590101,1.930207,112.5515,0,0,2022-05-12T10:29:45.372+02:00,674036985.3716435,0,0.07999802,100.9063,1,0.98
2022-05-12T10:29:51.996+02:00,1652344184.408893,53.2291044714425,10.39894161746874,16.80575,0.6,1.65,313.9453125,4.248898465672145,64,30,-9999,2689.573938625,0.009613037109375,-0.67034912109375,-0.760894775390625,2689.568941625,2.663391009466633,0.01749089775217493,0.6994930342954582,-0.04453667253255844,0.04692675545811653,-0.05083824694156647,-0.01342813763767481,-0.02947986125946045,0.00560683012008667,XArbitraryZVertical,0.07316652969217476,0.3348444948722038,0.9134080154830434,0.2195714675228073,0.01338280458003283,-0.643829882144928,-0.7650516629219055,0,0,0,-1,-1,2682.955782,walking,2,2022-05-12T10:29:45.372+02:00,2022-05-11T22:15:20.957+02:00,141,0.8256019,0.6590101,1.930207,112.5515,0,0,2022-05-12T10:29:45.372+02:00,674036985.3716435,0,0.07999802,100.9063,1,0.98
2022-05-12T10:29:52.001+02:00,1652344184.408893,53.2291044714425,10.39894161746874,16.80575,0.6,1.65,313.9453125,4.248898465672145,64,30,-9999,2689.583933625,0.02557373046875,-0.655609130859375,-0.7615814208984375,2689.578936625,2.662736893647229,0.018363516446389,0.6989717664781895,-0.05158785730600357,0.04454069584608078,-0.05241896584630013,-0.00444309413433075,-0.02691864967346191,0.004480719566345215,XArbitraryZVertical,0.07281867652985678,0.3346787493005816,0.9134542762170507,0.219747477956393,0.01405655965209007,-0.6434308886528015,-0.7653751373291016,0,0,0,-1,-1,2682.955782,walking,2,2022-05-12T10:29:45.372+02:00,2022-05-11T22:15:20.957+02:00,141,0.8256019,0.6590101,1.930207,112.5515,0,0,2022-05-12T10:29:45.372+02:00,674036985.3716435,0,0.07999802,100.9063,1,0.98
2022-05-12T10:29:52.011+02:00,1652344184.408893,53.2291044714425,10.39894161746874,16.80575,0.6,1.65,313.9453125,4.248898465672145,64,30,-9999,2689.593928625,0.027862548828125,-0.611358642578125,-0.7663116455078125,2689.588931625,2.662168943396522,0.01908738394647318,0.6985468362099331,-0.02256126329302788,0.0341959148645401,-0.0400664247572422,0.01095837354660034,-0.012503981590271,0.004057049751281738,XArbitraryZVertical,0.07253506096634564,0.3345438816761788,0.9134884364114858,0.2199049071792096,0.01461580395698547,-0.6431055665016174,-0.7656381130218506,0,0,0,-1,-1,2682.955782,walking,2,2022-05-12T10:29:45.372+02:00,2022-05-11T22:15:20.957+02:00,141,0.8256019,0.6590101,1.930207,112.5515,0,0,2022-05-12T10:29:45.372+02:00,674036985.3716435,0,0.07999802,100.9063,1,0.98
2022-05-12T10:29:52.021+02:00,1652344184.408893,53.2291044714425,10.39894161746874,16.80575,0.6,1.65,313.9453125,4.248898465672145,64,30,-9999,2689.603923625,0.0282440185546875,-0.598907470703125,-0.7689056396484375,2689.598926625,2.661732295488148,0.01961676399181311,0.6983560075481011,-0.00886872224509716,0.02432151138782501,-0.03232628107070923,0.01283946540206671,0.03160041570663452,-0.0005583763122558594,XArbitraryZVertical,0.07234469303595165,0.3344993190674219,0.913491004502322,0.2200243249219096,0.01502352114766836,-0.6429594159126282,-0.765752911567688,0,0,0,-1,-1,2682.955782,walking,2,2022-05-12T10:29:45.372+02:00,2022-05-11T22:15:20.957+02:00,141,0.8394551,0.6590101,1.930207,112.5515,0,0,2022-05-12T10:29:50.486+02:00,674036985.3716435,0,0.07999802,100.9063,1,0.98
2022-05-12T10:29:52.031+02:00,1652344184.408893,53.2291044714425,10.39894161746874,16.80575,0.6,1.65,313.9453125,4.248898465672145,64,30,-9999,2689.613918625,0.0335235595703125,-0.6184844970703125,-0.774139404296875,2689.608921625,2.6614199300368,0.01998518741377893,0.6981665908263216,-0.04524430632591248,0.01416821032762527,-0.02914699725806713,0.01293638348579407,0.04390645027160645,-0.003036260604858398,XArbitraryZVertical,0.07220719497333933,0.3344421821390665,0.913501260331716,0.2201139847303435,0.01530807558447123,-0.6428143382072449,-0.7658690810203552,0,0,0,-1,-1,2682.955782,walking,2,2022-05-12T10:29:45.372+02:00,2022-05-11T22:15:20.957+02:00,141,0.8394551,0.6590101,1.930207,112.5515,0,0,2022-05-12T10:29:50.486+02:00,674036985.3716435,0,0.07999802,100.9063,1,0.98
2022-05-12T10:29:52.041+02:00,1652344184.408893,53.2291044714425,10.39894161746874,16.80575,0.6,1.65,313.9453125,4.248898465672145,64,30,-9999,2689.623913625,0.0377349853515625,-0.6152191162109375,-0.770294189453125,2689.618916625,2.661179234374411,0.02026624223741973,0.6976960744174854,-0.03219045698642731,0.02089608833193779,-0.01926926709711552,0.01799453794956207,0.02396893501281738,-0.007972002029418945,XArbitraryZVertical,0.07206569426221794,0.334249891515375,0.9135625375501928,0.2201982630279903,0.01552945375442505,-0.6424538493156433,-0.7661671042442322,0,0,0,-1,-1,2682.955782,walking,2,2022-05-12T10:29:45.372+02:00,2022-05-11T22:15:20.957+02:00,141,0.8394551,0.6590101,1.930207,112.5515,0,0,2022-05-12T10:29:50.486+02:00,674036985.3716435,0,0.07999802,100.9063,1,0.98
2022-05-12T10:29:52.051+02:00,1652344184.408893,53.2291044714425,10.39894161746874,16.80575,0.6,1.65,313.9453125,4.248898465672145,64,30,-9999,2689.633908625,0.0338134765625,-0.5901641845703125,-0.7569580078125,2689.628911625,2.661200309445715,0.0203204887777948,0.6974530932080629,-0.03174677491188049,-0.005005550570785999,0.01558618526905775,0.02216124534606934,0.02704811096191406,-0.003971576690673828,XArbitraryZVertical,0.07200981934219471,0.3341458492311902,0.9136068235000192,0.2201905423097451,0.01557418704032898,-0.642267644405365,-0.7663222551345825,0,0,0,-1,-1,2682.955782,walking,2,2022-05-12T10:29:45.372+02:00,2022-05-11T22:15:20.957+02:00,141,0.8394551,0.6590101,1.930207,112.5515,0,0,2022-05-12T10:29:50.486+02:00,674036985.3716435,0,0.07999802,100.9063,1,0.98
2022-05-12T10:29:52.061+02:00,1652344184.408893,53.2291044714425,10.39894161746874,16.80575,0.6,1.65,313.9453125,4.248898465672145,64,30,-9999,2689.643904625,0.03631591796875,-0.6033935546875,-0.767120361328125,2689.638906625,2.661500016504627,0.02008868363665362,0.6973398648851898,-0.01126659847795963,0.00100906565785408,0.0303287785500288,0.0184158980846405,0.05201625823974609,0.009440898895263672,XArbitraryZVertical,0.07205279714798857,0.3340795111132283,0.9136500925261485,0.2200974529101841,0.01539800968021154,-0.6421808004379272,-0.766398549079895,0,0,0,-1,-1,2682.955782,walking,2,2022-05-12T10:29:45.372+02:00,2022-05-11T22:15:20.957+02:00,141,0.8394551,0.6590101,1.930207,112.5515,0,0,2022-05-12T10:29:50.486+02:00,674036985.3716435,0,0.07999802,100.9063,1,0.98
2022-05-12T10:29:52.071+02:00,1652344192.065081,53.22910396852831,10.3989470657058,16.7352,0.6,1.87,313.9453125,9.474274072261515,64,30,-9999,2689.653899625,0.037384033203125,-0.618072509765625,-0.765533447265625,2689.648901625,2.662077324680748,0.01963513058714057,0.6973843442090866,0.007036774884909391,-0.01486177556216717,0.04885825514793396,0.02126652002334595,0.03882092237472534,-0.0007431507110595703,XArbitraryZVertical,0.07216860195672624,0.3340707243991855,0.9136899003374703,0.2199074614283197,0.01504984404891729,-0.6422148942947388,-0.7663769125938416,0,0,0,-1,-1,2682.955782,walking,2,2022-05-12T10:29:45.372+02:00,2022-05-11T22:15:20.957+02:00,141,0.8394551,0.6590101,1.930207,112.5515,0,0,2022-05-12T10:29:50.486+02:00,674036985.3716435,0,0.07999802,100.9063,1,0.98
2022-05-12T10:29:52.081+02:00,1652344192.065081,53.22910396852831,10.3989470657058,16.7352,0.6,1.87,313.9453125,9.474274072261515,64,30,-9999,2689.663894625,0.0231781005859375,-0.64349365234375,-0.773651123046875,2689.658896625,2.662688000595741,0.01903594304749596,0.6974746075177006,-0.003472690936177969,-0.02131960913538933,0.04308232292532921,0.0227949321269989,0.02421116828918457,0.0007947087287902832,XArbitraryZVertical,0.07235055276067384,0.3340680797831488,0.9137205293388398,0.2197245335091815,0.01458953507244587,-0.642284095287323,-0.7663278579711914,0,0,0,-1,-1,2682.955782,walking,2,2022-05-12T10:29:45.372+02:00,2022-05-11T22:15:20.957+02:00,141,0.8394551,0.6590101,1.930207,112.5515,0,0,2022-05-12T10:29:50.486+02:00,674036985.3716435,0,0.07999802,100.9063,1,0.98
2022-05-12T10:29:52.091+02:00,1652344192.065081,53.22910396852831,10.3989470657058,16.7352,0.6,1.87,313.9453125,9.474274072261515,64,30,-9999,2689.673889625,0.021392822265625,-0.6609039306640625,-0.7739410400390625,2689.668891625,2.66323951693603,0.01848744794336468,0.6973415987757117,-0.03256825730204582,-0.02579531818628311,0.0408354140818119,0.009007751941680908,-0.001311898231506348,-0.00722968578338623,XArbitraryZVertical,0.07249401059387028,0.3339671752684462,0.9137831076716795,0.2195700654255029,0.01417078450322151,-0.6421821713447571,-0.7664210796356201,0,0,0,-1,-1,2682.955782,walking,2,2022-05-12T10:29:45.372+02:00,2022-05-11T22:15:20.957+02:00,141,0.8394551,0.6590101,1.930207,112.5515,0,0,2022-05-12T10:29:50.486+02:00,674036985.3716435,0,0.07999802,100.9063,1,0.98
2022-05-12T10:29:52.101+02:00,1652344192.065081,53.22910396852831,10.3989470657058,16.7352,0.6,1.87,313.9453125,9.474274072261515,64,30,-9999,2689.683884625,0.0176849365234375,-0.6567230224609375,-0.7729949951171875,2689.678886625,2.663740466214978,0.01793018422717187,0.6969349307998401,-0.03762473538517952,-0.02833610586822033,0.03981076180934906,0.007644906640052795,-0.01903396844863892,-0.007250785827636719,XArbitraryZVertical,0.07261915287925769,0.3337386564281621,0.913884967072537,0.2194523568148971,0.01374836545437574,-0.641870379447937,-0.7666899561882019,0,0,0,-1,-1,2682.955782,walking,2,2022-05-12T10:29:45.372+02:00,2022-05-11T22:15:20.957+02:00,141,0.8394551,0.6590101,1.930207,112.5515,0,0,2022-05-12T10:29:50.486+02:00,674036985.3716435,0,0.07999802,100.9063,1,0.98
2022-05-12T10:29:52.111+02:00,1652344192.065081,53.22910396852831,10.3989470657058,16.7352,0.6,1.87,313.9453125,9.474274072261515,64,30,-9999,2689.693879625,0.009552001953125,-0.6471710205078125,-0.770538330078125,2689.688881625,2.664272893961734,0.0173472999663517,0.6965773483199503,-0.0193176344037056,-0.02426359988749027,0.04255408421158791,0.004379912279546261,-0.01512730121612549,-0.006067335605621338,XArbitraryZVertical,0.07275643128023182,0.3335308805229102,0.9139812231017785,0.2193222357809541,0.01330545265227556,-0.6415961384773254,-0.7669273018836975,0,0,0,-1,-1,2682.955782,walking,2,2022-05-12T10:29:45.372+02:00,2022-05-11T22:15:20.957+02:00,141,0.8394551,0.6590101,1.930207,112.5515,0,0,2022-05-12T10:29:50.486+02:00,674036985.3716435,0,0.07999802,100.9063,1,0.98
2022-05-12T10:29:52.121+02:00,1652344192.065081,53.22910396852831,10.3989470657058,16.7352,0.6,1.87,313.9453125,9.474274072261515,64,30,-9999,2689.703874625,0.00311279296875,-0.6480865478515625,-0.7744140625,2689.698876625,2.664766566802117,0.01682138899931604,0.6964531555699762,0.001165070571005344,-0.02362377755343914,0.03977254778146744,-0.003351017832756042,-0.005670547485351562,-0.003524184226989746,XArbitraryZVertical,0.07290048495822812,0.3334345655873259,0.9140365902087829,0.2191897472196981,0.01290345471352339,-0.6415008902549744,-0.7670138478279114,0,0,0,-1,-1,2682.955782,walking,2,2022-05-12T10:29:45.372+02:00,2022-05-11T22:15:20.957+02:00,141,0.8394551,0.6590101,1.930207,112.5515,0,0,2022-05-12T10:29:50.486+02:00,674036985.3716435,0,0.07999802,100.9063,1,0.98
2022-05-12T10:29:52.131+02:00,1652344192.065081,53.22910396852831,10.3989470657058,16.7352,0.6,1.87,313.9453125,9.474274072261515,64,30,-9999,2689.713869625,-0.0064697265625,-0.65936279296875,-0.7800140380859375,2689.708871625,2.665151006454364,0.01640323300539986,0.6965064788274348,0.01580446772277355,-0.01718052476644516,0.02794438414275646,-0.009468927979469299,-0.006545186042785645,-0.007428765296936035,XArbitraryZVertical,0.07303349308044309,0.3334270908954418,0.9140547054152304,0.2190814448393359,0.01258216146379709,-0.6415417790412903,-0.7669849395751953,0,0,0,-1,-1,2682.955782,walking,2,2022-05-12T10:29:45.372+02:00,2022-05-11T22:15:20.957+02:00,141,0.8394551,0.6590101,1.930207,112.5515,0,0,2022-05-12T10:29:50.486+02:00,674036985.3716435,0,0.07999802,100.9063,1,0.98
2022-05-12T10:29:52.141+02:00,1652344192.065081,53.22910396852831,10.3989470657058,16.7352,0.6,1.87,313.9453125,9.474274072261515,64,30,-9999,2689.723864625,-0.011688232421875,-0.6689453125,-0.78466796875,2689.718866625,2.665388357494708,0.01616489466228517,0.6964910962685944,0.001652661710977554,-0.01199142169207335,0.01877465471625328,-0.01886880397796631,-0.01783323287963867,-0.01301592588424683,XArbitraryZVertical,0.07310112306562783,0.33340265588791,0.9140744912662147,0.219013345701997,0.01239951886236668,-0.6415299773216248,-0.7669978141784668,0,0,0,-1,-1,2682.955782,walking,2,2022-05-12T10:29:45.372+02:00,2022-05-11T22:15:20.957+02:00,141,0.8394551,0.6590101,1.930207,112.5515,0,0,2022-05-12T10:29:50.486+02:00,674036985.3716435,0,0.07999802,100.9063,1,0.98
2022-05-12T10:29:52.151+02:00,1652344192.065081,53.22910396852831,10.3989470657058,16.7352,0.6,1.87,313.9453125,9.474274072261515,64,30,-9999,2689.733859625,-0.00958251953125,-0.6691741943359375,-0.789276123046875,2689.728861625,2.665466335910683,0.01608240929396018,0.6963233159366511,-0.017022754997015,-0.01001881808042526,0.006944360211491585,-0.02402576804161072,-0.02754449844360352,-0.01756119728088379,XArbitraryZVertical,0.07310700510683464,0.3333198950958798,0.9141076904610742,0.2189988305472877,0.01233798358589411,-0.6414012312889099,-0.7671064138412476,0,0,0,-1,-1,2682.955782,walking,2,2022-05-12T10:29:45.372+02:00,2022-05-11T22:15:20.957+02:00,141,0.8394551,0.6590101,1.930207,112.5515,0,0,2022-05-12T10:29:50.486+02:00,674036985.3716435,0,0.07999802,100.9063,1,0.98
2022-05-12T10:29:52.161+02:00,1652344192.065081,53.22910396852831,10.3989470657058,16.7352,0.6,1.87,313.9453125,9.474274072261515,64,30,-9999,2689.743854625,-0.0120697021484375,-0.6626434326171875,-0.7899169921875,2689.738856625,2.665479125826147,0.0160904299330618,0.6960618906568786,-0.02263759821653366,-0.0006990192923694849,0.007157612591981888,-0.02192892134189606,-0.02797394990921021,-0.02200186252593994,XArbitraryZVertical,0.07307188809712087,0.3332019062087823,0.9141525133726336,0.2190031499499309,0.01234683394432068,-0.6412006616592407,-0.7672739624977112,0,0,0,-1,-1,2682.955782,walking,2,2022-05-12T10:29:45.372+02:00,2022-05-11T22:15:20.957+02:00,141,0.8394551,0.6590101,1.930207,112.5515,0,0,2022-05-12T10:29:50.486+02:00,674036985.3716435,0,0.07999802,100.9063,1,0.98
2022-05-12T10:29:52.171+02:00,1652344192.065081,53.22910396852831,10.3989470657058,16.7352,0.6,1.87,313.9453125,9.474274072261515,64,30,-9999,2689.753849625,-0.01165771484375,-0.65228271484375,-0.7869110107421875,2689.748851625,2.665575332292761,0.01606992343329591,0.6958686932020901,-0.01545585133135319,0.002855501603335142,0.009495867416262627,-0.02440235018730164,-0.0215914249420166,-0.02251863479614258,XArbitraryZVertical,0.07304356470199436,0.3331150014382241,0.9141941160705426,0.2189710510548093,0.0123330894857645,-0.6410524249076843,-0.7673980593681335,0,0,0,-1,-1,2682.955782,walking,2,2022-05-12T10:29:45.372+02:00,2022-05-11T22:15:20.957+02:00,141,0.8394551,0.6590101,1.930207,112.5515,0,0,2022-05-12T10:29:50.486+02:00,674036985.3716435,0,0.07999802,100.9063,1,0.98
2022-05-12T10:29:52.181+02:00,1652344192.065081,53.22910396852831,10.3989470657058,16.7352,0.6,1.87,313.9453125,9.474274072261515,64,30,-9999,2689.763844625,-0.0098419189453125,-0.64398193359375,-0.787384033203125,2689.758846625,2.665699716672115,0.01608524482980111,0.6958453768382339,0.002085892017930746,0.0108698196709156,0.01160076353698969,-0.02400235831737518,-0.01124864816665649,-0.01949787139892578,XArbitraryZVertical,0.07301323359169255,0.3331105596085284,0.9142121737873252,0.2189126973240617,0.01234508864581585,-0.6410344839096069,-0.7674128413200378,0,0,0,-1,-1,2682.955782,walking,2,2022-05-12T10:29:45.372+02:00,2022-05-11T22:15:20.957+02:00,141,0.8394551,0.6590101,1.930207,112.5515,0,0,2022-05-12T10:29:50.486+02:00,674036985.3716435,0,0.07999802,100.9063,1,0.98
2022-05-12T10:29:52.191+02:00,1652344192.065081,53.22910396852831,10.3989470657058,16.7352,0.6,1.87,313.9453125,9.474274072261515,64,30,-9999,2689.773839625,-0.0087127685546875,-0.643707275390625,-0.7821502685546875,2689.768841625,2.665853235085414,0.01612876151536538,0.6959981558065973,0.02272325940430164,0.0119760949164629,0.01399015169590712,-0.02221837639808655,-0.002830564975738525,-0.02006936073303223,XArbitraryZVertical,0.07298489563919158,0.3331906670526814,0.9142053752408293,0.2188285656522164,0.01237690355628729,-0.6411517858505249,-0.7673143744468689,0,0,0,-1,-1,2682.955782,walking,2,2022-05-12T10:29:45.372+02:00,2022-05-11T22:15:20.957+02:00,141,0.8394551,0.6590101,1.930207,112.5515,0,0,2022-05-12T10:29:50.486+02:00,674036985.3716435,0,0.07999802,100.9063,1,0.98
2022-05-12T10:29:52.201+02:00,1652344192.065081,53.22910396852831,10.3989470657058,16.7352,0.6,1.87,313.9453125,9.474274072261515,64,30,-9999,2689.783834625,-0.003997802734375,-0.646026611328125,-0.779144287109375,2689.778836625,2.666070697860197,0.01612614145546725,0.6963079479506826,0.03662952035665512,0.01887295208871365,0.020308967679739,-0.0210840255022049,-0.002318203449249268,-0.01503419876098633,XArbitraryZVertical,0.0729845614871384,0.3333397680688964,0.9141778926471619,0.2187159289548075,0.01237168908119202,-0.6413894891738892,-0.7671157121658325,0,0,0,-1,-1,2682.955782,walking,2,2022-05-12T10:29:45.372+02:00,2022-05-11T22:15:20.957+02:00,141,0.8394551,0.6590101,1.930207,112.5515,0,0,2022-05-12T10:29:50.486+02:00,674036985.3716435,0,0.07999802,100.9063,1,0.98
2022-05-12T10:29:52.211+02:00,1652344192.065081,53.22910396852831,10.3989470657058,16.7352,0.6,1.87,313.9453125,9.474274072261515,64,30,-9999,2689.793829625,0.006927490234375,-0.6526947021484375,-0.7742919921875,2689.788831625,2.666397386626131,0.01609393732741181,0.6967228744417679,0.03900638967752457,0.01673656329512596,0.02632850781083107,-0.01634007692337036,-0.004319250583648682,-0.01229405403137207,XArbitraryZVertical,0.0729912809726064,0.3335375663866341,0.9141439706240703,0.2185537610761186,0.01234270073473454,-0.6417077779769897,-0.7668499350547791,0,0,0,-1,-1,2682.955782,walking,2,2022-05-12T10:29:45.372+02:00,2022-05-11T22:15:20.957+02:00,141,0.8394551,0.6590101,1.930207,112.5515,0,0,2022-05-12T10:29:50.486+02:00,674036985.3716435,0,0.07999802,100.9063,1,0.98
2022-05-12T10:29:52.221+02:00,1652344192.065081,53.22910396852831,10.3989470657058,16.7352,0.6,1.87,313.9453125,9.474274072261515,64,30,-9999,2689.803824625,0.006805419921875,-0.6495819091796875,-0.7718963623046875,2689.798826625,2.6668268779653,0.01596365207251409,0.6970843352292632,0.0273381844162941,0.01925145089626312,0.03223187476396561,-0.005311161279678345,-0.01071017980575562,-0.00767207145690918,XArbitraryZVertical,0.07301963829259819,0.3337039539856037,0.9141265578974961,0.2183634143988466,0.01223908830434084,-0.6419849395751953,-0.7666196227073669,0,0,0,-1,-1,2682.955782,walking,2,2022-05-12T10:29:45.372+02:00,2022-05-11T22:15:20.957+02:00,141,0.8394551,0.6590101,1.930207,112.5515,0,0,2022-05-12T10:29:50.486+02:00,674036985.3716435,0,0.07999802,100.9063,1,0.98
2022-05-12T10:29:52.231+02:00,1652344192.065081,53.22910396852831,10.3989470657058,16.7352,0.6,1.87,313.9453125,9.474274072261515,64,30,-9999,2689.813819625,0.0053558349609375,-0.65325927734375,-0.7752838134765625,2689.808821625,2.667325943064929,0.0157589989405044,0.6973660721489008,0.02324570529162884,0.01447427365928888,0.03629319369792938,-0.005273491144180298,-0.007381439208984375,-0.005454778671264648,XArbitraryZVertical,0.0730613860990515,0.3338284102926856,0.9141270855059269,0.2181571823172034,0.01207934692502022,-0.6422008872032166,-0.7664412260055542,0,0,0,-1,-1,2682.955782,walking,2,2022-05-12T10:29:45.372+02:00,2022-05-11T22:15:20.957+02:00,141,0.8394551,0.6590101,1.930207,112.5515,0,0,2022-05-12T10:29:50.486+02:00,674036985.3716435,0,0.07999802,100.9063,1,0.98
2022-05-12T10:29:52.241+02:00,1652344192.065081,53.22910396852831,10.3989470657058,16.7352,0.6,1.87,313.9453125,9.474274072261515,64,30,-9999,2689.823814625,-0.0001983642578125,-0.6507110595703125,-0.772552490234375,2689.818816625,2.667789830058913,0.0155983894230281,0.6975085171179574,0.006443189457058907,0.01841022819280624,0.02623969689011574,-0.006598547101020813,-0.01094955205917358,-0.008931875228881836,XArbitraryZVertical,0.07307325217739991,0.3338929030530748,0.9141481773611945,0.2179656716916026,0.01195482164621353,-0.6423100829124451,-0.7663516402244568,0,0,0,-1,-1,2682.955782,walking,2,2022-05-12T10:29:45.372+02:00,2022-05-11T22:15:20.957+02:00,141,0.8394551,0.6590101,1.930207,112.5515,0,0,2022-05-12T10:29:50.486+02:00,674036985.3716435,0,0.07999802,100.9063,1,0.98
2022-05-12T10:29:52.250+02:00,1652344192.065081,53.22910396852831,10.3989470657058,16.7352,0.6,1.87,313.9453125,9.474274072261515,64,30,-9999,2689.833809625,-0.003448486328125,-0.6426239013671875,-0.7709197998046875,2689.828812625,2.668125756988359,0.01550952107205005,0.6975138109833764,-0.01233742199838161,0.01963288336992264,0.0148312458768487,-0.01208458840847015,-0.008397340774536133,-0.006202816963195801,XArbitraryZVertical,0.07305838064213566,0.3338979092317985,0.914180655962736,0.2178267318663664,0.01188666373491287,-0.6423141360282898,-0.7663493156433105,0,0,0,-1,-1,2682.955782,walking,2,2022-05-12T10:29:45.372+02:00,2022-05-11T22:15:20.957+02:00,141,0.8394551,0.6590101,1.930207,112.5515,0,0,2022-05-12T10:29:50.486+02:00,674036985.3716435,0,0.07999802,100.9063,1,0.98
2022-05-12T10:29:52.261+02:00,1652344192.065081,53.22910396852831,10.3989470657058,16.7352,0.6,1.87,313.9453125,9.474274072261515,64,30,-9999,2689.843804625,-0.0059051513671875,-0.6323699951171875,-0.765289306640625,2689.838807625,2.668339638792653,0.01549072637884128,0.6974164135727454,-0.005173552315682173,0.01305507682263851,0.008212024345993996,-0.015321284532547,-0.0003848075866699219,-0.004507362842559814,XArbitraryZVertical,0.07302041415630102,0.3338591944126507,0.9142193951366927,0.217736384452545,0.01187323033809662,-0.642239511013031,-0.7664121389389038,0,0,0,-1,-1,2682.955782,walking,2,2022-05-12T10:29:45.372+02:00,2022-05-11T22:15:20.957+02:00,141,0.8394551,0.6590101,1.930207,112.5515,0,0,2022-05-12T10:29:50.486+02:00,674036985.3716435,0,0.07999802,100.9063,1,0.98
2022-05-12T10:29:52.271+02:00,1652344192.065081,53.22910396852831,10.3989470657058,16.7352,0.6,1.87,313.9453125,9.474274072261515,64,30,-9999,2689.853799625,-0.002532958984375,-0.6343231201171875,-0.7583770751953125,2689.848802625,2.668514187121187,0.01545035274768799,0.6973185767734528,-0.007293428760021925,0.01101323030889034,0.01191621460020542,-0.01774796843528748,0.009794116020202637,0.00118643045425415,XArbitraryZVertical,0.0729988316613888,0.3338165165799784,0.9142530688377525,0.2176675843397507,0.01184325758367777,-0.6421645283699036,-0.7664753794670105,0,0,0,-1,-1,2682.955782,walking,2,2022-05-12T10:29:45.372+02:00,2022-05-11T22:15:20.957+02:00,141,0.8394551,0.6590101,1.930207,112.5515,0,0,2022-05-12T10:29:50.486+02:00,674036985.3716435,0,0.07999802,100.9063,1,0.98
2022-05-12T10:29:52.281+02:00,1652344192.065081,53.22910396852831,10.3989470657058,16.7352,0.6,1.87,313.9453125,9.474274072261515,64,30,-9999,2689.863794625,0.0041656494140625,-0.6389923095703125,-0.7516937255859375,2689.858797625,2.668690724898273,0.01540795598246948,0.6972920511948921,0.007619174662977457,0.01001447811722755,0.007219797931611538,-0.01434354484081268,0.007820606231689453,0.008116185665130615,XArbitraryZVertical,0.07298579360273244,0.3338062342352098,0.9142751194671789,0.2175951190426878,0.01181102450937033,-0.6421442031860352,-0.7664929628372192,0,0,0,-1,-1,2682.955782,walking,2,2022-05-12T10:29:45.372+02:00,2022-05-11T22:15:20.957+02:00,141,0.8394551,0.6590101,1.930207,112.5515,0,0,2022-05-12T10:29:50.486+02:00,674036985.3716435,0,0.07999802,100.9063,1,0.98
2022-05-12T10:29:52.291+02:00,1652344192.065081,53.22910396852831,10.3989470657058,16.7352,0.6,1.87,313.9453125,9.474274072261515,64,30,-9999,2689.873789625,0.005340576171875,-0.6306915283203125,-0.7518768310546875,2689.868792625,2.668783151859502,0.01535416098606196,0.6973615795381274,0.007014903239905834,0.001797028351575136,-0.0009523788467049599,-0.00760301947593689,0.003204762935638428,0.01475554704666138,XArbitraryZVertical,0.07300270518517313,0.3338354710393584,0.9142717800527382,0.2175588646656188,0.01176910568028688,-0.6421974897384644,-0.766448974609375,0,0,0,-1,-1,2682.955782,walking,2,2022-05-12T10:29:45.372+02:00,2022-05-11T22:15:20.957+02:00,141,0.8394551,0.6590101,1.930207,112.5515,0,0,2022-05-12T10:29:50.486+02:00,674036985.3716435,0,0.07999802,100.9063,1,0.98
2022-05-12T10:29:52.301+02:00,1652344192.065081,53.22910396852831,10.3989470657058,16.7352,0.6,1.87,313.9453125,9.474274072261515,64,30,-9999,2689.883784625,3.0517578125e-05,-0.63629150390625,-0.7539520263671875,2689.878787625,2.66877018914089,0.01532654827589168,0.6974580625102115,0.008508170954883099,-0.004585437010973692,-0.003033705521374941,-0.00640597939491272,0.01157951354980469,0.01451075077056885,XArbitraryZVertical,0.07302822169173384,0.333876092690002,0.9142533028685842,0.2175651090524438,0.01174699142575264,-0.6422713994979858,-0.7663872838020325,0,0,0,-1,-1,2682.955782,walking,2,2022-05-12T10:29:45.372+02:00,2022-05-11T22:15:20.957+02:00,141,0.8394551,0.6590101,1.930207,112.5515,0,0,2022-05-12T10:29:50.486+02:00,674036985.3716435,0,0.07999802,100.9063,1,0.98
2022-05-12T10:29:52.311+02:00,1652344192.065081,53.22910396852831,10.3989470657058,16.7352,0.6,1.87,313.9453125,9.474274072261515,64,30,-9999,2689.893779625,0.001861572265625,-0.6482696533203125,-0.755401611328125,2689.888782625,2.668784542838166,0.01517043868176567,0.6974877050903824,-0.003171654883772135,-0.01655874401330948,0.002140017226338387,-0.01159611344337463,0.006002247333526611,0.01241832971572876,XArbitraryZVertical,0.07310048499726732,0.3338731751414724,0.9142442437461945,0.2175833037790983,0.01162706129252911,-0.64229416847229,-0.7663700580596924,0,0,0,-1,-1,2682.955782,walking,2,2022-05-12T10:29:45.372+02:00,2022-05-11T22:15:20.957+02:00,141,0.8394551,0.6590101,1.930207,112.5515,0,0,2022-05-12T10:29:50.486+02:00,674036985.3716435,0,0.07999802,100.9063,1,0.98
2022-05-12T10:29:52.321+02:00,1652344192.065081,53.22910396852831,10.3989470657058,16.7352,0.6,1.87,313.9453125,9.474274072261515,64,30,-9999,2689.903774625,0.007080078125,-0.6600189208984375,-0.759552001953125,2689.898777625,2.668830763384901,0.01489761285408872,0.6973828460507223,-0.01890581101179123,-0.02441253699362278,-0.002260456793010235,-0.009556964039802551,-0.006056308746337891,0.01103925704956055,XArbitraryZVertical,0.0732058170894046,0.3337973029198052,0.9142566427823449,0.2176122860342977,0.01141897961497307,-0.642213761806488,-0.7664405107498169,0,0,0,-1,-1,2682.955782,walking,2,2022-05-12T10:29:45.372+02:00,2022-05-11T22:15:20.957+02:00,141,0.8394551,0.6590101,1.930207,112.5515,0,0,2022-05-12T10:29:50.486+02:00,674036985.3716435,0,0.07999802,100.9063,1,0.98
2022-05-12T10:29:52.333+02:00,1652344192.065081,53.22910396852831,10.3989470657058,16.7352,0.6,1.87,313.9453125,9.474274072261515,64,30,-9999,2689.913769625,-0.0023956298828125,-0.650054931640625,-0.7637939453125,2689.908772625,2.668826612319025,0.01458486173528699,0.6971725236876067,-0.02809930965304375,-0.03192105144262314,-0.006307129748165607,-0.004100725054740906,-0.01796680688858032,0.00702744722366333,XArbitraryZVertical,0.07332607500259178,0.3336671016979075,0.914279474109442,0.2176754809117451,0.01118124276399612,-0.6420525312423706,-0.7665790915489197,0,0,0,-1,-1,2682.955782,walking,2,2022-05-12T10:29:45.372+02:00,2022-05-11T22:15:20.957+02:00,141,0.8394551,0.6590101,1.930207,112.5515,0,0,2022-05-12T10:29:50.486+02:00,674036985.3716435,0,0.07999802,100.9063,1,0.98
2022-05-12T10:29:52.350+02:00,1652344192.065081,53.22910396852831,10.3989470657058,16.7352,0.6,1.87,313.9453125,9.474274072261515,64,30,-9999,2689.923764625,-0.0077056884765625,-0.6480865478515625,-0.7683563232421875,2689.918767625,2.668847187184742,0.01417604463386517,0.6968283623629312,-0.03764414414763451,-0.03680435940623283,-0.004316550213843584,-0.01326617691665888,-0.008266627788543701,0.003010928630828857,XArbitraryZVertical,0.07347125067018581,0.33346621043166,0.9143235847669691,0.2177491652999238,0.01087098382413387,-0.64178866147995,-0.7668045163154602,0,0,0,-1,-1,2682.955782,walking,2,2022-05-12T10:29:45.372+02:00,2022-05-11T22:15:20.957+02:00,141,0.8394551,0.6590101,1.930207,112.5515,0,0,2022-05-12T10:29:50.486+02:00,674036985.3716435,0,0.07999802,100.9063,1,0.98
2022-05-12T10:29:52.351+02:00,1652344192.065081,53.22910396852831,10.3989470657058,16.7352,0.6,1.87,313.9453125,9.474274072261515,64,30,-9999,2689.933759625,-0.0066680908203125,-0.6374053955078125,-0.7706146240234375,2689.928762625,2.668821348557183,0.01380385730342414,0.696489162707741,-0.0262623243033886,-0.03025458008050919,-0.01116460282355547,-0.01829385757446289,-0.006558477878570557,-0.00132983922958374,XArbitraryZVertical,0.07360799208404098,0.3332698189536948,0.914363166103053,0.2178377063379131,0.01058859284967184,-0.6415284872055054,-0.7670261859893799,0,0,0,-1,-1,2682.955782,walking,2,2022-05-12T10:29:45.372+02:00,2022-05-11T22:15:20.957+02:00,141,0.8394551,0.6590101,1.930207,112.5515,0,0,2022-05-12T10:29:50.486+02:00,674036985.3716435,0,0.07999802,100.9063,1,0.98
2022-05-12T10:29:52.361+02:00,1652344192.065081,53.22910396852831,10.3989470657058,16.7352,0.6,1.87,313.9453125,9.474274072261515,64,30,-9999,2689.943754625,-0.0119476318359375,-0.63519287109375,-0.77520751953125,2689.938757625,2.668720998726228,0.01349187377779348,0.6963268155486841,-0.009481316432356834,-0.02845368534326553,-0.01917572319507599,-0.01701834797859192,0.003998160362243652,-0.003480732440948486,XArbitraryZVertical,0.07374928219097324,0.333158036456182,0.9143674621557941,0.2179424911577041,0.01035069674253464,-0.6414039134979248,-0.7671335339546204,0,0,0,-1,-1,2682.955782,walking,2,2022-05-12T10:29:45.372+02:00,2022-05-11T22:15:20.957+02:00,141,0.8394551,0.6590101,1.930207,112.5515,0,0,2022-05-12T10:29:50.486+02:00,674036985.3716435,0,0.07999802,100.9063,1,0.98
2022-05-12T10:29:52.371+02:00,1652344192.065081,53.22910396852831,10.3989470657058,16.7352,0.6,1.87,313.9453125,9.474274072261515,64,30,-9999,2689.953749625,-0.0155181884765625,-0.622528076171875,-0.7804718017578125,2689.948752625,2.668492064627993,0.01337064254931684,0.6963938752704746,0.01094486378133297,-0.02289167419075966,-0.01783562079071999,-0.02220432460308075,0.006262123584747314,-0.008115410804748535,XArbitraryZVertical,0.07385030420533353,0.3331669814406831,0.9143269958124656,0.2180644887293876,0.01025712117552757,-0.6414554119110107,-0.7670918107032776,0,0,0,-1,-1,2682.955782,walking,2,2022-05-12T10:29:45.372+02:00,2022-05-11T22:15:20.957+02:00,141,0.8394551,0.6590101,1.930207,112.5515,0,0,2022-05-12T10:29:50.486+02:00,674036985.3716435,0,0.07999802,100.9063,1,0.98
2022-05-12T10:29:52.381+02:00,1652344192.065081,53.22910396852831,10.3989470657058,16.7352,0.6,1.87,313.9453125,9.474274072261515,64,30,-9999,2689.963744625,-0.006072998046875,-0.6324920654296875,-0.7827911376953125,2689.958747625,2.668322412010781,0.01326646472268353,0.6965167914871631,0.01080105267465115,-0.01759544387459755,-0.01214710995554924,-0.02569390833377838,0.01902121305465698,-0.01345741748809814,XArbitraryZVertical,0.07393986597431905,0.3332054898441688,0.914284322704905,0.2181540912682642,0.01017616130411625,-0.6415497064590454,-0.7670139670372009,0,0,0,-1,-1,2682.955782,walking,2,2022-05-12T10:29:45.372+02:00,2022-05-11T22:15:20.957+02:00,141,0.8394551,0.6590101,1.930207,112.5515,0,0,2022-05-12T10:29:50.486+02:00,674036985.3716435,0,0.07999802,100.9063,1,0.98
2022-05-12T10:29:52.391+02:00,1652344192.065081,53.22910396852831,10.3989470657058,16.7352,0.6,1.87,313.9453125,9.474274072261515,64,30,-9999,2689.973739625,-0.0016937255859375,-0.6402587890625,-0.7806396484375,2689.968742625,2.668217699188629,0.01310548719252789,0.6966240365871249,0.006265689618885517,-0.02115396037697792,-0.0134014580398798,-0.01612433791160583,0.009139478206634521,-0.01584392786026001,XArbitraryZVertical,0.074042839263493,0.3332330017664533,0.914249278165143,0.2182242027645247,0.01005178783088923,-0.6416319608688354,-0.7669468522071838,0,0,0,-1,-1,2682.955782,walking,2,2022-05-12T10:29:45.372+02:00,2022-05-11T22:15:20.957+02:00,141,0.8394551,0.6590101,1.930207,112.5515,0,0,2022-05-12T10:29:50.486+02:00,674036985.3716435,0,0.07999802,100.9063,1,0.98
2022-05-12T10:29:52.401+02:00,1652344192.065081,53.22910396852831,10.3989470657058,16.7352,0.6,1.87,313.9453125,9.474274072261515,64,30,-9999,2689.983734625,-0.0055389404296875,-0.6399993896484375,-0.783416748046875,2689.978737625,2.66808287314699,0.01291758436774719,0.6966317249200583,-0.0124437166377902,-0.02662788890302181,-0.0146211190149188,-0.01160089671611786,0.001378655433654785,-0.01369547843933105,XArbitraryZVertical,0.07415205824536027,0.3332109824939217,0.9142263939509899,0.218316859197256,0.009907612577080727,-0.6416378617286682,-0.7669438123703003,0,0,0,-1,-1,2682.955782,walking,2,2022-05-12T10:29:45.372+02:00,2022-05-11T22:15:20.957+02:00,141,0.8394551,0.6590101,1.930207,112.5515,0,0,2022-05-12T10:29:50.486+02:00,674036985.3716435,0,0.07999802,100.9063,1,0.98
2022-05-12T10:29:52.411+02:00,1652344192.065081,53.22910396852831,10.3989470657058,16.7352,0.6,1.87,313.9453125,9.474274072261515,64,30,-9999,2689.993729625,-0.009063720703125,-0.6399383544921875,-0.7840423583984375,2689.988732625,2.667911873673242,0.01274545539857147,0.6965229018786838,-0.02232084795832634,-0.02559511549770832,-0.01382190454751253,-0.015314981341362,0.001554548740386963,-0.01640117168426514,XArbitraryZVertical,0.07424710101544582,0.3331362125055104,0.9142191865741928,0.218428275514862,0.009776487946510315,-0.6415543556213379,-0.767015278339386,0,0,0,-1,-1,2682.955782,walking,2,2022-05-12T10:29:45.372+02:00,2022-05-11T22:15:20.957+02:00,141,0.8394551,0.6590101,1.930207,112.5515,0,0,2022-05-12T10:29:50.486+02:00,674036985.3716435,0,0.07999802,100.9063,1,0.98
2022-05-12T10:29:52.421+02:00,1652344192.065081,53.22910396852831,10.3989470657058,16.7352,0.6,1.87,313.9453125,9.474274072261515,64,30,-9999,2690.003724625,-0.0070648193359375,-0.6374969482421875,-0.7801361083984375,2689.998727625,2.66777573579236,0.01252763739808316,0.6963167338254003,-0.02600193582475185,-0.02646024152636528,-0.01871346682310104,-0.0186743438243866,0.001457452774047852,-0.01689237356185913,XArbitraryZVertical,0.07434639267511127,0.3330131927413817,0.9142303372727317,0.2185356826331448,0.00961107574403286,-0.6413962244987488,-0.7671496272087097,0,0,0,-1,-1,2682.955782,walking,2,2022-05-12T10:29:45.372+02:00,2022-05-11T22:15:20.957+02:00,141,0.8394551,0.6590101,1.930207,112.5515,0,0,2022-05-12T10:29:50.486+02:00,674036985.3716435,0,0.07999802,100.9063,1,0.98
2022-05-12T10:29:52.431+02:00,1652344192.065081,53.22910396852831,10.3989470657058,16.7352,0.6,1.87,313.9453125,9.474274072261515,64,30,-9999,2690.013719625,-0.0138397216796875,-0.6388397216796875,-0.769256591796875,2690.008722625,2.667611264422857,0.01232259005060119,0.6960845738214847,-0.02443759329617023,-0.01922363415360451,-0.01621781662106514,-0.01651999354362488,0.003720700740814209,-0.01283526420593262,XArbitraryZVertical,0.07444165405892061,0.3328786393051561,0.9142430978072369,0.2186549808077879,0.009455608204007149,-0.6412180662155151,-0.7673004865646362,0,0,0,-1,-1,2682.955782,walking,2,2022-05-12T10:29:45.372+02:00,2022-05-11T22:15:20.957+02:00,141,0.8394551,0.6590101,1.930207,112.5515,0,0,2022-05-12T10:29:50.486+02:00,674036985.3716435,0,0.07999802,100.9063,1,0.98
2022-05-12T10:29:52.441+02:00,1652344192.065081,53.22910396852831,10.3989470657058,16.7352,0.6,1.87,313.9453125,9.474274072261515,64,30,-9999,2690.023715625,-0.0083770751953125,-0.642974853515625,-0.770843505859375,2690.018717625,2.66749467870008,0.01218476685649477,0.6958545544171766,-0.01618788577616215,-0.01344237849116325,-0.01286043785512447,-0.0231909304857254,0.002201378345489502,-0.001807034015655518,XArbitraryZVertical,0.07449843276847838,0.3327542170223234,0.9142631286828956,0.2187410192679421,0.009351653046905994,-0.6410415768623352,-0.7674492001533508,0,0,0,-1,-1,2682.955782,walking,2,2022-05-12T10:29:45.372+02:00,2022-05-11T22:15:20.957+02:00,141,0.8394551,0.6590101,1.930207,112.5515,0,0,2022-05-12T10:29:50.486+02:00,674036985.3716435,0,0.07999802,100.9063,1,0.98
2022-05-12T10:29:52.451+02:00,1652344192.065081,53.22910396852831,10.3989470657058,16.7352,0.6,1.87,313.9453125,9.474274072261515,64,30,-9999,2690.033710625,0.000396728515625,-0.63922119140625,-0.775909423828125,2690.028712625,2.667413738638932,0.01204478775178597,0.695658846780952,-0.01536896452307701,-0.009673738852143288,-0.01386844366788864,-0.01762236654758453,-0.002083897590637207,-0.003267168998718262,XArbitraryZVertical,0.07455409318400785,0.3326464839944502,0.9142814302798143,0.2188097426527945,0.009245737455785275,-0.6408913135528564,-0.7675759792327881,0,0,0,-1,-1,2682.955782,walking,2,2022-05-12T10:29:45.372+02:00,2022-05-11T22:15:20.957+02:00,141,0.8394551,0.6590101,1.930207,112.5515,0,0,2022-05-12T10:29:50.486+02:00,674036985.3716435,0,0.07999802,100.9063,1,0.98
2022-05-12T10:29:52.461+02:00,1652344192.065081,53.22910396852831,10.3989470657058,16.7352,0.6,1.87,313.9453125,9.474274072261515,64,30,-9999,2690.043705625,-0.0006866455078125,-0.638397216796875,-0.7870330810546875,2690.038707625,2.667345625074516,0.01190965183549926,0.6954130771272322,-0.01829304918646812,-0.009291974827647209,-0.009931093081831932,-0.008746713399887085,0.001481056213378906,-0.008174419403076172,XArbitraryZVertical,0.0745998080039704,0.3325169650465032,0.9143093876356049,0.2188737866556881,0.009143885225057602,-0.6407026648521423,-0.7677346467971802,0,0,0,-1,-1,2682.955782,walking,2,2022-05-12T10:29:45.372+02:00,2022-05-11T22:15:20.957+02:00,141,0.8394551,0.6590101,1.930207,112.5515,0,0,2022-05-12T10:29:50.486+02:00,674036985.3716435,0,0.07999802,100.9063,1,0.98
2022-05-12T10:29:52.471+02:00,1652344192.065081,53.22910396852831,10.3989470657058,16.7352,0.6,1.87,313.9453125,9.474274072261515,64,30,-9999,2690.053700625,-0.0027008056640625,-0.632781982421875,-0.792816162109375,2690.048702625,2.667305520283378,0.01178841162812554,0.6952057021523117,-0.01239175163209438,-0.008791300468146801,-0.00672810897231102,-0.009738579392433167,0.002145826816558838,-0.01916408538818359,XArbitraryZVertical,0.07463880155042342,0.3324074729744033,0.9143347216693862,0.2189211712712185,0.009052370674908161,-0.6405434012413025,-0.7678686380386353,0,0,0,-1,-1,2682.955782,walking,2,2022-05-12T10:29:45.372+02:00,2022-05-11T22:15:20.957+02:00,141,0.8394551,0.6590101,1.930207,112.5515,0,0,2022-05-12T10:29:50.486+02:00,674036985.3716435,0,0.07999802,100.9063,1,0.98
2022-05-12T10:29:52.481+02:00,1652344192.065081,53.22910396852831,10.3989470657058,16.7352,0.6,1.87,313.9453125,9.474274072261515,64,30,-9999,2690.063695625,0.000457763671875,-0.636077880859375,-0.788970947265625,2690.058697625,2.667257116884381,0.01170755781997129,0.6951323819617045,0.003102054353803396,-0.007828967645764351,-0.009704858064651489,-0.01169119868427515,0.007704734802246094,-0.02489948272705078,XArbitraryZVertical,0.07467563909466478,0.3323633373016677,0.914338478429551,0.2189598545344283,0.008990835398435593,-0.6404871344566345,-0.7679163217544556,0,0,0,-1,-1,2682.955782,walking,2,2022-05-12T10:29:45.372+02:00,2022-05-11T22:15:20.957+02:00,141,0.8394551,0.6590101,1.930207,112.5515,0,0,2022-05-12T10:29:50.486+02:00,674036985.3716435,0,0.07999802,100.9063,1,0.98
2022-05-12T10:29:52.491+02:00,1652344192.065081,53.22910396852831,10.3989470657058,16.7352,0.6,1.87,313.9453125,9.474274072261515,64,30,-9999,2690.073690625,0.0029449462890625,-0.638763427734375,-0.7784881591796875,2690.068692625,2.667173379277072,0.01160140410528365,0.6951719096898915,0.01342899352312088,-0.0101536400616169,-0.01447431370615959,-0.008450821042060852,0.004439175128936768,-0.02107864618301392,XArbitraryZVertical,0.0747424930041469,0.3323666183991708,0.9143188708215078,0.2190141254236262,0.008909025229513645,-0.6405174732208252,-0.7678920030593872,0,0,0,-1,-1,2682.955782,walking,2,2022-05-12T10:29:45.372+02:00,2022-05-11T22:15:20.957+02:00,141,0.8394551,0.6590101,1.930207,112.5515,0,0,2022-05-12T10:29:50.486+02:00,674036985.3716435,0,0.07999802,100.9063,1,0.98
2022-05-12T10:29:52.501+02:00,1652344192.065081,53.22910396852831,10.3989470657058,16.7352,0.6,1.87,313.9453125,9.474274072261515,64,30,-9999,2690.083685625,0.0034027099609375,-0.6391448974609375,-0.774169921875,2690.078687625,2.667009681967147,0.01154207914587615,0.6953275684622364,0.02594695053994656,-0.0108108427375555,-0.01998259499669075,-0.005916938185691833,0.001873135566711426,-0.01069504022598267,XArbitraryZVertical,0.07481416507973702,0.3324250935966255,0.9142730381665255,0.2190921647921381,0.008862318471074104,-0.6406369805335999,-0.767792820930481,0,0,0,-1,-1,2682.955782,walking,2,2022-05-12T10:29:45.372+02:00,2022-05-11T22:15:20.957+02:00,141,0.8394551,0.6590101,1.930207,112.5515,0,0,2022-05-12T10:29:50.486+02:00,674036985.3716435,0,0.07999802,100.9063,1,0.98
2022-05-12T10:29:52.511+02:00,1652344192.065081,53.22910396852831,10.3989470657058,16.7352,0.6,1.87,313.9453125,9.474274072261515,64,30,-9999,2690.093680625,0.009307861328125,-0.6444244384765625,-0.769287109375,2690.088682625,2.666820681929276,0.0114695417764966,0.6955511572328908,0.02558103203773499,-0.01613663136959076,-0.01657135225832462,-0.005401834845542908,0.001663327217102051,-0.006519436836242676,XArbitraryZVertical,0.07490366517302297,0.3325121797807343,0.9142127220387742,0.2191810677338769,0.008804981596767902,-0.640808641910553,-0.7676501870155334,0,0,0,-1,-1,2682.955782,walking,2,2022-05-12T10:29:45.372+02:00,2022-05-11T22:15:20.957+02:00,141,0.8394551,0.6590101,1.930207,112.5515,0,0,2022-05-12T10:29:50.486+02:00,674036985.3716435,0,0.07999802,100.9063,1,0.98
2022-05-12T10:29:52.521+02:00,1652344192.065081,53.22910396852831,10.3989470657058,16.7352,0.6,1.87,313.9453125,9.474274072261515,64,30,-9999,2690.103675625,0.01116943359375,-0.662567138671875,-0.7698211669921875,2690.098677625,2.666676266722911,0.01133342899709468,0.6957729792409242,0.01972467452287674,-0.01377214398235083,-0.01700744405388832,0.0006094127893447876,-0.003445863723754883,-0.001777589321136475,XArbitraryZVertical,0.07501462320302563,0.3325931574057931,0.9141551473122035,0.2192602103032471,0.008698883466422558,-0.6409789323806763,-0.7675092220306396,0,0,0,-1,-1,2682.955782,walking,2,2022-05-12T10:29:45.372+02:00,2022-05-11T22:15:20.957+02:00,141,0.8394551,0.6590101,1.930207,112.5515,0,0,2022-05-12T10:29:50.486+02:00,674036985.3716435,0,0.07999802,100.9063,1,0.98
2022-05-12T10:29:52.531+02:00,1652344192.065081,53.22910396852831,10.3989470657058,16.7352,0.6,1.87,313.9453125,9.474274072261515,64,30,-9999,2690.113670625,0.0103607177734375,-0.66534423828125,-0.7664947509765625,2690.108672625,2.666525758791757,0.01119931055877483,0.6958972129548643,0.005547335371375084,-0.01868993788957596,-0.01557519659399986,0.002574816346168518,-0.02149325609207153,-0.002390086650848389,XArbitraryZVertical,0.07511481704502389,0.3326294906938794,0.9141131893024765,0.2193460726228707,0.008595054969191551,-0.6410742998123169,-0.7674307823181152,0,0,0,-1,-1,2682.955782,walking,2,2022-05-12T10:29:45.372+02:00,2022-05-11T22:15:20.957+02:00,141,0.8394551,0.6590101,1.930207,112.5515,0,0,2022-05-12T10:29:50.486+02:00,674036985.3716435,0,0.07999802,100.9063,1,0.98
2022-05-12T10:29:52.541+02:00,1652344192.065081,53.22910396852831,10.3989470657058,16.7352,0.6,1.87,313.9453125,9.474274072261515,64,30,-9999,2690.123665625,0.0099334716796875,-0.665252685546875,-0.766021728515625,2690.118667625,2.666399379248695,0.01107536300456074,0.695840282524563,-0.01052664034068584,-0.01793453097343445,-0.01061705686151981,0.001860827207565308,-0.02431404590606689,0.0009738802909851074,XArbitraryZVertical,0.07518613587591502,0.3325851478684487,0.9141040732595689,0.219426882030844,0.008500337600708008,-0.6410306096076965,-0.7674683332443237,0,0,0,-1,-1,2682.955782,walking,2,2022-05-12T10:29:45.372+02:00,2022-05-11T22:15:20.957+02:00,141,0.8394551,0.6590101,1.930207,112.5515,0,0,2022-05-12T10:29:50.486+02:00,674036985.3716435,0,0.07999802,100.9063,1,0.98
2022-05-12T10:29:52.551+02:00,1652344192.065081,53.22910396852831,10.3989470657058,16.7352,0.6,1.87,313.9453125,9.474274072261515,64,30,-9999,2690.133660625,0.0036773681640625,-0.6615753173828125,-0.7681732177734375,2690.128662625,2.666256055612384,0.01095489702076029,0.6956201351381212,-0.02232524193823338,-0.01820697262883186,-0.01558145508170128,0.001524477265775204,-0.02439141273498535,0.001589000225067139,XArbitraryZVertical,0.07524045566386316,0.3324660600946757,0.9141200513931284,0.2195217272505144,0.008409429341554642,-0.6408616304397583,-0.7676103711128235,0,0,0,-1,-1,2682.955782,walking,2,2022-05-12T10:29:45.372+02:00,2022-05-11T22:15:20.957+02:00,141,0.8394551,0.6590101,1.930207,112.5515,0,0,2022-05-12T10:29:50.486+02:00,674036985.3716435,0,0.07999802,100.9063,1,0.98
2022-05-12T10:29:52.561+02:00,1652344192.065081,53.22910396852831,10.3989470657058,16.7352,0.6,1.87,313.9453125,9.474274072261515,64,30,-9999,2690.143655625,-0.00927734375,-0.6577911376953125,-0.7745361328125,2690.138657625,2.666063746659663,0.01087054018480737,0.6953061421681325,-0.02100701071321964,-0.0162671934813261,-0.02035244181752205,-0.004669055342674255,-0.02095520496368408,-0.0003606081008911133,XArbitraryZVertical,0.07527593466621769,0.3323061721365888,0.9141475937124485,0.2196370461639518,0.008346863090991974,-0.6406205296516418,-0.7678123116493225,0,0,0,-1,-1,2682.955782,walking,2,2022-05-12T10:29:45.372+02:00,2022-05-11T22:15:20.957+02:00,141,0.8394551,0.6590101,1.930207,112.5515,0,0,2022-05-12T10:29:50.486+02:00,674036985.3716435,0,0.07999802,100.9063,1,0.98
2022-05-12T10:29:52.571+02:00,1652344192.065081,53.22910396852831,10.3989470657058,16.7352,0.6,1.87,313.9453125,9.474274072261515,64,30,-9999,2690.153650625,-0.0150604248046875,-0.6489410400390625,-0.775726318359375,2690.148652625,2.665724464188513,0.01094555609193985,0.6950648171669738,-0.009223587810993195,-0.005887789651751518,-0.0325971245765686,-0.01768305897712708,-0.017356276512146,-0.006569623947143555,XArbitraryZVertical,0.07527105938471293,0.3321914627697749,0.9141529050831134,0.2197899169468442,0.008406152948737144,-0.6404352188110352,-0.7679662108421326,0,0,0,-1,-1,2682.955782,walking,2,2022-05-12T10:29:45.372+02:00,2022-05-11T22:15:20.957+02:00,141,0.8394551,0.6590101,1.930207,112.5515,0,0,2022-05-12T10:29:50.486+02:00,674036985.3716435,0,0.07999802,100.9063,1,0.98
2022-05-12T10:29:52.581+02:00,1652344192.065081,53.22910396852831,10.3989470657058,16.7352,0.6,1.87,313.9453125,9.474274072261515,64,30,-9999,2690.163645625,-0.0108642578125,-0.642547607421875,-0.7720947265625,2690.158647625,2.66526356134243,0.01120873508806379,0.6950312887839355,0.007738017942756414,0.004040342289954424,-0.0417284369468689,-0.02366848289966583,-0.00853198766708374,-0.007740557193756104,XArbitraryZVertical,0.07522357694414807,0.3321877354265683,0.9141176859185506,0.2199583164681063,0.008608506061136723,-0.6404094696044922,-0.767985463142395,0,0,0,-1,-1,2682.955782,walking,2,2022-05-12T10:29:45.372+02:00,2022-05-11T22:15:20.957+02:00,141,0.8394551,0.6590101,1.930207,112.5515,0,0,2022-05-12T10:29:50.486+02:00,674036985.3716435,0,0.07999802,100.9063,1,0.98
2022-05-12T10:29:52.591+02:00,1652344192.065081,53.22910396852831,10.3989470657058,16.7352,0.6,1.87,313.9453125,9.474274072261515,64,30,-9999,2690.173640625,-0.00714111328125,-0.6477813720703125,-0.7689361572265625,2690.168642625,2.664670409197857,0.01163482725586599,0.695128087248601,0.01752433553338051,0.006832399871200323,-0.05105003714561462,-0.01979883015155792,-0.002064228057861328,-0.004174709320068359,XArbitraryZVertical,0.0751381977489157,0.3322565155094139,0.9140524867760526,0.2201544930304929,0.008935016579926014,-0.6404837965965271,-0.7679197192192078,0,0,0,-1,-1,2682.955782,walking,2,2022-05-12T10:29:45.372+02:00,2022-05-11T22:15:20.957+02:00,141,0.8394551,0.6590101,1.930207,112.5515,0,0,2022-05-12T10:29:50.486+02:00,674036985.3716435,0,0.07999802,100.9063,1,0.98
2022-05-12T10:29:52.601+02:00,1652344192.065081,53.22910396852831,10.3989470657058,16.7352,0.6,1.87,313.9453125,9.474274072261515,64,30,-9999,2690.183635625,-0.0047454833984375,-0.6492767333984375,-0.76385498046875,2690.178637625,2.663921031552257,0.01220018914312669,0.6952165216898325,-0.001673826482146978,0.008853273466229439,-0.06120100244879723,-0.01650914549827576,-0.007230103015899658,-0.001077890396118164,XArbitraryZVertical,0.07501424663810426,0.3323310159847496,0.9139766204690839,0.2203992478255983,0.009368476457893848,-0.640551745891571,-0.7678579092025757,0,0,0,-1,-1,2682.955782,walking,2,2022-05-12T10:29:45.372+02:00,2022-05-11T22:15:20.957+02:00,141,0.8394551,0.6590101,1.930207,112.5515,0,0,2022-05-12T10:29:50.486+02:00,674036985.3716435,0,0.07999802,100.9063,1,0.98
2022-05-12T10:29:52.611+02:00,1652344192.065081,53.22910396852831,10.3989470657058,16.7352,0.6,1.87,313.9453125,9.474274072261515,64,30,-9999,2690.193630625,-0.0040435791015625,-0.6564178466796875,-0.761932373046875,2690.188632625,2.663070052863997,0.01283693268379914,0.6951455381199522,-0.0258015338331461,0.0119614489376545,-0.06864294409751892,-0.01460303366184235,-0.00877988338470459,0.004042565822601318,XArbitraryZVertical,0.07485669631790733,0.3323369696819566,0.9139182797097484,0.2206853376799931,0.009857986122369766,-0.6404972076416016,-0.7678972482681274,0,0,0,-1,-1,2682.955782,walking,2,2022-05-12T10:29:45.372+02:00,2022-05-11T22:15:20.957+02:00,141,0.8394551,0.6590101,1.930207,112.5515,0,0,2022-05-12T10:29:50.486+02:00,674036985.3716435,0,0.07999802,100.9063,1,0.98
2022-05-12T10:29:52.621+02:00,1652344192.065081,53.22910396852831,10.3989470657058,16.7352,0.6,1.87,313.9453125,9.474274072261515,64,30,-9999,2690.203625625,0.0011138916015625,-0.6446075439453125,-0.7604217529296875,2690.198627625,2.662156927079545,0.01350717756453438,0.6948825655092173,-0.04132676124572754,0.005810745060443878,-0.07304847240447998,-0.01441808044910431,-0.01612299680709839,0.006126821041107178,XArbitraryZVertical,0.07467253618584992,0.3322567935314734,0.9138858683294849,0.2210026890498888,0.0103749381378293,-0.6402952671051025,-0.7680588960647583,0,0,0,-1,-1,2682.955782,walking,2,2022-05-12T10:29:45.372+02:00,2022-05-11T22:15:20.957+02:00,141,0.8394551,0.6590101,1.930207,112.5515,0,0,2022-05-12T10:29:50.486+02:00,674036985.3716435,0,0.07999802,100.9063,1,0.98
2022-05-12T10:29:52.631+02:00,1652344192.065081,53.22910396852831,10.3989470657058,16.7352,0.6,1.87,313.9453125,9.474274072261515,64,30,-9999,2690.213620625,0.0045623779296875,-0.627349853515625,-0.7670135498046875,2690.208623625,2.661219379964265,0.01413142949180898,0.6945413348457878,-0.04105538502335548,0.006286119110882282,-0.07129611819982529,-0.009743154048919678,-0.004574835300445557,0.007849276065826416,XArbitraryZVertical,0.07450450832586772,0.3321351034321227,0.9138616833557982,0.221342332208067,0.01085748616605997,-0.6400330662727356,-0.76827073097229,0,0,0,-1,-1,2682.955782,walking,2,2022-05-12T10:29:45.372+02:00,2022-05-11T22:15:20.957+02:00,141,0.8394551,0.6590101,1.930207,112.5515,0,0,2022-05-12T10:29:50.486+02:00,674036985.3716435,0,0.07999802,100.9063,1,0.98
2022-05-12T10:29:52.641+02:00,1652344192.065081,53.22910396852831,10.3989470657058,16.7352,0.6,1.87,313.9453125,9.474274072261515,64,30,-9999,2690.223615625,0.004669189453125,-0.6333465576171875,-0.770355224609375,2690.218618625,2.660310485554398,0.01468105720757875,0.6942415244952068,-0.03567027673125267,-0.006750986445695162,-0.07473012804985046,-0.006719738245010376,0.01245248317718506,0.001443147659301758,XArbitraryZVertical,0.07437035774927242,0.3320253655086266,0.9138307033437917,0.2216794424698407,0.01128256320953369,-0.6398026943206787,-0.7684563994407654,0,0,0,-1,-1,2682.955782,walking,2,2022-05-12T10:29:45.372+02:00,2022-05-11T22:15:20.957+02:00,141,0.8394551,0.6590101,1.930207,112.5515,0,0,2022-05-12T10:29:50.486+02:00,674036985.3716435,0,0.07999802,100.9063,1,0.98
2022-05-12T10:29:52.651+02:00,1652344192.065081,53.22910396852831,10.3989470657058,16.7352,0.6,1.87,313.9453125,9.474274072261515,64,30,-9999,2690.233610625,-1.52587890625e-05,-0.6539306640625,-0.7695770263671875,2690.228613625,2.659406581879638,0.01509590003134332,0.6939154042396745,-0.03993372991681099,-0.009729731827974319,-0.0764734297990799,-0.006934866309165955,0.006205081939697266,-0.001694619655609131,XArbitraryZVertical,0.07429386835116929,0.3318889569634252,0.9137994858403434,0.222037965726245,0.01160450000315905,-0.6395520567893982,-0.768660306930542,0,0,0,-1,-1,2682.955782,walking,2,2022-05-12T10:29:45.372+02:00,2022-05-11T22:15:20.957+02:00,141,0.8394551,0.6590101,1.930207,112.5515,0,0,2022-05-12T10:29:50.486+02:00,674036985.3716435,0,0.07999802,100.9063,1,0.98
2022-05-12T10:29:52.661+02:00,1652344192.065081,53.22910396852831,10.3989470657058,16.7352,0.6,1.87,313.9453125,9.474274072261515,64,30,-9999,2690.243605625,-0.009796142578125,-0.671417236328125,-0.7650146484375,2690.238608625,2.658482156107614,0.01546600926351013,0.6934203993378938,-0.06495892256498337,-0.0141801405698061,-0.08538783341646194,-0.01190869603306055,-0.0147596001625061,-0.0006043314933776855,XArbitraryZVertical,0.07422186026812015,0.3316699365714543,0.9137916940218903,0.222420702364879,0.01189388148486614,-0.6391714215278625,-0.7689723372459412,0,0,0,-1,-1,2682.955782,walking,2,2022-05-12T10:29:45.372+02:00,2022-05-11T22:15:20.957+02:00,141,0.8394551,0.6590101,1.930207,112.5515,0,0,2022-05-12T10:29:50.486+02:00,674036985.3716435,0,0.07999802,100.9063,1,0.98
2022-05-12T10:29:52.671+02:00,1652344192.065081,53.22910396852831,10.3989470657058,16.7352,0.6,1.87,313.9453125,9.474274072261515,64,30,-9999,2690.253600625,-0.018310546875,-0.6827545166015625,-0.75909423828125,2690.248603625,2.657350230836711,0.01592948737732473,0.6926218324200517,-0.09914938360452652,-0.02425301447510719,-0.1067719459533691,-0.02205410599708557,-0.03286051750183105,0.004462540149688721,XArbitraryZVertical,0.07410673398187859,0.3313152243575128,0.9138137681336613,0.2228963613501543,0.01225840859115124,-0.6385570764541626,-0.7694768309593201,0,0,0,-1,-1,2682.955782,walking,2,2022-05-12T10:29:45.372+02:00,2022-05-11T22:15:20.957+02:00,141,0.8394551,0.6590101,1.930207,112.5515,0,0,2022-05-12T10:29:50.486+02:00,674036985.3716435,0,0.07999802,100.9063,1,0.98
2022-05-12T10:29:52.681+02:00,1652344192.065081,53.22910396852831,10.3989470657058,16.7352,0.6,1.87,313.9453125,9.474274072261515,64,30,-9999,2690.263595625,-0.0309600830078125,-0.690216064453125,-0.7578887939453125,2690.258598625,2.65588818008391,0.01652470179273414,0.6914384484309736,-0.1382391303777695,-0.02917799912393093,-0.1373807340860367,-0.03103898465633392,-0.04510897397994995,0.01113051176071167,XArbitraryZVertical,0.07394154712338399,0.3307875969175419,0.9138663661212186,0.2235184676226281,0.01272888761013746,-0.6376459002494812,-0.7702244520187378,0,0,0,-1,-1,2682.955782,walking,2,2022-05-12T10:29:45.372+02:00,2022-05-11T22:15:20.957+02:00,141,0.8394551,0.6590101,1.930207,112.5515,0,0,2022-05-12T10:29:50.486+02:00,674036985.3716435,0,0.07999802,100.9063,1,0.98
2022-05-12T10:29:52.691+02:00,1652344192.065081,53.22910396852831,10.3989470657058,16.7352,0.6,1.87,313.9453125,9.474274072261515,64,30,-9999,2690.273590625,-0.0382537841796875,-0.6741943359375,-0.763763427734375,2690.268593625,2.65396493963409,0.017433847768729,0.6899951802115719,-0.1563510298728943,-0.01583050191402435,-0.1693916618824005,-0.04440480470657349,-0.05368298292160034,0.01324343681335449,XArbitraryZVertical,0.07367829993698344,0.3301598890725958,0.9139203423320235,0.2243115497315196,0.01344515848904848,-0.6365334391593933,-0.7711319327354431,0,0,0,-1,-1,2682.955782,walking,2,2022-05-12T10:29:45.372+02:00,2022-05-11T22:15:20.957+02:00,141,0.8394551,0.6590101,1.930207,112.5515,0,0,2022-05-12T10:29:50.486+02:00,674036985.3716435,0,0.07999802,100.9063,1,0.98
2022-05-12T10:29:52.701+02:00,1652344192.065081,53.22910396852831,10.3989470657058,16.7352,0.6,1.87,313.9453125,9.474274072261515,64,30,-9999,2690.283585625,-0.0521392822265625,-0.6829833984375,-0.7628173828125,2690.278588625,2.651578390619397,0.01873589564942159,0.6884487361076266,-0.1728376895189285,-0.01217950694262981,-0.2217582613229752,-0.05272094905376434,-0.03885471820831299,0.008333921432495117,XArbitraryZVertical,0.07329850408741052,0.3295129835362656,0.9139518540880809,0.2252570269473437,0.01446762215346098,-0.6353400349617004,-0.7720970511436462,0,0,0,-1,-1,2682.955782,walking,2,2022-05-12T10:29:45.372+02:00,2022-05-11T22:15:20.957+02:00,141,0.8394551,0.6590101,1.930207,112.5515,0,0,2022-05-12T10:29:50.486+02:00,674036985.3716435,0,0.07999802,100.9063,1,0.98
2022-05-12T10:29:52.711+02:00,1652344192.065081,53.22910396852831,10.3989470657058,16.7352,0.6,1.87,313.9453125,9.474274072261515,64,30,-9999,2690.293580625,-0.06207275390625,-0.7007904052734375,-0.766021728515625,2690.288583625,2.648492603011547,0.02062473754690202,0.6866250954950629,-0.1988344043493271,0.007677021436393261,-0.2732824385166168,-0.06808866560459137,-0.0490531325340271,0.01040834188461304,XArbitraryZVertical,0.07273137435730383,0.3287817592037818,0.9139682959767489,0.2264392246036352,0.01594983227550983,-0.6339306831359863,-0.7732254266738892,0,0,0,-1,-1,2682.955782,walking,2,2022-05-12T10:29:45.372+02:00,2022-05-11T22:15:20.957+02:00,141,0.8394551,0.6590101,1.930207,112.5515,0,0,2022-05-12T10:29:50.486+02:00,674036985.3716435,0,0.07999802,100.9063,1,0.98
