loggingTime(txt),locationTimestamp_since1970(s),locationLatitude(WGS84),locationLongitude(WGS84),locationAltitude(m),locationSpeed(m/s),locationSpeedAccuracy(m/s),locationCourse(°),locationCourseAccuracy(°),locationVerticalAccuracy(m),locationHorizontalAccuracy(m),locationFloor(Z),accelerometerTimestamp_sinceReboot(s),accelerometerAccelerationX(G),accelerometerAccelerationY(G),accelerometerAccelerationZ(G),motionTimestamp_sinceReboot(s),motionYaw(rad),motionRoll(rad),motionPitch(rad),motionRotationRateX(rad/s),motionRotationRateY(rad/s),motionRotationRateZ(rad/s),motionUserAccelerationX(G),motionUserAccelerationY(G),motionUserAccelerationZ(G),motionAttitudeReferenceFrame(txt),motionQuaternionX(R),motionQuaternionY(R),motionQuaternionZ(R),motionQuaternionW(R),motionGravityX(G),motionGravityY(G),motionGravityZ(G),motionMagneticFieldX(µT),motionMagneticFieldY(µT),motionMagneticFieldZ(µT),motionHeading(°),motionMagneticFieldCalibrationAccuracy(Z),activityTimestamp_sinceReboot(s),activity(txt),activityActivityConfidence(Z),activityActivityStartDate(txt),pedometerStartDate(txt),pedometerNumberofSteps(N),pedometerAverageActivePace(s/m),pedometerCurrentPace(s/m),pedometerCurrentCadence(steps/s),pedometerDistance(m),pedometerFloorAscended(N),pedometerFloorDescended(N),pedometerEndDate(txt),altimeterTimestamp_sinceReboot(s),altimeterReset(bool),altimeterRelativeAltitude(m),altimeterPressure(kPa),batteryState(N),batteryLevel(R)
2022-05-12T10:31:06.455+02:00,1652344265.000022,53.22900514588992,10.39835186676159,37.52255,0.3,0.91,103.7109375,85.11546102143525,4,5,-9999,2763.993809,-0.00396728515625,-0.56524658203125,-0.8003082275390625,2763.983814,0.5156499524055863,-0.01408772470715815,0.6046676758706576,0.01810051128268242,0.004231290891766548,-0.03260071948170662,0.02445274591445923,-0.0009230971336364746,0.01976794004440308,XArbitraryZVertical,0.2896148630132832,0.06941549565406174,0.2413792814671697,0.9236020849726496,-0.01158946193754673,-0.5684887170791626,-0.8226094245910645,0,0,0,-1,-1,2759.652976375,walking,2,2022-05-12T10:31:02.069+02:00,2022-05-11T22:15:20.957+02:00,205,0.9472964,0.6030918,1.947791,162.3245,0,0,2022-05-12T10:31:04.627+02:00,674037064.6268183,0,0.3199997,100.9041,1,0.97
2022-05-12T10:31:06.461+02:00,1652344265.000022,53.22900514588992,10.39835186676159,37.52255,0.3,0.91,103.7109375,85.11546102143525,4,5,-9999,2764.003804,-0.000640869140625,-0.565185546875,-0.796417236328125,2763.993809,0.5152633888241365,-0.01401281505070985,0.6046450749527521,-0.001220855861902237,-0.01652991399168968,-0.03850441426038742,0.0206834077835083,-0.002177655696868896,0.02062088251113892,XArbitraryZVertical,0.2896088141740853,0.06939134055821498,0.241212539487226,0.9236493585700227,-0.0115280207246542,-0.5684701204299927,-0.8226231336593628,0,0,0,-1,-1,2759.652976375,walking,2,2022-05-12T10:31:02.069+02:00,2022-05-11T22:15:20.957+02:00,205,0.9472964,0.6030918,1.947791,162.3245,0,0,2022-05-12T10:31:04.627+02:00,674037064.6268183,0,0.3199997,100.9041,1,0.97
2022-05-12T10:31:06.464+02:00,1652344265.000022,53.22900514588992,10.39835186676159,37.52255,0.3,0.91,103.7109375,85.11546102143525,4,5,-9999,2764.013799,0.0076751708984375,-0.580413818359375,-0.8049774169921875,2764.003804,0.5147013949718964,-0.01393567240102641,0.6043980670438376,-0.02900428511202335,-0.02322723157703876,-0.05627728626132011,0.007499353028833866,0.003020763397216797,0.02245593070983887,XArbitraryZVertical,0.2895050457179237,0.06931532522206178,0.240974304006558,0.9237498025306232,-0.01146651804447174,-0.5682668685913086,-0.8227644562721252,0,0,0,-1,-1,2759.652976375,walking,2,2022-05-12T10:31:02.069+02:00,2022-05-11T22:15:20.957+02:00,205,0.9472964,0.6030918,1.947791,162.3245,0,0,2022-05-12T10:31:04.627+02:00,674037064.6268183,0,0.3199997,100.9041,1,0.97
2022-05-12T10:31:06.475+02:00,1652344265.000022,53.22900514588992,10.39835186676159,37.52255,0.3,0.91,103.7109375,85.11546102143525,4,5,-9999,2764.023794,0.00897216796875,-0.5860595703125,-0.82452392578125,2764.013799,0.5140379543555642,-0.01381441764236646,0.603967917890627,-0.05404175817966461,-0.01651000790297985,-0.05845488607883453,0.01072937343269587,0.002727806568145752,0.02659261226654053,XArbitraryZVertical,0.2893149704326398,0.06922268394337047,0.2407030640154134,0.9238869643358174,-0.01137012895196676,-0.5679128766059875,-0.8230101466178894,0,0,0,-1,-1,2759.652976375,walking,2,2022-05-12T10:31:02.069+02:00,2022-05-11T22:15:20.957+02:00,205,0.9472964,0.6030918,1.947791,162.3245,0,0,2022-05-12T10:31:04.627+02:00,674037064.6268183,0,0.3199997,100.9041,1,0.97
2022-05-12T10:31:06.477+02:00,1652344265.000022,53.22900514588992,10.39835186676159,37.52255,0.3,0.91,103.7109375,85.11546102143525,4,5,-9999,2764.033789,-0.0093994140625,-0.5761260986328125,-0.83306884765625,2764.023794,0.5132435248028631,-0.01350368777017812,0.6033469393951624,-0.06724891066551208,-0.009440112859010696,-0.06542624533176422,0.01879444718360901,-0.01301169395446777,0.01838839054107666,XArbitraryZVertical,0.289018498903991,0.06917544940492706,0.240406359471305,0.9240606052452088,-0.01111915521323681,-0.567401647567749,-0.823366105556488,0,0,0,-1,-1,2759.652976375,walking,2,2022-05-12T10:31:02.069+02:00,2022-05-11T22:15:20.957+02:00,205,0.9472964,0.6030918,1.947791,162.3245,0,0,2022-05-12T10:31:04.627+02:00,674037064.6268183,0,0.3199997,100.9041,1,0.97
2022-05-12T10:31:06.479+02:00,1652344265.000022,53.22900514588992,10.39835186676159,37.52255,0.3,0.91,103.7109375,85.11546102143525,4,5,-9999,2764.043784,-0.0124359130859375,-0.5820159912109375,-0.8424224853515625,2764.033789,0.5126183518991271,-0.01330669323931245,0.6026963786027471,-0.07360231131315231,-0.02335839346051216,-0.03206688910722733,0.01993416249752045,-0.01919329166412354,-0.0007870197296142578,XArbitraryZVertical,0.2887161576575105,0.0690967582826411,0.2401724479038716,0.9242218457034642,-0.01096186600625515,-0.566865861415863,-0.8237372636795044,0,0,0,-1,-1,2759.652976375,walking,2,2022-05-12T10:31:02.069+02:00,2022-05-11T22:15:20.957+02:00,205,0.9472964,0.6030918,1.947791,162.3245,0,0,2022-05-12T10:31:04.627+02:00,674037064.6268183,0,0.3199997,100.9041,1,0.97
2022-05-12T10:31:06.481+02:00,1652344265.000022,53.22900514588992,10.39835186676159,37.52255,0.3,0.91,103.7109375,85.11546102143525,4,5,-9999,2764.053779,-0.023406982421875,-0.5743865966796875,-0.84686279296875,2764.043784,0.5122158975303898,-0.01332496329620326,0.6019854701141002,-0.07474986463785172,-0.01989095658063889,-0.03214971348643303,0.001582995057106018,-0.009845614433288574,-0.008929431438446045,XArbitraryZVertical,0.2884040742262632,0.06894356840780938,0.2400127436767011,0.9243721157298164,-0.0109822815284133,-0.5662800669670105,-0.8241397738456726,0,0,0,-1,-1,2759.652976375,walking,2,2022-05-12T10:31:02.069+02:00,2022-05-11T22:15:20.957+02:00,205,0.9472964,0.6030918,1.947791,162.3245,0,0,2022-05-12T10:31:04.627+02:00,674037064.6268183,0,0.3199997,100.9041,1,0.97
2022-05-12T10:31:06.483+02:00,1652344265.000022,53.22900514588992,10.39835186676159,37.52255,0.3,0.91,103.7109375,85.11546102143525,4,5,-9999,2764.063775,-0.017913818359375,-0.58795166015625,-0.853302001953125,2764.053779,0.5117990030468563,-0.01313396328985705,0.6012851777105325,-0.06956286728382111,-0.008305206894874573,-0.02303577587008476,-0.001605719327926636,-0.01631283760070801,-0.01788461208343506,XArbitraryZVertical,0.2880721681511657,0.06888641568425209,0.2398759720099804,0.9245154110369814,-0.01083007641136646,-0.5657027363777161,-0.8245381712913513,0,0,0,-1,-1,2759.652976375,walking,2,2022-05-12T10:31:02.069+02:00,2022-05-11T22:15:20.957+02:00,205,0.9472964,0.6030918,1.947791,162.3245,0,0,2022-05-12T10:31:04.627+02:00,674037064.6268183,0,0.3199997,100.9041,1,0.97
2022-05-12T10:31:06.491+02:00,1652344265.000022,53.22900514588992,10.39835186676159,37.52255,0.3,0.91,103.7109375,85.11546102143525,4,5,-9999,2764.07377,-0.0107879638671875,-0.593902587890625,-0.8524932861328125,2764.063775,0.5114244273914789,-0.01282754401288822,0.6007519375910618,-0.04942137375473976,0.0104493061080575,-0.02739057689905167,-0.01282557845115662,-0.009123265743255615,-0.02202016115188599,XArbitraryZVertical,0.2878020984935822,0.06890922524705109,0.2397685094995742,0.9246256245395644,-0.01058128941804171,-0.5652629137039185,-0.8248429298400879,0,0,0,-1,-1,2759.652976375,walking,2,2022-05-12T10:31:02.069+02:00,2022-05-11T22:15:20.957+02:00,205,0.9472964,0.6030918,1.947791,162.3245,0,0,2022-05-12T10:31:04.627+02:00,674037064.6268183,0,0.3199997,100.9041,1,0.97
2022-05-12T10:31:06.502+02:00,1652344265.000022,53.22900514588992,10.39835186676159,37.52255,0.3,0.91,103.7109375,85.11546102143525,4,5,-9999,2764.083765,-0.0143280029296875,-0.579498291015625,-0.8494720458984375,2764.07377,0.511004786703216,-0.01234490384175462,0.6004006280087266,-0.03623776137828827,0.02092731185257435,-0.0320889949798584,-0.007728055119514465,-0.02297812700271606,-0.02825582027435303,XArbitraryZVertical,0.2875964275190988,0.06902923038928442,0.2396580507061249,0.9247094333391405,-0.01018563751131296,-0.5649730563163757,-0.8250465393066406,0,0,0,-1,-1,2759.652976375,walking,2,2022-05-12T10:31:02.069+02:00,2022-05-11T22:15:20.957+02:00,205,0.9472964,0.6030918,1.947791,162.3245,0,0,2022-05-12T10:31:04.627+02:00,674037064.6268183,0,0.3199997,100.9041,1,0.97
2022-05-12T10:31:06.511+02:00,1652344265.000022,53.22900514588992,10.39835186676159,37.52255,0.3,0.91,103.7109375,85.11546102143525,4,5,-9999,2764.09376,-0.0099639892578125,-0.5782318115234375,-0.848846435546875,2764.083765,0.5106070449276527,-0.01186814513612004,0.6001723089725928,-0.01912428811192513,0.02282401546835899,-0.03177686780691147,-0.0009940266609191895,-0.02911746501922607,-0.02731335163116455,XArbitraryZVertical,0.2874475889206827,0.06916474261904182,0.2395518527861407,0.9247730956040835,-0.009793818928301334,-0.5647847056388855,-0.8251802325248718,0,0,0,-1,-1,2759.652976375,walking,2,2022-05-12T10:31:02.069+02:00,2022-05-11T22:15:20.957+02:00,205,0.9472964,0.6030918,1.947791,162.3245,0,0,2022-05-12T10:31:04.627+02:00,674037064.6268183,0,0.3199997,100.9041,1,0.97
2022-05-12T10:31:06.524+02:00,1652344265.000022,53.22900514588992,10.39835186676159,37.52255,0.3,0.91,103.7109375,85.11546102143525,4,5,-9999,2764.103755,-0.0078125,-0.5685272216796875,-0.8423614501953125,2764.09376,0.5102138136574619,-0.01138126158079656,0.6001220690820793,-0.007337937131524086,0.02359686605632305,-0.02829691767692566,-0.004935517907142639,-0.01475459337234497,-0.02425909042358398,XArbitraryZVertical,0.2873796922902389,0.06932726666051423,0.2394420029594684,0.9248104724015186,-0.009392374195158482,-0.5647432208061218,-0.8252133131027222,0,0,0,-1,-1,2759.652976375,walking,2,2022-05-12T10:31:02.069+02:00,2022-05-11T22:15:20.957+02:00,205,0.9472964,0.6030918,1.947791,162.3245,0,0,2022-05-12T10:31:04.627+02:00,674037064.6268183,0,0.3199997,100.9041,1,0.97
2022-05-12T10:31:06.535+02:00,1652344265.000022,53.22900514588992,10.39835186676159,37.52255,0.3,0.91,103.7109375,85.11546102143525,4,5,-9999,2764.11375,-0.0052032470703125,-0.5688323974609375,-0.8421478271484375,2764.103755,0.5098235150813364,-0.01087856049230364,0.6001444817355813,-0.007670565508306026,0.0256325863301754,-0.02922210097312927,-0.0009864717721939087,-0.0134696364402771,-0.02364146709442139,XArbitraryZVertical,0.287343415222204,0.06950635469422141,0.2393328530047917,0.924836583901505,-0.008977399207651615,-0.5647616982460022,-0.8252052664756775,0,0,0,-1,-1,2759.652976375,walking,2,2022-05-12T10:31:02.069+02:00,2022-05-11T22:15:20.957+02:00,205,0.9472964,0.6030918,1.947791,162.3245,0,0,2022-05-12T10:31:04.627+02:00,674037064.6268183,0,0.3199997,100.9041,1,0.97
2022-05-12T10:31:06.540+02:00,1652344265.000022,53.22900514588992,10.39835186676159,37.52255,0.3,0.91,103.7109375,85.11546102143525,4,5,-9999,2764.123745,-0.01043701171875,-0.5621185302734375,-0.8410797119140625,2764.11375,0.5094416398377621,-0.0103216746631224,0.6002020861913437,0.002949388697743416,0.03077714890241623,-0.02322692424058914,0.0007051387801766396,-0.003717482089996338,-0.01718419790267944,XArbitraryZVertical,0.2873167331991734,0.06971602032582568,0.2392340142976488,0.9248545291304155,-0.008517516776919365,-0.564809262752533,-0.8251775503158569,0,0,0,-1,-1,2759.652976375,walking,2,2022-05-12T10:31:02.069+02:00,2022-05-11T22:15:20.957+02:00,205,0.9472964,0.6030918,1.947791,162.3245,0,0,2022-05-12T10:31:04.627+02:00,674037064.6268183,0,0.3199997,100.9041,1,0.97
2022-05-12T10:31:06.551+02:00,1652344265.000022,53.22900514588992,10.39835186676159,37.52255,0.3,0.91,103.7109375,85.11546102143525,4,5,-9999,2764.13374,-0.011871337890625,-0.5602874755859375,-0.8390045166015625,2764.123745,0.5091549174404791,-0.009854770238855991,0.600272546591756,0.006435732822865248,0.02854062616825104,-0.01943458244204521,0.002928719855844975,-0.003964543342590332,-0.01700645685195923,XArbitraryZVertical,0.2873034335477425,0.06989925187693405,0.2391656927573159,0.9248625786869038,-0.0081318449229002,-0.564867377281189,-0.8251416683197021,0,0,0,-1,-1,2759.652976375,walking,2,2022-05-12T10:31:02.069+02:00,2022-05-11T22:15:20.957+02:00,205,0.9472964,0.6030918,1.947791,162.3245,0,0,2022-05-12T10:31:04.627+02:00,674037064.6268183,0,0.3199997,100.9041,1,0.97
2022-05-12T10:31:06.560+02:00,1652344265.000022,53.22900514588992,10.39835186676159,37.52255,0.3,0.91,103.7109375,85.11546102143525,4,5,-9999,2764.143735,-0.0086669921875,-0.5665740966796875,-0.8390960693359375,2764.13374,0.5089409208417924,-0.00947474695904546,0.6003677410815865,0.01189777627587318,0.03090744465589523,-0.01770998723804951,-0.002619132399559021,0.002827823162078857,-0.01598912477493286,XArbitraryZVertical,0.2873094767456421,0.07005576647670507,0.2391175768031864,0.9248612694545684,-0.007817761972546577,-0.5649459362030029,-0.8250908851623535,0,0,0,-1,-1,2759.652976375,walking,2,2022-05-12T10:31:02.069+02:00,2022-05-11T22:15:20.957+02:00,205,0.9472964,0.6030918,1.947791,162.3245,0,0,2022-05-12T10:31:04.627+02:00,674037064.6268183,0,0.3199997,100.9041,1,0.97
2022-05-12T10:31:06.570+02:00,1652344265.000022,53.22900514588992,10.39835186676159,37.52255,0.3,0.91,103.7109375,85.11546102143525,4,5,-9999,2764.15373,-0.0093841552734375,-0.56304931640625,-0.8354644775390625,2764.143735,0.5087533452652813,-0.009095113702609027,0.6004946522937514,0.01677029579877853,0.03207017853856087,-0.01757443137466908,-0.004367336630821228,0.004763603210449219,-0.01398271322250366,XArbitraryZVertical,0.2873293181035563,0.07021971734913636,0.2390803830718496,0.9248522707613156,-0.007503876928240061,-0.5650506615638733,-0.8250221014022827,0,0,0,-1,-1,2759.652976375,walking,2,2022-05-12T10:31:02.069+02:00,2022-05-11T22:15:20.957+02:00,205,0.9472964,0.6030918,1.947791,162.3245,0,0,2022-05-12T10:31:04.627+02:00,674037064.6268183,0,0.3199997,100.9041,1,0.97
2022-05-12T10:31:06.581+02:00,1652344265.000022,53.22900514588992,10.39835186676159,37.52255,0.3,0.91,103.7109375,85.11546102143525,4,5,-9999,2764.163725,-0.0126495361328125,-0.5531768798828125,-0.8319549560546875,2764.15373,0.5085747568500179,-0.008707273416996212,0.600670064404896,0.01388652436435223,0.03007127717137337,-0.01537978649139404,-0.001483827829360962,-0.001378297805786133,-0.01417052745819092,XArbitraryZVertical,0.287370288845317,0.07039459167683712,0.2390466311541771,0.9248349868823775,-0.007183036301285028,-0.5651953816413879,-0.8249258399009705,0,0,0,-1,-1,2759.652976375,walking,2,2022-05-12T10:31:02.069+02:00,2022-05-11T22:15:20.957+02:00,205,0.9472964,0.6030918,1.947791,162.3245,0,0,2022-05-12T10:31:04.627+02:00,674037064.6268183,0,0.3199997,100.9041,1,0.97
2022-05-12T10:31:06.590+02:00,1652344265.000022,53.22900514588992,10.39835186676159,37.52255,0.3,0.91,103.7109375,85.11546102143525,4,5,-9999,2764.17372,-0.0089874267578125,-0.560699462890625,-0.8277435302734375,2764.163725,0.5084123935271992,-0.008310790800782838,0.6007933262270618,0.006452044472098351,0.03105717897415161,-0.01251715514808893,-0.002528652548789978,0.002248167991638184,-0.01060581207275391,XArbitraryZVertical,0.2873855699807908,0.07056947236158903,0.239023682797837,0.9248228881392104,-0.006855388171970844,-0.5652970671653748,-0.8248589634895325,0,0,0,-1,-1,2759.652976375,walking,2,2022-05-12T10:31:02.069+02:00,2022-05-11T22:15:20.957+02:00,205,0.9472964,0.6030918,1.947791,162.3245,0,0,2022-05-12T10:31:04.627+02:00,674037064.6268183,0,0.3199997,100.9041,1,0.97
2022-05-12T10:31:06.600+02:00,1652344265.000022,53.22900514588992,10.39835186676159,37.52255,0.3,0.91,103.7109375,85.11546102143525,4,5,-9999,2764.183715,-0.005767822265625,-0.5644683837890625,-0.8226165771484375,2764.17372,0.5083034750093646,-0.007977956121646732,0.6008771805904599,0.01042161881923676,0.02791571244597435,-0.01010113675147295,-0.006068944931030273,0.01218980550765991,-0.007141470909118652,XArbitraryZVertical,0.2873883948736354,0.0707178508029726,0.2390178708430496,0.924812159565482,-0.00658046780154109,-0.5653662085533142,-0.8248137831687927,0,0,0,-1,-1,2759.652976375,walking,2,2022-05-12T10:31:02.069+02:00,2022-05-11T22:15:20.957+02:00,205,0.9472964,0.6030918,1.947791,162.3245,0,0,2022-05-12T10:31:04.627+02:00,674037064.6268183,0,0.3199997,100.9041,1,0.97
2022-05-12T10:31:06.610+02:00,1652344265.000022,53.22900514588992,10.39835186676159,37.52255,0.3,0.91,103.7109375,85.11546102143525,4,5,-9999,2764.193711,-0.0098114013671875,-0.562713623046875,-0.8245849609375,2764.183715,0.5081756544582059,-0.007602792722016028,0.6009853054400648,0.01091430429369211,0.03259861469268799,-0.01052591018378735,-0.002716749906539917,0.004756391048431396,-0.002988755702972412,XArbitraryZVertical,0.2873980436563627,0.0708859959262509,0.2390084526873706,0.9247987489403698,-0.006270562764257193,-0.5654553771018982,-0.824755072593689,0,0,0,-1,-1,2759.652976375,walking,2,2022-05-12T10:31:02.069+02:00,2022-05-11T22:15:20.957+02:00,205,0.9472964,0.6030918,1.947791,162.3245,0,0,2022-05-12T10:31:04.627+02:00,674037064.6268183,0,0.3199997,100.9041,1,0.97
2022-05-12T10:31:06.620+02:00,1652344265.000022,53.22900514588992,10.39835186676159,37.52255,0.3,0.91,103.7109375,85.11546102143525,4,5,-9999,2764.203706,-0.0123291015625,-0.56756591796875,-0.8220367431640625,2764.193711,0.5081224054869246,-0.007247419163874239,0.6010979219890983,0.01314386911690235,0.03353811427950859,0.000465022400021553,0.0002093017101287842,0.001080334186553955,0.002076685428619385,XArbitraryZVertical,0.2874095102905406,0.07105624965173117,0.2390305203051617,0.9247763962751629,-0.005977004766464233,-0.565548300743103,-0.8246935606002808,0,0,0,-1,-1,2759.652976375,walking,2,2022-05-12T10:31:02.069+02:00,2022-05-11T22:15:20.957+02:00,205,0.9472964,0.6030918,1.947791,162.3245,0,0,2022-05-12T10:31:04.627+02:00,674037064.6268183,0,0.3199997,100.9041,1,0.97
2022-05-12T10:31:06.630+02:00,1652344265.000022,53.22900514588992,10.39835186676159,37.52255,0.3,0.91,103.7109375,85.11546102143525,4,5,-9999,2764.213701,-0.0162811279296875,-0.5768890380859375,-0.8204803466796875,2764.203706,0.5081585582709449,-0.006932073182529929,0.601201538192795,0.0118370559066534,0.0334976352751255,0.008032128214836121,-0.004094749223440886,0.002920567989349365,5.155801773071289e-05,XArbitraryZVertical,0.287418414212158,0.07121974560226933,0.2390885291867898,0.9247460550519643,-0.005716534331440926,-0.5656337141990662,-0.8246368169784546,0,0,0,-1,-1,2759.652976375,walking,2,2022-05-12T10:31:02.069+02:00,2022-05-11T22:15:20.957+02:00,205,0.9472964,0.6030918,1.947791,162.3245,0,0,2022-05-12T10:31:04.627+02:00,674037064.6268183,0,0.3199997,100.9041,1,0.97
2022-05-12T10:31:06.640+02:00,1652344265.000022,53.22900514588992,10.39835186676159,37.52255,0.3,0.91,103.7109375,85.11546102143525,4,5,-9999,2764.223696,-0.0115509033203125,-0.58404541015625,-0.8200225830078125,2764.213701,0.5082859499086373,-0.006688611379241924,0.6012622752492438,0.006509069353342056,0.03158694878220558,0.008525212295353413,-0.006813451647758484,-0.001881659030914307,0.002566754817962646,XArbitraryZVertical,0.2874128352811175,0.07135794622229762,0.2391800655925395,0.9247134474147158,-0.0055155367590487,-0.5656838417053223,-0.824603796005249,0,0,0,-1,-1,2759.652976375,walking,2,2022-05-12T10:31:02.069+02:00,2022-05-11T22:15:20.957+02:00,205,0.9472964,0.6030918,1.947791,162.3245,0,0,2022-05-12T10:31:04.627+02:00,674037064.6268183,0,0.3199997,100.9041,1,0.97
2022-05-12T10:31:06.651+02:00,1652344265.000022,53.22900514588992,10.39835186676159,37.52255,0.3,0.91,103.7109375,85.11546102143525,4,5,-9999,2764.233691,-0.010589599609375,-0.578094482421875,-0.8224334716796875,2764.223696,0.5083991544982741,-0.006476197313877591,0.6011873249766967,-0.01336769945919514,0.02764946594834328,0.007420000620186329,-0.01094035804271698,-0.01126658916473389,0.004166662693023682,XArbitraryZVertical,0.2873487557794211,0.07146339158785353,0.2392658361988926,0.9247030129322268,-0.005340653471648693,-0.5656220316886902,-0.8246473670005798,0,0,0,-1,-1,2759.652976375,walking,2,2022-05-12T10:31:02.069+02:00,2022-05-11T22:15:20.957+02:00,205,0.9472964,0.6030918,1.947791,162.3245,0,0,2022-05-12T10:31:04.627+02:00,674037064.6268183,0,0.3199997,100.9041,1,0.97
2022-05-12T10:31:06.660+02:00,1652344265.000022,53.22900514588992,10.39835186676159,37.52255,0.3,0.91,103.7109375,85.11546102143525,4,5,-9999,2764.243686,-0.01214599609375,-0.573150634765625,-0.825469970703125,2764.233691,0.5085416652498347,-0.006312732932047802,0.6009950258744979,-0.01940814778208733,0.02387470006942749,0.01263580191880465,-0.006344243418425322,-0.01858150959014893,0.0047340989112854,XArbitraryZVertical,0.2872352356068139,0.07153625345457859,0.2393626492122532,0.9247075983321479,-0.005206539761275053,-0.5654634237289429,-0.8247569799423218,0,0,0,-1,-1,2759.652976375,walking,2,2022-05-12T10:31:02.069+02:00,2022-05-11T22:15:20.957+02:00,205,0.9472964,0.6030918,1.947791,162.3245,0,0,2022-05-12T10:31:04.627+02:00,674037064.6268183,0,0.3199997,100.9041,1,0.97
2022-05-12T10:31:06.670+02:00,1652344265.000022,53.22900514588992,10.39835186676159,37.52255,0.3,0.91,103.7109375,85.11546102143525,4,5,-9999,2764.253681,-0.0104217529296875,-0.5771942138671875,-0.825164794921875,2764.243686,0.508735028983323,-0.006229138124646247,0.6008277462155404,-0.003160202875733376,0.01861762069165707,0.01656742766499519,-0.005451291333884001,-0.01276856660842896,0.002418220043182373,XArbitraryZVertical,0.2871409986751845,0.07158248777143653,0.2394705186076465,0.9247053883335358,-0.005138183478266001,-0.5653254389762878,-0.8248519897460938,0,0,0,-1,-1,2759.652976375,walking,2,2022-05-12T10:31:02.069+02:00,2022-05-11T22:15:20.957+02:00,205,0.9472964,0.6030918,1.947791,162.3245,0,0,2022-05-12T10:31:04.627+02:00,674037064.6268183,0,0.3199997,100.9041,1,0.97
2022-05-12T10:31:06.680+02:00,1652344265.000022,53.22900514588992,10.39835186676159,37.52255,0.3,0.91,103.7109375,85.11546102143525,4,5,-9999,2764.263676,-0.0103912353515625,-0.5730438232421875,-0.8226318359375,2764.253681,0.5089408805430713,-0.006215979520063418,0.6008194512436087,0.0131856482475996,0.01326739601790905,0.01603126525878906,-0.007018506526947021,-0.007831573486328125,-0.0006135702133178711,XArbitraryZVertical,0.2871282119981867,0.07161711755766902,0.2395678966703175,0.9246814827136701,-0.005127358715981245,-0.5653185844421387,-0.8248567581176758,0,0,0,-1,-1,2759.652976375,walking,2,2022-05-12T10:31:02.069+02:00,2022-05-11T22:15:20.957+02:00,205,0.9472964,0.6030918,1.947791,162.3245,0,0,2022-05-12T10:31:04.627+02:00,674037064.6268183,0,0.3199997,100.9041,1,0.97
2022-05-12T10:31:06.690+02:00,1652344265.000022,53.22900514588992,10.39835186676159,37.52255,0.3,0.91,103.7109375,85.11546102143525,4,5,-9999,2764.273671,-0.00885009765625,-0.5728912353515625,-0.8220062255859375,2764.263676,0.5090530291955142,-0.006139915272635818,0.6009031875723999,0.00490081962198019,0.01570179313421249,0.004201769828796387,-0.005357309710234404,-0.01180607080459595,-0.0003553032875061035,XArbitraryZVertical,0.2871538095772208,0.07167851890874956,0.2396274553937036,0.9246532275822597,-0.005064325872808695,-0.5653876662254333,-0.824809730052948,0,0,0,-1,-1,2759.652976375,walking,2,2022-05-12T10:31:02.069+02:00,2022-05-11T22:15:20.957+02:00,205,0.9472964,0.6030918,1.947791,162.3245,0,0,2022-05-12T10:31:04.627+02:00,674037064.6268183,0,0.3199997,100.9041,1,0.97
2022-05-12T10:31:06.700+02:00,1652344265.000022,53.22900514588992,10.39835186676159,37.52255,0.3,0.91,103.7109375,85.11546102143525,4,5,-9999,2764.283666,-0.0078582763671875,-0.5721435546875,-0.8246307373046875,2764.273671,0.5090080271018311,-0.005972633294019622,0.6009203018198536,0.0008865701965987682,0.01341586839407682,-0.01170222833752632,-0.005464822053909302,-0.007641613483428955,0.002168774604797363,XArbitraryZVertical,0.2871432862448735,0.07175145964918254,0.2396300033400555,0.9246501876402888,-0.004926292225718498,-0.5654017925262451,-0.8248009085655212,0,0,0,-1,-1,2759.652976375,walking,2,2022-05-12T10:31:02.069+02:00,2022-05-11T22:15:20.957+02:00,205,0.9472964,0.6030918,1.947791,162.3245,0,0,2022-05-12T10:31:04.627+02:00,674037064.6268183,0,0.3199997,100.9041,1,0.97
2022-05-12T10:31:06.710+02:00,1652344265.000022,53.22900514588992,10.39835186676159,37.52255,0.3,0.91,103.7109375,85.11546102143525,4,5,-9999,2764.293661,-0.0034942626953125,-0.5735015869140625,-0.8281402587890625,2764.283666,0.508830217899353,-0.005787749892850617,0.6009338587472911,0.003273827955126762,0.007761976681649685,-0.02006535232067108,-0.004076212178915739,-0.007477819919586182,0.002787649631500244,XArbitraryZVertical,0.2871337766773053,0.07181303827784698,0.2395738115830347,0.9246629454359295,-0.004773755557835102,-0.5654129981994629,-0.8247941732406616,0,0,0,-1,-1,2759.652976375,walking,2,2022-05-12T10:31:02.069+02:00,2022-05-11T22:15:20.957+02:00,205,0.9472964,0.6030918,1.947791,162.3245,0,0,2022-05-12T10:31:04.627+02:00,674037064.6268183,0,0.3199997,100.9041,1,0.97
2022-05-12T10:31:06.720+02:00,1652344265.000022,53.22900514588992,10.39835186676159,37.52255,0.3,0.91,103.7109375,85.11546102143525,4,5,-9999,2764.303656,-0.00067138671875,-0.569793701171875,-0.8293609619140625,2764.293661,0.5085910634464936,-0.005610539634566222,0.60101713295982,0.01149457320570946,0.004821779672056437,-0.02171138674020767,-0.003230825066566467,-0.006661415100097656,0.000116884708404541,XArbitraryZVertical,0.2871596128387329,0.07187066214694909,0.2394854630236195,0.9246733800326078,-0.004627329297363758,-0.5654816627502441,-0.8247479200363159,0,0,0,-1,-1,2759.652976375,walking,2,2022-05-12T10:31:02.069+02:00,2022-05-11T22:15:20.957+02:00,205,0.9472964,0.6030918,1.947791,162.3245,0,0,2022-05-12T10:31:04.627+02:00,674037064.6268183,0,0.3199997,100.9041,1,0.97
2022-05-12T10:31:06.730+02:00,1652344265.000022,53.22900514588992,10.39835186676159,37.52255,0.3,0.91,103.7109375,85.11546102143525,4,5,-9999,2764.313652,-0.0004425048828125,-0.5669097900390625,-0.8264617919921875,2764.303656,0.5083458578956502,-0.00546058089325484,0.6011485377601322,0.002380437217652798,0.002922413405030966,-0.02313804253935814,0.001009106636047363,-0.007911145687103271,-0.003466308116912842,XArbitraryZVertical,0.2872112283391394,0.07192064281794999,0.2393885907753121,0.9246784505815813,-0.004503245465457439,-0.5655900239944458,-0.8246742486953735,0,0,0,-1,-1,2759.652976375,walking,2,2022-05-12T10:31:02.069+02:00,2022-05-11T22:15:20.957+02:00,205,0.9472964,0.6030918,1.947791,162.3245,0,0,2022-05-12T10:31:04.627+02:00,674037064.6268183,0,0.3199997,100.9041,1,0.97
2022-05-12T10:31:06.740+02:00,1652344265.000022,53.22900514588992,10.39835186676159,37.52255,0.3,0.91,103.7109375,85.11546102143525,4,5,-9999,2764.323647,-0.001983642578125,-0.565643310546875,-0.826263427734375,2764.313652,0.5080842349150798,-0.005347351302620498,0.6011615017002638,-0.01647058129310608,-0.001125258160755038,-0.02271945960819721,0.003738567233085632,-0.004192531108856201,-0.004693865776062012,XArbitraryZVertical,0.2872130753884873,0.07193698198737147,0.2392833896499793,0.9247038466530941,-0.004409828688949347,-0.5656006932258606,-0.8246674537658691,0,0,0,-1,-1,2759.652976375,walking,2,2022-05-12T10:31:02.069+02:00,2022-05-11T22:15:20.957+02:00,205,0.9472964,0.6030918,1.947791,162.3245,0,0,2022-05-12T10:31:04.627+02:00,674037064.6268183,0,0.3199997,100.9041,1,0.97
2022-05-12T10:31:06.750+02:00,1652344265.000022,53.22900514588992,10.39835186676159,37.52255,0.3,0.91,103.7109375,85.11546102143525,4,5,-9999,2764.333642,-0.008575439453125,-0.566436767578125,-0.8223724365234375,2764.323647,0.5078013628838226,-0.005197336820270617,0.600973828979104,-0.03052940964698792,0.002253227867186069,-0.02812647633254528,0.003844290971755981,-0.001463413238525391,-0.001687884330749512,XArbitraryZVertical,0.2871185719490563,0.07194313954965437,0.2391813488391344,0.9247591044890258,-0.004286667797714472,-0.5654459595680237,-0.8247742056846619,0,0,0,-1,-1,2759.652976375,walking,2,2022-05-12T10:31:02.069+02:00,2022-05-11T22:15:20.957+02:00,205,0.9472964,0.6030918,1.947791,162.3245,0,0,2022-05-12T10:31:04.627+02:00,674037064.6268183,0,0.3199997,100.9041,1,0.97
2022-05-12T10:31:06.760+02:00,1652344265.000022,53.22900514588992,10.39835186676159,37.52255,0.3,0.91,103.7109375,85.11546102143525,4,5,-9999,2764.343637,-0.009429931640625,-0.5636749267578125,-0.82025146484375,2764.333642,0.5074664896024303,-0.00499916698073437,0.6006158260629375,-0.04274862632155418,0.005240029189735651,-0.02870231866836548,0.002140716183930635,-0.0004922151565551758,-0.00128626823425293,XArbitraryZVertical,0.2869414567002807,0.07194365349092882,0.2390686698208837,0.924843151799032,-0.004124234430491924,-0.5651506185531616,-0.8249773979187012,0,0,0,-1,-1,2759.652976375,walking,2,2022-05-12T10:31:02.069+02:00,2022-05-11T22:15:20.957+02:00,205,0.9472964,0.6030918,1.947791,162.3245,0,0,2022-05-12T10:31:04.627+02:00,674037064.6268183,0,0.3199997,100.9041,1,0.97
2022-05-12T10:31:06.770+02:00,1652344265.000022,53.22900514588992,10.39835186676159,37.52255,0.3,0.91,103.7109375,85.11546102143525,4,5,-9999,2764.353632,-0.0108642578125,-0.56207275390625,-0.8161773681640625,2764.343637,0.5071327171964402,-0.004777940940821086,0.6002012581037788,-0.04960919544100761,0.006020868662744761,-0.02797846868634224,-0.004632472991943359,-0.001627743244171143,0.002839803695678711,XArbitraryZVertical,0.2867353436144513,0.07194821931192989,0.2389618621668282,0.9249344706173755,-0.00394284725189209,-0.5648085474967957,-0.8252125978469849,0,0,0,-1,-1,2759.652976375,walking,2,2022-05-12T10:31:02.069+02:00,2022-05-11T22:15:20.957+02:00,205,0.9472964,0.6030918,1.947791,162.3245,0,0,2022-05-12T10:31:04.627+02:00,674037064.6268183,0,0.3199997,100.9041,1,0.97
2022-05-12T10:31:06.780+02:00,1652344265.000022,53.22900514588992,10.39835186676159,37.52255,0.3,0.91,103.7109375,85.11546102143525,4,5,-9999,2764.363627,-0.0091705322265625,-0.5713653564453125,-0.8162841796875,2764.353632,0.5068117900627256,-0.004535940449601737,0.5997346645321999,-0.05068128183484077,0.009575055912137032,-0.02806495688855648,-0.005685478448867798,0.0007489919662475586,0.005225181579589844,XArbitraryZVertical,0.286502259196094,0.07195809624902866,0.2388659027657211,0.9250307361511144,-0.003744340036064386,-0.5644234418869019,-0.8254770040512085,0,0,0,-1,-1,2759.652976375,walking,2,2022-05-12T10:31:02.069+02:00,2022-05-11T22:15:20.957+02:00,205,0.9472964,0.6030918,1.947791,162.3245,0,0,2022-05-12T10:31:04.627+02:00,674037064.6268183,0,0.3199997,100.9041,1,0.97
2022-05-12T10:31:06.790+02:00,1652344265.000022,53.22900514588992,10.39835186676159,37.52255,0.3,0.91,103.7109375,85.11546102143525,4,5,-9999,2764.373622,-0.002899169921875,-0.573394775390625,-0.8158416748046875,2764.363627,0.5064627287939076,-0.004262662192150499,0.5992740810997812,-0.05130366235971451,0.0101188737899065,-0.03206688910722733,-0.007344275712966919,0.001970887184143066,0.009560108184814453,XArbitraryZVertical,0.2862692637035408,0.07197926081748234,0.2387611219216568,0.9251281345507071,-0.003519862657412887,-0.5640432238578796,-0.8257377743721008,0,0,0,-1,-1,2759.652976375,walking,2,2022-05-12T10:31:02.069+02:00,2022-05-11T22:15:20.957+02:00,205,0.9472964,0.6030918,1.947791,162.3245,0,0,2022-05-12T10:31:04.627+02:00,674037064.6268183,0,0.3199997,100.9041,1,0.97
2022-05-12T10:31:06.800+02:00,1652344265.000022,53.22900514588992,10.39835186676159,37.52255,0.3,0.91,103.7109375,85.11546102143525,4,5,-9999,2764.383617,-0.005645751953125,-0.5741729736328125,-0.8169708251953125,2764.373622,0.5061132414584314,-0.00398643899462667,0.5987782021821758,-0.0544617734849453,0.008230693638324738,-0.02743698284029961,-0.005877524614334106,-0.007731199264526367,0.009733855724334717,XArbitraryZVertical,0.2860195492282172,0.07199754874814203,0.2386577569059895,0.9252306588844084,-0.003292889101430774,-0.5636336803436279,-0.8260183334350586,0,0,0,-1,-1,2759.652976375,walking,2,2022-05-12T10:31:02.069+02:00,2022-05-11T22:15:20.957+02:00,205,0.9472964,0.6030918,1.947791,162.3245,0,0,2022-05-12T10:31:04.627+02:00,674037064.6268183,0,0.3199997,100.9041,1,0.97
2022-05-12T10:31:06.810+02:00,1652344265.000022,53.22900514588992,10.39835186676159,37.52255,0.3,0.91,103.7109375,85.11546102143525,4,5,-9999,2764.393612,-0.0023345947265625,-0.5746002197265625,-0.8180389404296875,2764.383617,0.5057630986021424,-0.003742155722002619,0.5982317562439725,-0.05929168313741684,0.0006441459991037846,-0.02823007293045521,0.0001932084560394287,-0.01021212339401245,0.01048499345779419,XArbitraryZVertical,0.2857502853140896,0.07199502637001882,0.2385513375099555,0.9253414683867897,-0.003092258702963591,-0.5631821751594543,-0.8263269662857056,0,0,0,-1,-1,2759.652976375,walking,2,2022-05-12T10:31:02.069+02:00,2022-05-11T22:15:20.957+02:00,205,0.9472964,0.6030918,1.947791,162.3245,0,0,2022-05-12T10:31:04.627+02:00,674037064.6268183,0,0.3199997,100.9041,1,0.97
2022-05-12T10:31:06.820+02:00,1652344265.000022,53.22900514588992,10.39835186676159,37.52255,0.3,0.91,103.7109375,85.11546102143525,4,5,-9999,2764.403607,-0.0062408447265625,-0.568084716796875,-0.822113037109375,2764.393612,0.5054369749970986,-0.003550159272349395,0.5976620681748587,-0.05280222371220589,-0.00204751081764698,-0.02297139540314674,-0.002710893750190735,-0.01146119832992554,0.009677112102508545,XArbitraryZVertical,0.2854755983767225,0.07196904933242987,0.2384493140623692,0.9254546022790283,-0.002934745280072093,-0.5627113580703735,-0.8266482949256897,0,0,0,-1,-1,2759.652976375,walking,2,2022-05-12T10:31:02.069+02:00,2022-05-11T22:15:20.957+02:00,205,0.9472964,0.6030918,1.947791,162.3245,0,0,2022-05-12T10:31:04.627+02:00,674037064.6268183,0,0.3199997,100.9041,1,0.97
2022-05-12T10:31:06.830+02:00,1652344265.000022,53.22900514588992,10.39835186676159,37.52255,0.3,0.91,103.7109375,85.11546102143525,4,5,-9999,2764.413602,-0.0109100341796875,-0.56744384765625,-0.8242645263671875,2764.403607,0.505175085296673,-0.003418901943865468,0.5972553982175672,-0.03051715716719627,-0.0006176596507430077,-0.01759527251124382,0.0004925429821014404,-0.01222467422485352,0.008838176727294922,XArbitraryZVertical,0.2852812286820229,0.0719437313804553,0.2383621309536952,0.9255390061213695,-0.002827023854479194,-0.5623751282691956,-0.8268774151802063,0,0,0,-1,-1,2759.652976375,walking,2,2022-05-12T10:31:02.069+02:00,2022-05-11T22:15:20.957+02:00,205,0.9472964,0.6030918,1.947791,162.3245,0,0,2022-05-12T10:31:04.627+02:00,674037064.6268183,0,0.3199997,100.9041,1,0.97
2022-05-12T10:31:06.841+02:00,1652344265.000022,53.22900514588992,10.39835186676159,37.52255,0.3,0.91,103.7109375,85.11546102143525,4,5,-9999,2764.423597,0.000457763671875,-0.5725250244140625,-0.8240966796875,2764.413602,0.5049385464760916,-0.003214112963118864,0.5969734076454057,-0.02991315536201,0.01334502827376127,-0.01880993880331516,-0.003582537174224854,-0.005942344665527344,0.004923164844512939,XArbitraryZVertical,0.2851348980926261,0.0719710612915542,0.2382924705933456,0.9255998057944814,-0.002658197889104486,-0.5621419548988342,-0.8270364999771118,0,0,0,-1,-1,2759.652976375,walking,2,2022-05-12T10:31:02.069+02:00,2022-05-11T22:15:20.957+02:00,205,0.9472964,0.6030918,1.947791,162.3245,0,0,2022-05-12T10:31:04.627+02:00,674037064.6268183,0,0.3199997,100.9041,1,0.97
2022-05-12T10:31:06.851+02:00,1652344265.000022,53.22900514588992,10.39835186676159,37.52255,0.3,0.91,103.7109375,85.11546102143525,4,5,-9999,2764.433592,-0.0012969970703125,-0.582183837890625,-0.82696533203125,2764.423597,0.5046763224221209,-0.003006201178418758,0.5966831445474202,-0.0377122201025486,0.005134502425789833,-0.02844392508268356,-0.008423179388046265,-0.005541563034057617,0.002935349941253662,XArbitraryZVertical,0.2849852595811386,0.07199520220907993,0.2382116047403411,0.9256648378745098,-0.002486737677827477,-0.561901867389679,-0.827200174331665,0,0,0,-1,-1,2759.652976375,walking,2,2022-05-12T10:31:02.069+02:00,2022-05-11T22:15:20.957+02:00,205,0.9472964,0.6030918,1.947791,162.3245,0,0,2022-05-12T10:31:04.627+02:00,674037064.6268183,0,0.3199997,100.9041,1,0.97
2022-05-12T10:31:06.861+02:00,1652344265.000022,53.22900514588992,10.39835186676159,37.52255,0.3,0.91,103.7109375,85.11546102143525,4,5,-9999,2764.443588,-0.0063323974609375,-0.580413818359375,-0.8277740478515625,2764.433592,0.504286420659517,-0.002762275686462749,0.5962949648442076,-0.04909480363130569,0.007819035090506077,-0.04064765945076942,0.002743452787399292,-0.01094388961791992,0.003321826457977295,XArbitraryZVertical,0.2847906201182411,0.07200618346258268,0.2380803741444359,0.9257576478552675,-0.002285564783960581,-0.5615807175636292,-0.8274188041687012,0,0,0,-1,-1,2759.652976375,walking,2,2022-05-12T10:31:02.069+02:00,2022-05-11T22:15:20.957+02:00,205,0.9472964,0.6030918,1.947791,162.3245,0,0,2022-05-12T10:31:04.627+02:00,674037064.6268183,0,0.3199997,100.9041,1,0.97
2022-05-12T10:31:06.871+02:00,1652344265.000022,53.22900514588992,10.39835186676159,37.52255,0.3,0.91,103.7109375,85.11546102143525,4,5,-9999,2764.453583,-0.0082550048828125,-0.5760650634765625,-0.824615478515625,2764.443588,0.5037724624834254,-0.002391337825035638,0.595743541653677,-0.06775610148906708,0.01567349582910538,-0.04873914271593094,0.0006825029850006104,-0.02105903625488281,0.0007635354995727539,XArbitraryZVertical,0.2845097615968534,0.07203890926988504,0.2379157514540291,0.9258838378405293,-0.001979383872821927,-0.5611243844032288,-0.8277291655540466,0,0,0,-1,-1,2759.652976375,walking,2,2022-05-12T10:31:02.069+02:00,2022-05-11T22:15:20.957+02:00,205,0.9472964,0.6030918,1.947791,162.3245,0,0,2022-05-12T10:31:04.627+02:00,674037064.6268183,0,0.3199997,100.9041,1,0.97
2022-05-12T10:31:06.881+02:00,1652344265.000022,53.22900514588992,10.39835186676159,37.52255,0.3,0.91,103.7109375,85.11546102143525,4,5,-9999,2764.463578,0.002166748046875,-0.5738983154296875,-0.81573486328125,2764.453583,0.5031419594707316,-0.001925310138490827,0.5950935277470601,-0.07519924640655518,0.005419793073087931,-0.0608658455312252,-0.004737943410873413,-0.01982718706130981,0.0003201961517333984,XArbitraryZVertical,0.2841761820813056,0.07208754725529343,0.2377141749046112,0.9260342288758191,-0.001594340777955949,-0.5605862140655518,-0.8280945420265198,0,0,0,-1,-1,2759.652976375,walking,2,2022-05-12T10:31:02.069+02:00,2022-05-11T22:15:20.957+02:00,205,0.9472964,0.6030918,1.947791,162.3245,0,0,2022-05-12T10:31:04.627+02:00,674037064.6268183,0,0.3199997,100.9041,1,0.97
2022-05-12T10:31:06.891+02:00,1652344265.000022,53.22900514588992,10.39835186676159,37.52255,0.3,0.91,103.7109375,85.11546102143525,4,5,-9999,2764.473573,0.0023651123046875,-0.5762939453125,-0.8145294189453125,2764.463578,0.5021651842716762,-0.001546410783555516,0.5943570821183352,-0.08584602922201157,-0.03703978285193443,-0.1014702618122101,-0.006973683834075928,-0.01608836650848389,0.003891944885253906,XArbitraryZVertical,0.2838254108708545,0.07203666704030649,0.2373428020449345,0.926240953534888,-0.001281214295886457,-0.5599762201309204,-0.8285077214241028,0,0,0,-1,-1,2759.652976375,walking,2,2022-05-12T10:31:02.069+02:00,2022-05-11T22:15:20.957+02:00,205,0.9472964,0.6030918,1.947791,162.3245,0,0,2022-05-12T10:31:04.627+02:00,674037064.6268183,0,0.3199997,100.9041,1,0.97
2022-05-12T10:31:06.901+02:00,1652344265.000022,53.22900514588992,10.39835186676159,37.52255,0.3,0.91,103.7109375,85.11546102143525,4,5,-9999,2764.483568,0.0064239501953125,-0.5836181640625,-0.8178253173828125,2764.473573,0.5007312197917254,-0.001180642299320517,0.5935617736609355,-0.08671898394823074,-0.05562219023704529,-0.1354842185974121,0.003145560622215271,-0.01458078622817993,0.01321804523468018,XArbitraryZVertical,0.2834653148413467,0.07190829286511216,0.2367595969657222,0.9265104509179721,-0.0009786976734176278,-0.5593171119689941,-0.8289532065391541,0,0,0,-1,-1,2759.652976375,walking,2,2022-05-12T10:31:02.069+02:00,2022-05-11T22:15:20.957+02:00,205,0.9472964,0.6030918,1.947791,162.3245,0,0,2022-05-12T10:31:04.627+02:00,674037064.6268183,0,0.3199997,100.9041,1,0.97
2022-05-12T10:31:06.911+02:00,1652344265.000022,53.22900514588992,10.39835186676159,37.52255,0.3,0.91,103.7109375,85.11546102143525,4,5,-9999,2764.493563,0.000885009765625,-0.5932464599609375,-0.8119659423828125,2764.483568,0.4988727724445488,-0.0008559665452774803,0.5928310488486399,-0.08043951541185379,-0.08915271610021591,-0.1732377260923386,0.003075122833251953,-0.01758229732513428,0.0148322582244873,XArbitraryZVertical,0.2831551407376857,0.0717090135754994,0.2359711003880461,0.9268217995325897,-0.0007099062786437571,-0.5587112307548523,-0.8293619751930237,0,0,0,-1,-1,2759.652976375,walking,2,2022-05-12T10:31:02.069+02:00,2022-05-11T22:15:20.957+02:00,205,0.9472964,0.6030918,1.947791,162.3245,0,0,2022-05-12T10:31:04.627+02:00,674037064.6268183,0,0.3199997,100.9041,1,0.97
2022-05-12T10:31:06.921+02:00,1652344265.000022,53.22900514588992,10.39835186676159,37.52255,0.3,0.91,103.7109375,85.11546102143525,4,5,-9999,2764.503558,-0.06658935546875,-0.6561279296875,-0.79693603515625,2764.493563,0.4966288097026027,-0.0006322612145918712,0.5920217169398602,-0.09528553485870361,-0.1095865517854691,-0.200290709733963,0.006948724389076233,-0.02557790279388428,0.01198840141296387,XArbitraryZVertical,0.2828339742678032,0.07139980788182389,0.2349919013005855,0.9271924628963746,-0.0005246592918410897,-0.5580397844314575,-0.8298140168190002,0,0,0,-1,-1,2759.652976375,walking,2,2022-05-12T10:31:02.069+02:00,2022-05-11T22:15:20.957+02:00,205,0.9472964,0.6030918,1.947791,162.3245,0,0,2022-05-12T10:31:04.627+02:00,674037064.6268183,0,0.3199997,100.9041,1,0.97
2022-05-12T10:31:06.931+02:00,1652344265.000022,53.22900514588992,10.39835186676159,37.52255,0.3,0.91,103.7109375,85.11546102143525,4,5,-9999,2764.513553,-0.0566253662109375,-0.655181884765625,-0.8176116943359375,2764.503558,0.4935001977652191,0.0001679358148520961,0.5906275005968633,-0.2325872033834457,-0.03245927765965462,-0.3903719782829285,0.0007456392049789429,-0.03636372089385986,0.01862514019012451,XArbitraryZVertical,0.2822051849914016,0.07116551944741699,0.2337039421948175,0.9277274693671665,0.0001394860446453094,-0.5568823218345642,-0.8305913805961609,0,0,0,-1,-1,2759.652976375,walking,2,2022-05-12T10:31:02.069+02:00,2022-05-11T22:15:20.957+02:00,205,0.9472964,0.6030918,1.947791,162.3245,0,0,2022-05-12T10:31:04.627+02:00,674037064.6268183,0,0.3199997,100.9041,1,0.97
2022-05-12T10:31:06.941+02:00,1652344265.000022,53.22900514588992,10.39835186676159,37.52255,0.3,0.91,103.7109375,85.11546102143525,4,5,-9999,2764.523547791667,-0.1884307861328125,-0.620269775390625,-0.805389404296875,2764.513553,0.4900655166391261,0.002422869230030783,0.5884881224060072,-0.2231589555740356,0.09403634816408157,-0.2211501896381378,-0.06860454380512238,-0.1010233163833618,0.03484213352203369,XArbitraryZVertical,0.2810720573663967,0.07147923699798232,0.2325027411320233,0.9283488987784542,0.002015294274315238,-0.55510413646698,-0.8317784070968628,0,0,0,-1,-1,2759.652976375,walking,2,2022-05-12T10:31:02.069+02:00,2022-05-11T22:15:20.957+02:00,205,0.9472964,0.6030918,1.947791,162.3245,0,0,2022-05-12T10:31:04.627+02:00,674037064.6268183,0,0.3199997,100.9041,1,0.97
2022-05-12T10:31:06.950+02:00,1652344265.000022,53.22900514588992,10.39835186676159,37.52255,0.3,0.91,103.7109375,85.11546102143525,4,5,-9999,2764.533542791667,0.0575103759765625,-0.60906982421875,-0.7828826904296875,2764.523547791667,0.4894115025249941,0.004611595733249063,0.5860888036437706,-0.2568583190441132,0.2191247642040253,-0.140102744102478,-0.06046721339225769,-0.1020745635032654,0.01548951864242554,XArbitraryZVertical,0.2797268421580958,0.07212588257190873,0.2325881834634633,0.9286837537094115,0.003841954516246915,-0.5531067848205566,-0.8331015110015869,0,0,0,-1,-1,2759.652976375,walking,2,2022-05-12T10:31:02.069+02:00,2022-05-11T22:15:20.957+02:00,205,0.9472964,0.6030918,1.947791,162.3245,0,0,2022-05-12T10:31:04.627+02:00,674037064.6268183,0,0.3199997,100.9041,1,0.97
2022-05-12T10:31:06.961+02:00,1652344265.000022,53.22900514588992,10.39835186676159,37.52255,0.3,0.91,103.7109375,85.11546102143525,4,5,-9999,2764.543537791667,-0.0084991455078125,-0.5931243896484375,-0.7819976806640625,2764.533542791667,0.4871955536682665,0.007750255287681409,0.583154240518417,-0.2964456677436829,0.06138765439391136,-0.195570319890976,-0.1948999911546707,-0.06960970163345337,0.02931517362594604,XArbitraryZVertical,0.2780788879409657,0.07293632350930655,0.2320945908538411,0.9292387532414903,0.006469305139034986,-0.5506595969200134,-0.8347048759460449,0,0,0,-1,-1,2759.652976375,walking,2,2022-05-12T10:31:02.069+02:00,2022-05-11T22:15:20.957+02:00,205,0.9472964,0.6030918,1.947791,162.3245,0,0,2022-05-12T10:31:04.627+02:00,674037064.6268183,0,0.3199997,100.9041,1,0.97
2022-05-12T10:31:06.971+02:00,1652344265.000022,53.22900514588992,10.39835186676159,37.52255,0.3,0.91,103.7109375,85.11546102143525,4,5,-9999,2764.553532791667,-0.0831451416015625,-0.6299896240234375,-0.7769317626953125,2764.543537791667,0.4842237754803976,0.009790893605193996,0.5801984182331472,-0.2817593812942505,0.03011361882090569,-0.2811707258224487,0.04932196438312531,-0.06087946891784668,0.05343085527420044,XArbitraryZVertical,0.2765763654209114,0.07313403470427277,0.2310921738993146,0.9299212688140828,0.008188521489500999,-0.5481898784637451,-0.8363138437271118,0,0,0,-1,-1,2759.652976375,walking,2,2022-05-12T10:31:02.069+02:00,2022-05-11T22:15:20.957+02:00,205,0.9472964,0.6030918,1.947791,162.3245,0,0,2022-05-12T10:31:04.627+02:00,674037064.6268183,0,0.3199997,100.9041,1,0.97
2022-05-12T10:31:06.981+02:00,1652344265.000022,53.22900514588992,10.39835186676159,37.52255,0.3,0.91,103.7109375,85.11546102143525,4,5,-9999,2764.563527791667,-0.0926971435546875,-0.66656494140625,-0.78582763671875,2764.553532791667,0.480375071237248,0.01210661372951632,0.5770219301510345,-0.3715750277042389,-0.01192304491996765,-0.4232644736766815,-0.01864522695541382,-0.04759341478347778,0.05603164434432983,XArbitraryZVertical,0.2749717704660359,0.07331943306312418,0.2297213605399767,0.9307216980701195,0.010146196000278,-0.5455304384231567,-0.8380295634269714,0,0,0,-1,-1,2759.652976375,walking,2,2022-05-12T10:31:02.069+02:00,2022-05-11T22:15:20.957+02:00,205,0.9472964,0.6030918,1.947791,162.3245,0,0,2022-05-12T10:31:04.627+02:00,674037064.6268183,0,0.3199997,100.9041,1,0.97
2022-05-12T10:31:06.990+02:00,1652344265.000022,53.22900514588992,10.39835186676159,37.52255,0.3,0.91,103.7109375,85.11546102143525,4,5,-9999,2764.573523791667,-0.0670013427734375,-0.6992340087890625,-0.81884765625,2764.563527791667,0.4752364209242306,0.01523445883512824,0.5728158513448671,-0.450842946767807,0.04711470752954483,-0.4437330067157745,-0.09594724327325821,-0.08798855543136597,0.06334859132766724,XArbitraryZVertical,0.2728422631344239,0.07359879048941609,0.2278847178654637,0.9317773741618238,0.01280221156775951,-0.5420005917549133,-0.8402806520462036,0,0,0,-1,-1,2759.652976375,walking,2,2022-05-12T10:31:02.069+02:00,2022-05-11T22:15:20.957+02:00,205,0.9472964,0.6030918,1.947791,162.3245,0,0,2022-05-12T10:31:04.627+02:00,674037064.6268183,0,0.3199997,100.9041,1,0.97
2022-05-12T10:31:07.001+02:00,1652344265.000022,53.22900514588992,10.39835186676159,37.52255,0.3,0.91,103.7109375,85.11546102143525,4,5,-9999,2764.583518791667,-0.082672119140625,-0.6611328125,-0.827117919921875,2764.573523791667,0.469881802130949,0.0187624884152487,0.5681959835569852,-0.475279837846756,0.08179093152284622,-0.4842231571674347,-0.1085105016827583,-0.1284521222114563,0.05689680576324463,XArbitraryZVertical,0.2704833023838183,0.07400263731431872,0.2260016306873561,0.9328911071067238,0.01581346988677979,-0.5381123423576355,-0.8427248001098633,0,0,0,-1,-1,2759.652976375,walking,2,2022-05-12T10:31:02.069+02:00,2022-05-11T22:15:20.957+02:00,205,0.9472964,0.6030918,1.947791,162.3245,0,0,2022-05-12T10:31:04.627+02:00,674037064.6268183,0,0.3199997,100.9041,1,0.97
2022-05-12T10:31:07.011+02:00,1652344265.000022,53.22900514588992,10.39835186676159,37.52255,0.3,0.91,103.7109375,85.11546102143525,4,5,-9999,2764.593513791667,-0.0888519287109375,-0.6708221435546875,-0.8453521728515625,2764.583518791667,0.4638382560902636,0.02283269624701486,0.5629493787484274,-0.5495522022247314,0.0837550163269043,-0.5396925210952759,-0.08630881458520889,-0.1655507683753967,0.02661639451980591,XArbitraryZVertical,0.2677974949450788,0.07451387768247032,0.2238723074201739,0.9341378880475676,0.01930758729577065,-0.5336827635765076,-0.8454643487930298,0,0,0,-1,-1,2759.652976375,walking,2,2022-05-12T10:31:02.069+02:00,2022-05-11T22:15:20.957+02:00,205,0.9472964,0.6030918,1.947791,162.3245,0,0,2022-05-12T10:31:04.627+02:00,674037064.6268183,0,0.3199997,100.9041,1,0.97
2022-05-12T10:31:07.028+02:00,1652344265.000022,53.22900514588992,10.39835186676159,37.52255,0.3,0.91,103.7109375,85.11546102143525,4,5,-9999,2764.603508791667,-0.0806121826171875,-0.6693267822265625,-0.8321990966796875,2764.593513791667,0.4573977794529512,0.02730024697047034,0.5570154204267325,-0.6186290979385376,0.1263058632612228,-0.586920440196991,-0.1058425828814507,-0.1324772238731384,0.02140218019485474,XArbitraryZVertical,0.2647625797071269,0.07510371418376612,0.2216091614399204,0.9354943471558781,0.02317057363688946,-0.5286551117897034,-0.8485203981399536,0,0,0,-1,-1,2759.652976375,walking,2,2022-05-12T10:31:02.069+02:00,2022-05-11T22:15:20.957+02:00,205,0.9472964,0.6030918,1.947791,162.3245,0,0,2022-05-12T10:31:04.627+02:00,674037064.6268183,0,0.3199997,100.9041,1,0.97
2022-05-12T10:31:07.043+02:00,1652344265.000022,53.22900514588992,10.39835186676159,37.52255,0.3,0.91,103.7109375,85.11546102143525,4,5,-9999,2764.613503791667,-0.0921478271484375,-0.6681976318359375,-0.819915771484375,2764.603508791667,0.450430762518358,0.03241174001318344,0.5500111823746372,-0.746661365032196,0.1615749001502991,-0.6363162398338318,-0.1164786070585251,-0.1481248736381531,0.00671851634979248,XArbitraryZVertical,0.2611768815851035,0.07583645161507606,0.2191860881055487,0.9370128183731639,0.02762677706778049,-0.5226967334747314,-0.8520709276199341,0,0,0,-1,-1,2759.652976375,walking,2,2022-05-12T10:31:02.069+02:00,2022-05-11T22:15:20.957+02:00,205,0.9472964,0.6030918,1.947791,162.3245,0,0,2022-05-12T10:31:04.627+02:00,674037064.6268183,0,0.3199997,100.9041,1,0.97
2022-05-12T10:31:07.047+02:00,1652344265.000022,53.22900514588992,10.39835186676159,37.52255,0.3,0.91,103.7109375,85.11546102143525,4,5,-9999,2764.623498791667,-0.084442138671875,-0.6599578857421875,-0.8111114501953125,2764.613503791667,0.4430418453315537,0.03812698566539511,0.5415770673835423,-0.8961111903190613,0.2085087299346924,-0.6829874515533447,-0.113275058567524,-0.1538382768630981,0.02407467365264893,XArbitraryZVertical,0.256871929410744,0.07667967276873121,0.2166432473573805,0.9387241155358325,0.03266297653317451,-0.5154880285263062,-0.8562740683555603,0,0,0,-1,-1,2759.652976375,walking,2,2022-05-12T10:31:02.069+02:00,2022-05-11T22:15:20.957+02:00,205,0.9472964,0.6030918,1.947791,162.3245,0,0,2022-05-12T10:31:04.627+02:00,674037064.6268183,0,0.3199997,100.9041,1,0.97
2022-05-12T10:31:07.051+02:00,1652344265.000022,53.22900514588992,10.39835186676159,37.52255,0.3,0.91,103.7109375,85.11546102143525,4,5,-9999,2764.633493791667,-0.0917816162109375,-0.6578216552734375,-0.810455322265625,2764.623498791667,0.4352146209375268,0.04416836978347169,0.5317562302456561,-1.014348149299622,0.2112565785646439,-0.7446273565292358,-0.1302048563957214,-0.1611493229866028,0.04116129875183105,XArbitraryZVertical,0.2518974682053685,0.07751770947978108,0.2139225692812707,0.9406253204978513,0.03805713355541229,-0.5070478320121765,-0.8610773682594299,0,0,0,-1,-1,2759.652976375,walking,2,2022-05-12T10:31:02.069+02:00,2022-05-11T22:15:20.957+02:00,205,0.9472964,0.6030918,1.947791,162.3245,0,0,2022-05-12T10:31:04.627+02:00,674037064.6268183,0,0.3199997,100.9041,1,0.97
2022-05-12T10:31:07.061+02:00,1652344265.000022,53.22900514588992,10.39835186676159,37.52255,0.3,0.91,103.7109375,85.11546102143525,4,5,-9999,2764.643488791667,-0.092437744140625,-0.6668243408203125,-0.804107666015625,2764.633493791667,0.4271211727970572,0.0506318407396365,0.5205723193577293,-1.150420546531677,0.2690680027008057,-0.7602689862251282,-0.1283481568098068,-0.162580668926239,0.05531120300292969,XArbitraryZVertical,0.2462457607980135,0.07843189943812633,0.2111028943823803,0.9426808459252649,0.04390611127018929,-0.4973767399787903,-0.8664229512214661,0,0,0,-1,-1,2759.652976375,walking,2,2022-05-12T10:31:02.069+02:00,2022-05-11T22:15:20.957+02:00,205,0.9472964,0.6030918,1.947791,162.3245,0,0,2022-05-12T10:31:04.627+02:00,674037064.6268183,0,0.3199997,100.9041,1,0.97
2022-05-12T10:31:07.070+02:00,1652344265.000022,53.22900514588992,10.39835186676159,37.52255,0.3,0.91,103.7109375,85.11546102143525,4,5,-9999,2764.653483791667,-0.0681915283203125,-0.63226318359375,-0.804534912109375,2764.643488791667,0.419029868401653,0.05747890304169511,0.5079084750281667,-1.301960587501526,0.3059006035327911,-0.7894625663757324,-0.1419768631458282,-0.1714703738689423,0.06186509132385254,XArbitraryZVertical,0.2398529550803744,0.07943689524641699,0.2082929405392981,0.9448675009530352,0.05019532516598701,-0.486350804567337,-0.8723206520080566,0,0,0,-1,-1,2759.652976375,walking,2,2022-05-12T10:31:02.069+02:00,2022-05-11T22:15:20.957+02:00,205,0.9472964,0.6030918,1.947791,162.3245,0,0,2022-05-12T10:31:04.627+02:00,674037064.6268183,0,0.3199997,100.9041,1,0.97
2022-05-12T10:31:07.081+02:00,1652344265.000022,53.22900514588992,10.39835186676159,37.52255,0.3,0.91,103.7109375,85.11546102143525,4,5,-9999,2764.663478791667,-0.0592498779296875,-0.5909271240234375,-0.811279296875,2764.653483791667,0.4107024731605959,0.06459874139159782,0.4938695201037743,-1.404829740524292,0.3369314968585968,-0.8343261480331421,-0.1492776274681091,-0.1927872896194458,0.07456070184707642,XArbitraryZVertical,0.2327870327239114,0.08047276728911411,0.2053502826015155,0.9471883911149886,0.05683997645974159,-0.4740365743637085,-0.8786686658859253,0,0,0,-1,-1,2759.652976375,walking,2,2022-05-12T10:31:02.069+02:00,2022-05-11T22:15:20.957+02:00,205,0.9472964,0.6030918,1.947791,162.3245,0,0,2022-05-12T10:31:04.627+02:00,674037064.6268183,0,0.3199997,100.9041,1,0.97
2022-05-12T10:31:07.090+02:00,1652344265.000022,53.22900514588992,10.39835186676159,37.52255,0.3,0.91,103.7109375,85.11546102143525,4,5,-9999,2764.673473791667,-0.0192108154296875,-0.5311279296875,-0.80584716796875,2764.663478791667,0.4023139463179833,0.07212814707552086,0.4790681059750128,-1.439808011054993,0.3891012072563171,-0.846952497959137,-0.1321442723274231,-0.1713102757930756,0.08058232069015503,XArbitraryZVertical,0.225316491244832,0.08169298667559634,0.2023541005781462,0.9495322908527268,0.06395282596349716,-0.4609524011611938,-0.8851174712181091,0,0,0,-1,-1,2759.652976375,walking,2,2022-05-12T10:31:02.069+02:00,2022-05-11T22:15:20.957+02:00,205,0.9472964,0.6030918,1.947791,162.3245,0,0,2022-05-12T10:31:04.627+02:00,674037064.6268183,0,0.3199997,100.9041,1,0.97
2022-05-12T10:31:07.101+02:00,1652344265.000022,53.22900514588992,10.39835186676159,37.52255,0.3,0.91,103.7109375,85.11546102143525,4,5,-9999,2764.683468791667,0.0233001708984375,-0.5165557861328125,-0.8059844970703125,2764.673473791667,0.3937208852378958,0.07974699991848262,0.4639596765916551,-1.473127961158752,0.3559829294681549,-0.9112721085548401,-0.1304909884929657,-0.1434339284896851,0.08016592264175415,XArbitraryZVertical,0.2176970695325381,0.08297746837188263,0.1991884620232564,0.9518648729003667,0.07124118506908417,-0.4474926888942719,-0.8914454579353333,0,0,0,-1,-1,2759.652976375,walking,2,2022-05-12T10:31:02.069+02:00,2022-05-11T22:15:20.957+02:00,205,0.9472964,0.6030918,1.947791,162.3245,0,0,2022-05-12T10:31:04.627+02:00,674037064.6268183,0,0.3199997,100.9041,1,0.97
2022-05-12T10:31:07.110+02:00,1652344265.000022,53.22900514588992,10.39835186676159,37.52255,0.3,0.91,103.7109375,85.11546102143525,4,5,-9999,2764.693463791667,0.01751708984375,-0.52978515625,-0.8133392333984375,2764.683468791667,0.3848725633410613,0.08713411233160695,0.4483141452925004,-1.513430595397949,0.3421848118305206,-0.9317789673805237,-0.09763485938310623,-0.09768053889274597,0.09191280603408813,XArbitraryZVertical,0.2098532559437314,0.08415158241508022,0.1957916033332296,0.9542252405038181,0.0784241184592247,-0.4334468841552734,-0.897760272026062,0,0,0,-1,-1,2759.652976375,walking,2,2022-05-12T10:31:02.069+02:00,2022-05-11T22:15:20.957+02:00,205,0.9472964,0.6030918,1.947791,162.3245,0,0,2022-05-12T10:31:04.627+02:00,674037064.6268183,0,0.3199997,100.9041,1,0.97
2022-05-12T10:31:07.121+02:00,1652344265.000022,53.22900514588992,10.39835186676159,37.52255,0.3,0.91,103.7109375,85.11546102143525,4,5,-9999,2764.703459791667,0.0238189697265625,-0.455963134765625,-0.8111724853515625,2764.693463791667,0.3760528896796526,0.0943263665987694,0.432216766460018,-1.536174416542053,0.3540931642055511,-0.9920021295547485,-0.0622248500585556,-0.09767052531242371,0.09801805019378662,XArbitraryZVertical,0.2018090835384242,0.08527426397191298,0.1923008516541589,0.9565677306550685,0.08552510291337967,-0.4188847541809082,-0.9040027856826782,0,0,0,-1,-1,2759.652976375,walking,2,2022-05-12T10:31:02.069+02:00,2022-05-11T22:15:20.957+02:00,205,0.9472964,0.6030918,1.947791,162.3245,0,0,2022-05-12T10:31:04.627+02:00,674037064.6268183,0,0.3199997,100.9041,1,0.97
2022-05-12T10:31:07.130+02:00,1652344265.000022,53.22900514588992,10.39835186676159,37.52255,0.3,0.91,103.7109375,85.11546102143525,4,5,-9999,2764.713454791667,0.0193023681640625,-0.464752197265625,-0.8170318603515625,2764.703459791667,0.3662882562549097,0.101694651583121,0.4158946385687203,-1.539297699928284,0.3110154569149017,-1.083000183105469,-0.07534828782081604,-0.1257761716842651,0.09668976068496704,XArbitraryZVertical,0.1936797785882836,0.08644960989505382,0.1882857143652501,0.958938555370934,0.09286545962095261,-0.4040084779262543,-0.9100292325019836,0,0,0,-1,-1,2759.652976375,walking,2,2022-05-12T10:31:02.069+02:00,2022-05-11T22:15:20.957+02:00,205,0.9472964,0.6030918,1.947791,162.3245,0,0,2022-05-12T10:31:04.627+02:00,674037064.6268183,0,0.3199997,100.9041,1,0.97
2022-05-12T10:31:07.140+02:00,1652344265.000022,53.22900514588992,10.39835186676159,37.52255,0.3,0.91,103.7109375,85.11546102143525,4,5,-9999,2764.723449791667,-0.0144195556640625,-0.48687744140625,-0.814788818359375,2764.713454791667,0.3563387861680166,0.1087459926301206,0.3992166182184082,-1.600210666656494,0.3125388026237488,-1.094795823097229,-0.07617843896150589,-0.06726592779159546,0.1047505736351013,XArbitraryZVertical,0.1854176792530236,0.08751372781613002,0.184057996424293,0.961293117039165,0.09999747574329376,-0.3886966705322266,-0.9159232378005981,0,0,0,-1,-1,2759.652976375,walking,2,2022-05-12T10:31:02.069+02:00,2022-05-11T22:15:20.957+02:00,205,0.9472964,0.6030918,1.947791,162.3245,0,0,2022-05-12T10:31:04.627+02:00,674037064.6268183,0,0.3199997,100.9041,1,0.97
