loggingTime(txt),locationTimestamp_since1970(s),locationLatitude(WGS84),locationLongitude(WGS84),locationAltitude(m),locationSpeed(m/s),locationSpeedAccuracy(m/s),locationCourse(°),locationCourseAccuracy(°),locationVerticalAccuracy(m),locationHorizontalAccuracy(m),locationFloor(Z),accelerometerTimestamp_sinceReboot(s),accelerometerAccelerationX(G),accelerometerAccelerationY(G),accelerometerAccelerationZ(G),motionTimestamp_sinceReboot(s),motionYaw(rad),motionRoll(rad),motionPitch(rad),motionRotationRateX(rad/s),motionRotationRateY(rad/s),motionRotationRateZ(rad/s),motionUserAccelerationX(G),motionUserAccelerationY(G),motionUserAccelerationZ(G),motionAttitudeReferenceFrame(txt),motionQuaternionX(R),motionQuaternionY(R),motionQuaternionZ(R),motionQuaternionW(R),motionGravityX(G),motionGravityY(G),motionGravityZ(G),motionMagneticFieldX(µT),motionMagneticFieldY(µT),motionMagneticFieldZ(µT),motionHeading(°),motionMagneticFieldCalibrationAccuracy(Z),activityTimestamp_sinceReboot(s),activity(txt),activityActivityConfidence(Z),activityActivityStartDate(txt),pedometerStartDate(txt),pedometerNumberofSteps(N),pedometerAverageActivePace(s/m),pedometerCurrentPace(s/m),pedometerCurrentCadence(steps/s),pedometerDistance(m),pedometerFloorAscended(N),pedometerFloorDescended(N),pedometerEndDate(txt),altimeterTimestamp_sinceReboot(s),altimeterReset(bool),altimeterRelativeAltitude(m),altimeterPressure(kPa),batteryState(N),batteryLevel(R)
2022-05-12T10:31:54.744+02:00,1652344313.000458,53.22891573693679,10.39839559809672,36.79271,1.12819,0.8901535,280.825659272419,180,2.400000095367432,7.999579855010837,-9999,2812.315236875,0.009765625,-0.580810546875,-0.739013671875,2812.310239875,0.7967723903716234,0.02497759493514401,0.644989731325051,0.1577711999416351,-0.02002105116844177,-0.09955844283103943,0.02581900358200073,-0.01157182455062866,0.03407061100006104,XArbitraryZVertical,0.2874964489201556,0.133856068101662,0.371552012270613,0.8725694730412407,0.01995766907930374,-0.6011902093887329,-0.7988566756248474,0,0,0,-1,-1,2810.827083875,walking,2,2022-05-12T10:31:53.243+02:00,2022-05-11T22:15:20.957+02:00,266,0.9427902,0.6794919,1.85568,200.7785,0,0,2022-05-12T10:31:50.685+02:00,674037113.2428695,0,1.349998,100.8907,1,0.97
2022-05-12T10:31:54.746+02:00,1652344313.000458,53.22891573693679,10.39839559809672,36.79271,1.12819,0.8901535,280.825659272419,180,2.400000095367432,7.999579855010837,-9999,2812.325231875,0.0470733642578125,-0.586944580078125,-0.7199249267578125,2812.320234875,0.795064267760544,0.02580373711045867,0.6462143966165804,0.06678083539009094,-0.04852166771888733,-0.1296945065259933,-0.00247088260948658,0.03048300743103027,0.05384039878845215,XArbitraryZVertical,0.2879938055520567,0.1341934961246392,0.3708571148318112,0.8726493134981704,0.02059862017631531,-0.6021684408187866,-0.7981033325195312,0,0,0,-1,-1,2810.827083875,walking,2,2022-05-12T10:31:53.243+02:00,2022-05-11T22:15:20.957+02:00,266,0.9427902,0.6794919,1.85568,200.7785,0,0,2022-05-12T10:31:50.685+02:00,674037113.2428695,0,1.349998,100.8907,1,0.97
2022-05-12T10:31:54.752+02:00,1652344313.000458,53.22891573693679,10.39839559809672,36.79271,1.12819,0.8901535,280.825659272419,180,2.400000095367432,7.999579855010837,-9999,2812.335227875,0.0431365966796875,-0.591064453125,-0.741668701171875,2812.330229875,0.7936298970296796,0.02594758177025673,0.6463003174374818,-0.03452994301915169,-0.07511386275291443,-0.1094473004341125,0.0009251832962036133,0.006686866283416748,0.07003629207611084,XArbitraryZVertical,0.2881009801672035,0.1340652759940813,0.3702471014899094,0.8728926457232521,0.02071208134293556,-0.6022369861602783,-0.7980486750602722,0,0,0,-1,-1,2810.827083875,walking,2,2022-05-12T10:31:53.243+02:00,2022-05-11T22:15:20.957+02:00,266,0.9427902,0.6794919,1.85568,200.7785,0,0,2022-05-12T10:31:50.685+02:00,674037113.2428695,0,1.349998,100.8907,1,0.97
2022-05-12T10:31:54.762+02:00,1652344313.000458,53.22891573693679,10.39839559809672,36.79271,1.12819,0.8901535,280.825659272419,180,2.400000095367432,7.999579855010837,-9999,2812.345222875,0.0317230224609375,-0.590728759765625,-0.7602386474609375,2812.340224875,0.7924670956834076,0.02590157321516318,0.6454116604708239,-0.1326069831848145,-0.07478070259094238,-0.07995651662349701,0.03328141570091248,0.01746702194213867,0.0696563720703125,XArbitraryZVertical,0.2877979947504527,0.1337167396134457,0.3697822896655785,0.8732430215580123,0.02068921737372875,-0.6015273332595825,-0.7985842823982239,0,0,0,-1,-1,2810.827083875,walking,2,2022-05-12T10:31:53.243+02:00,2022-05-11T22:15:20.957+02:00,266,0.9427902,0.6794919,1.85568,200.7785,0,0,2022-05-12T10:31:50.685+02:00,674037113.2428695,0,1.349998,100.8907,1,0.97
2022-05-12T10:31:54.772+02:00,1652344313.000458,53.22891573693679,10.39839559809672,36.79271,1.12819,0.8901535,280.825659272419,180,2.400000095367432,7.999579855010837,-9999,2812.355217875,0.0208892822265625,-0.58306884765625,-0.787261962890625,2812.350219875,0.7917994193678471,0.02568744514858257,0.6437360358982446,-0.1887113302946091,-0.04640618711709976,-0.03808669745922089,0.01682499051094055,0.007369041442871094,0.05037307739257812,XArbitraryZVertical,0.2871477289752734,0.1332238856261664,0.3695528581432487,0.8736293884393244,0.02054407633841038,-0.6001878976821899,-0.7995951771736145,0,0,0,-1,-1,2810.827083875,walking,2,2022-05-12T10:31:53.243+02:00,2022-05-11T22:15:20.957+02:00,266,0.9427902,0.6794919,1.85568,200.7785,0,0,2022-05-12T10:31:50.685+02:00,674037113.2428695,0,1.349998,100.8907,1,0.97
2022-05-12T10:31:54.782+02:00,1652344313.000458,53.22891573693679,10.39839559809672,36.79271,1.12819,0.8901535,280.825659272419,180,2.400000095367432,7.999579855010837,-9999,2812.365212875,0.0142822265625,-0.5784454345703125,-0.802642822265625,2812.360214875,0.7916889013286246,0.02536879232565955,0.6417587736472137,-0.203773632645607,-0.02979392185807228,0.009722103364765644,0.005788743495941162,0.01205778121948242,0.02785217761993408,XArbitraryZVertical,0.2863470219222433,0.1327108193209688,0.3695682504848689,0.8739637099687828,0.02031934447586536,-0.598605215549469,-0.8007864356040955,0,0,0,-1,-1,2810.827083875,walking,2,2022-05-12T10:31:53.243+02:00,2022-05-11T22:15:20.957+02:00,266,0.9427902,0.6794919,1.85568,200.7785,0,0,2022-05-12T10:31:50.685+02:00,674037113.2428695,0,1.349998,100.8907,1,0.97
2022-05-12T10:31:54.792+02:00,1652344313.000458,53.22891573693679,10.39839559809672,36.79271,1.12819,0.8901535,280.825659272419,180,2.400000095367432,7.999579855010837,-9999,2812.375207875,0.015777587890625,-0.5850372314453125,-0.808990478515625,2812.370209875,0.7921197630241537,0.02487364993147993,0.6397302380921182,-0.1979651749134064,-0.01431489549577236,0.04340370371937752,-0.002786561846733093,0.01713019609451294,0.004156827926635742,XArbitraryZVertical,0.2855203574449302,0.1321884685554518,0.369797798835779,0.874216185168853,0.01995299756526947,-0.596979022026062,-0.8020086884498596,0,0,0,-1,-1,2810.827083875,walking,2,2022-05-12T10:31:53.243+02:00,2022-05-11T22:15:20.957+02:00,266,0.9427902,0.6794919,1.85568,200.7785,0,0,2022-05-12T10:31:50.685+02:00,674037113.2428695,0,1.349998,100.8907,1,0.97
2022-05-12T10:31:54.802+02:00,1652344313.000458,53.22891573693679,10.39839559809672,36.79271,1.12819,0.8901535,280.825659272419,180,2.400000095367432,7.999579855010837,-9999,2812.385202875,0.01275634765625,-0.596588134765625,-0.8140716552734375,2812.380205875,0.792930439278092,0.02436518795829247,0.6378625192091847,-0.1727128177881241,0.008333690464496613,0.06881771236658096,-0.005015149712562561,0.01550865173339844,-0.002639174461364746,XArbitraryZVertical,0.2847416714459656,0.1317429055806545,0.3701827920724425,0.8743744784128101,0.01957233436405659,-0.5954796075820923,-0.8031319975852966,0,0,0,-1,-1,2810.827083875,walking,2,2022-05-12T10:31:53.243+02:00,2022-05-11T22:15:20.957+02:00,266,0.9427902,0.6794919,1.85568,200.7785,0,0,2022-05-12T10:31:50.685+02:00,674037113.2428695,0,1.349998,100.8907,1,0.97
2022-05-12T10:31:54.812+02:00,1652344313.000458,53.22891573693679,10.39839559809672,36.79271,1.12819,0.8901535,280.825659272419,180,2.400000095367432,7.999579855010837,-9999,2812.395197875,0.0118560791015625,-0.6080322265625,-0.81768798828125,2812.390200875,0.7938624765647124,0.02395838550128583,0.6363177731696638,-0.1466731578111649,0.01640080474317074,0.07480303943157196,-0.003810182213783264,0.00286865234375,-0.007953464984893799,XArbitraryZVertical,0.2840780471384076,0.1314168697591779,0.3706177008684491,0.8744552239247311,0.01926763169467449,-0.5942379236221313,-0.8040585517883301,0,0,0,-1,-1,2810.827083875,walking,2,2022-05-12T10:31:53.243+02:00,2022-05-11T22:15:20.957+02:00,266,0.9427902,0.6794919,1.85568,200.7785,0,0,2022-05-12T10:31:50.685+02:00,674037113.2428695,0,1.349998,100.8907,1,0.97
2022-05-12T10:31:54.822+02:00,1652344313.000458,53.22891573693679,10.39839559809672,36.79271,1.12819,0.8901535,280.825659272419,180,2.400000095367432,7.999579855010837,-9999,2812.405192875,0.0150604248046875,-0.6220550537109375,-0.8211669921875,2812.400195875,0.7948275410348699,0.02355076854822217,0.6350307032947803,-0.1210892274975777,0.01831535063683987,0.07155104726552963,-0.007452443242073059,-0.008222579956054688,-0.01124060153961182,XArbitraryZVertical,0.2835256727650842,0.1311413387276943,0.3710529057782382,0.8744913255802031,0.01895787753164768,-0.5932022333145142,-0.8048303127288818,0,0,0,-1,-1,2810.827083875,walking,2,2022-05-12T10:31:53.243+02:00,2022-05-11T22:15:20.957+02:00,266,0.9427902,0.6794919,1.85568,200.7785,0,0,2022-05-12T10:31:50.685+02:00,674037113.2428695,0,1.349998,100.8907,1,0.97
2022-05-12T10:31:54.832+02:00,1652344313.000458,53.22891573693679,10.39839559809672,36.79271,1.12819,0.8901535,280.825659272419,180,2.400000095367432,7.999579855010837,-9999,2812.415188875,0.0152130126953125,-0.6170501708984375,-0.8243408203125,2812.410190875,0.7956323569224013,0.02321129723548469,0.6340502234393012,-0.09028288722038269,0.009890374727547169,0.0565793588757515,-0.003912076354026794,-0.02404206991195679,-0.01407104730606079,XArbitraryZVertical,0.283105856479799,0.1309282193986667,0.3714109218029358,0.8745072842036472,0.01869814842939377,-0.5924125909805298,-0.8054177761077881,0,0,0,-1,-1,2810.827083875,walking,2,2022-05-12T10:31:53.243+02:00,2022-05-11T22:15:20.957+02:00,266,0.9427902,0.6794919,1.85568,200.7785,0,0,2022-05-12T10:31:50.685+02:00,674037113.2428695,0,1.349998,100.8907,1,0.97
2022-05-12T10:31:54.842+02:00,1652344314.829616,53.22895879396538,10.3984066005893,37.4501,0,0.06,92.4609375,84.08905434391158,4,5,-9999,2812.425183875,0.0094757080078125,-0.61187744140625,-0.830841064453125,2812.420185875,0.7961359271483222,0.0229604584884722,0.6334543491802737,-0.04241283237934113,-0.007653198670595884,0.02935226261615753,-0.002848401665687561,-0.02952712774276733,-0.01777243614196777,XArbitraryZVertical,0.2828581160148916,0.1307810599149221,0.3716285686132688,0.8745170499909124,0.01850421912968159,-0.591932475566864,-0.8057752251625061,0,0,0,-1,-1,2810.827083875,walking,2,2022-05-12T10:31:53.243+02:00,2022-05-11T22:15:20.957+02:00,266,0.9427902,0.6794919,1.85568,200.7785,0,0,2022-05-12T10:31:50.685+02:00,674037113.2428695,0,1.349998,100.8907,1,0.97
2022-05-12T10:31:54.852+02:00,1652344314.829616,53.22895879396538,10.3984066005893,37.4501,0,0.06,92.4609375,84.08905434391158,4,5,-9999,2812.435178875,0.0062408447265625,-0.605621337890625,-0.8318634033203125,2812.430180875,0.7963701267417808,0.02273362162609813,0.6333282069609046,0.001772204414010048,-0.01860358566045761,0.01262228656560183,-0.004208460450172424,-0.02202993631362915,-0.02129471302032471,XArbitraryZVertical,0.2828296287905918,0.1306919646750644,0.3717058754257652,0.8745067350709271,0.01832313649356365,-0.5918307900428772,-0.8058540225028992,0,0,0,-1,-1,2810.827083875,walking,2,2022-05-12T10:31:53.243+02:00,2022-05-11T22:15:20.957+02:00,266,0.9427902,0.6794919,1.85568,200.7785,0,0,2022-05-12T10:31:50.685+02:00,674037113.2428695,0,1.349998,100.8907,1,0.97
2022-05-12T10:31:54.862+02:00,1652344314.829616,53.22895879396538,10.3984066005893,37.4501,0,0.06,92.4609375,84.08905434391158,4,5,-9999,2812.445173875,0.0067138671875,-0.5993804931640625,-0.82794189453125,2812.440175875,0.7964131555464139,0.02250923256896547,0.6335479572706614,0.03646174073219299,-0.02053064852952957,-0.002172905951738358,-0.0110132247209549,-0.01748877763748169,-0.02876019477844238,XArbitraryZVertical,0.2829649335649363,0.1306401143997759,0.3716808106108295,0.8744812253862119,0.01813938282430172,-0.5920078754425049,-0.805728018283844,0,0,0,-1,-1,2810.827083875,walking,2,2022-05-12T10:31:53.243+02:00,2022-05-11T22:15:20.957+02:00,266,0.9427902,0.6794919,1.85568,200.7785,0,0,2022-05-12T10:31:50.685+02:00,674037113.2428695,0,1.349998,100.8907,1,0.97
2022-05-12T10:31:54.872+02:00,1652344314.829616,53.22895879396538,10.3984066005893,37.4501,0,0.06,92.4609375,84.08905434391158,4,5,-9999,2812.455168875,0.0114898681640625,-0.598602294921875,-0.8199615478515625,2812.450170875,0.7963398350127724,0.02236016352611472,0.6339830454321053,0.0457773432135582,-0.01801955327391624,-0.008735466748476028,-0.01206228323280811,-0.009173095226287842,-0.02439159154891968,XArbitraryZVertical,0.2831882422335569,0.1306439982119457,0.3716035016954695,0.8744412340327508,0.01801351271569729,-0.5923584699630737,-0.8054731488227844,0,0,0,-1,-1,2810.827083875,walking,2,2022-05-12T10:31:53.243+02:00,2022-05-11T22:15:20.957+02:00,266,0.9427902,0.6794919,1.85568,200.7785,0,0,2022-05-12T10:31:50.685+02:00,674037113.2428695,0,1.349998,100.8907,1,0.97
2022-05-12T10:31:54.882+02:00,1652344314.829616,53.22895879396538,10.3984066005893,37.4501,0,0.06,92.4609375,84.08905434391158,4,5,-9999,2812.465163875,0.0188446044921875,-0.594146728515625,-0.8090972900390625,2812.460166875,0.7961256148947354,0.02231084542702931,0.6344554755098284,0.04850095883011818,-0.01832874491810799,-0.02329976111650467,-0.008949294686317444,-0.004306495189666748,-0.01911640167236328,XArbitraryZVertical,0.2834185829521016,0.1306783253822824,0.3714766023097406,0.8744154307067405,0.01796754449605942,-0.5927390456199646,-0.8051941394805908,0,0,0,-1,-1,2810.827083875,walking,2,2022-05-12T10:31:53.243+02:00,2022-05-11T22:15:20.957+02:00,266,0.9427902,0.6794919,1.85568,200.7785,0,0,2022-05-12T10:31:50.685+02:00,674037113.2428695,0,1.349998,100.8907,1,0.97
2022-05-12T10:31:54.892+02:00,1652344314.829616,53.22895879396538,10.3984066005893,37.4501,0,0.06,92.4609375,84.08905434391158,4,5,-9999,2812.475158875,0.0156707763671875,-0.579833984375,-0.8022003173828125,2812.470161875,0.7957773906189544,0.02234829454889316,0.6348665222709339,0.03168323263525963,-0.01771542057394981,-0.02923088893294334,-0.002611087635159492,-0.006813585758209229,-0.009488284587860107,XArbitraryZVertical,0.2836146506655397,0.1307203400743444,0.371306818572022,0.8744177029906621,0.01799225248396397,-0.5930700302124023,-0.8049498200416565,0,0,0,-1,-1,2810.827083875,walking,2,2022-05-12T10:31:53.243+02:00,2022-05-11T22:15:20.957+02:00,266,0.9427902,0.6794919,1.85568,200.7785,0,0,2022-05-12T10:31:50.685+02:00,674037113.2428695,0,1.349998,100.8907,1,0.97
2022-05-12T10:31:54.902+02:00,1652344314.829616,53.22895879396538,10.3984066005893,37.4501,0,0.06,92.4609375,84.08905434391158,4,5,-9999,2812.485153875,0.01568603515625,-0.575775146484375,-0.803253173828125,2812.480156875,0.7954115816542848,0.02236036165031255,0.635075231027598,0.01239422243088484,-0.02034316211938858,-0.02753552049398422,-0.00179407000541687,0.007133126258850098,0.0006569027900695801,XArbitraryZVertical,0.2837278402634972,0.1307117766823425,0.371136976706902,0.8744544267344166,0.01799919828772545,-0.5932380557060242,-0.8048259019851685,0,0,0,-1,-1,2810.827083875,walking,2,2022-05-12T10:31:53.243+02:00,2022-05-11T22:15:20.957+02:00,266,0.9427902,0.6794919,1.85568,200.7785,0,0,2022-05-12T10:31:50.685+02:00,674037113.2428695,0,1.349998,100.8907,1,0.97
2022-05-12T10:31:54.912+02:00,1652344314.829616,53.22895879396538,10.3984066005893,37.4501,0,0.06,92.4609375,84.08905434391158,4,5,-9999,2812.495148875,0.0185699462890625,-0.5740203857421875,-0.8040008544921875,2812.490151875,0.7950969596144007,0.02235171725832505,0.6350998708859041,-0.01152129657566547,-0.01900052838027477,-0.02449725195765495,-0.002275066450238228,0.0161709189414978,0.00258028507232666,XArbitraryZVertical,0.2837608333059186,0.1306678941210438,0.3709968485502627,0.8745096266240483,0.01799191348254681,-0.5932579040527344,-0.8048113584518433,0,0,0,-1,-1,2810.827083875,walking,2,2022-05-12T10:31:53.243+02:00,2022-05-11T22:15:20.957+02:00,266,0.9427902,0.6794919,1.85568,200.7785,0,0,2022-05-12T10:31:50.685+02:00,674037113.2428695,0,1.349998,100.8907,1,0.97
2022-05-12T10:31:54.922+02:00,1652344314.829616,53.22895879396538,10.3984066005893,37.4501,0,0.06,92.4609375,84.08905434391158,4,5,-9999,2812.505144875,0.019439697265625,-0.5793914794921875,-0.8101043701171875,2812.500146875,0.7948897385885362,0.02229033613220523,0.6349407954350261,-0.03015197440981865,-0.0152132473886013,-0.01274578832089901,-0.001220690086483955,0.01647013425827026,0.004232108592987061,XArbitraryZVertical,0.283715984433791,0.130582672428123,0.3709063715155881,0.8745752551813715,0.01794461533427238,-0.5931298732757568,-0.8049067854881287,0,0,0,-1,-1,2810.827083875,walking,2,2022-05-12T10:31:53.243+02:00,2022-05-11T22:15:20.957+02:00,266,0.9427902,0.6794919,1.85568,200.7785,0,0,2022-05-12T10:31:50.685+02:00,674037113.2428695,0,1.349998,100.8907,1,0.97
2022-05-12T10:31:54.932+02:00,1652344314.829616,53.22895879396538,10.3984066005893,37.4501,0,0.06,92.4609375,84.08905434391158,4,5,-9999,2812.515139875,0.021575927734375,-0.5891571044921875,-0.8143768310546875,2812.510141875,0.7948424823564261,0.02215416291977761,0.6345613216535413,-0.0453474372625351,-0.01380230486392975,-0.002647614106535912,0.001874655485153198,0.01889580488204956,-0.001064181327819824,XArbitraryZVertical,0.2835778564203558,0.1304472447601716,0.3708874501851017,0.8746483312338182,0.01783999428153038,-0.5928242802619934,-0.8051342368125916,0,0,0,-1,-1,2810.827083875,walking,2,2022-05-12T10:31:53.243+02:00,2022-05-11T22:15:20.957+02:00,266,0.9427902,0.6794919,1.85568,200.7785,0,0,2022-05-12T10:31:50.685+02:00,674037113.2428695,0,1.349998,100.8907,1,0.97
2022-05-12T10:31:54.942+02:00,1652344314.829616,53.22895879396538,10.3984066005893,37.4501,0,0.06,92.4609375,84.08905434391158,4,5,-9999,2812.525134875,0.0229339599609375,-0.593170166015625,-0.812744140625,2812.520136875,0.794971837004832,0.02189449269432949,0.6340447874768905,-0.05436223745346069,-0.01393572799861431,0.01031265966594219,0.002778945490717888,0.007859706878662109,-0.008367657661437988,XArbitraryZVertical,0.2833910039038515,0.1302578728267022,0.3709359117122761,0.874716516810105,0.01763762533664703,-0.5924082398414612,-0.8054448366165161,0,0,0,-1,-1,2810.827083875,walking,2,2022-05-12T10:31:53.243+02:00,2022-05-11T22:15:20.957+02:00,266,0.9427902,0.6794919,1.85568,200.7785,0,0,2022-05-12T10:31:50.685+02:00,674037113.2428695,0,1.349998,100.8907,1,0.97
2022-05-12T10:31:54.952+02:00,1652344314.829616,53.22895879396538,10.3984066005893,37.4501,0,0.06,92.4609375,84.08905434391158,4,5,-9999,2812.535129875,0.024078369140625,-0.599029541015625,-0.8103485107421875,2812.530131875,0.7951806191673145,0.02157687401315976,0.633398111069177,-0.06367265433073044,-0.01157137379050255,0.01078031025826931,0.006093516945838928,0.0006856918334960938,-0.007918238639831543,XArbitraryZVertical,0.2831526247822481,0.1300305603450237,0.3710181396224117,0.8747927475541227,0.0173900630325079,-0.5918871164321899,-0.8058332800865173,0,0,0,-1,-1,2810.827083875,walking,2,2022-05-12T10:31:53.243+02:00,2022-05-11T22:15:20.957+02:00,266,0.9427902,0.6794919,1.85568,200.7785,0,0,2022-05-12T10:31:50.685+02:00,674037113.2428695,0,1.349998,100.8907,1,0.97
2022-05-12T10:31:54.962+02:00,1652344314.829616,53.22895879396538,10.3984066005893,37.4501,0,0.06,92.4609375,84.08905434391158,4,5,-9999,2812.545124875,0.0265655517578125,-0.600860595703125,-0.809478759765625,2812.540126875,0.7953588244285386,0.02132364169112439,0.6327195059590401,-0.06579838693141937,-0.009146831929683685,0.01007403992116451,0.005938068032264709,-0.004484772682189941,-0.005528807640075684,XArbitraryZVertical,0.2828903136272573,0.1298211878399857,0.3710979537884954,0.8748748792559374,0.01719455979764462,-0.5913400053977966,-0.8062390685081482,0,0,0,-1,-1,2810.827083875,walking,2,2022-05-12T10:31:53.243+02:00,2022-05-11T22:15:20.957+02:00,266,0.9427902,0.6794919,1.85568,200.7785,0,0,2022-05-12T10:31:50.685+02:00,674037113.2428695,0,1.349998,100.8907,1,0.97
2022-05-12T10:31:54.972+02:00,1652344314.829616,53.22895879396538,10.3984066005893,37.4501,0,0.06,92.4609375,84.08905434391158,4,5,-9999,2812.555119875,0.0245208740234375,-0.6022796630859375,-0.809814453125,2812.550122875,0.7955007301079101,0.02117635626956754,0.6320715698495738,-0.06675516068935394,-0.002587267197668552,0.006716925650835037,0.007757678627967834,-0.01019543409347534,-0.004121065139770508,XArbitraryZVertical,0.2826241857804703,0.1296585899196033,0.3711752345342209,0.874952123488015,0.01708392053842545,-0.590817391872406,-0.8066244125366211,0,0,0,-1,-1,2810.827083875,walking,2,2022-05-12T10:31:53.243+02:00,2022-05-11T22:15:20.957+02:00,266,0.9427902,0.6794919,1.85568,200.7785,0,0,2022-05-12T10:31:50.685+02:00,674037113.2428695,0,1.349998,100.8907,1,0.97
2022-05-12T10:31:54.982+02:00,1652344314.829616,53.22895879396538,10.3984066005893,37.4501,0,0.06,92.4609375,84.08905434391158,4,5,-9999,2812.565114875,0.024993896484375,-0.6033935546875,-0.815277099609375,2812.560117875,0.7956113986711633,0.02113601942453933,0.6314256383271684,-0.05850601568818092,0.005298352800309658,0.00541224330663681,0.008468806743621826,-0.01038098335266113,-0.001465439796447754,XArbitraryZVertical,0.2823410687906044,0.1295386085983415,0.3712537967096651,0.8750280563621639,0.01705944538116455,-0.5902960896492004,-0.8070065379142761,0,0,0,-1,-1,2810.827083875,walking,2,2022-05-12T10:31:53.243+02:00,2022-05-11T22:15:20.957+02:00,266,0.9427902,0.6794919,1.85568,200.7785,0,0,2022-05-12T10:31:50.685+02:00,674037113.2428695,0,1.349998,100.8907,1,0.97
2022-05-12T10:31:54.992+02:00,1652344314.829616,53.22895879396538,10.3984066005893,37.4501,0,0.06,92.4609375,84.08905434391158,4,5,-9999,2812.575109541667,0.0221405029296875,-0.6006622314453125,-0.8185882568359375,2812.570112541667,0.7956675871416461,0.02115353275236664,0.6308878811955326,-0.03937340155243874,0.01041361968964338,0.001059173606336117,0.008035972714424133,-0.01218843460083008,-0.004841089248657227,XArbitraryZVertical,0.2820982131507691,0.1294560011041437,0.3713106921812537,0.8750944534326517,0.01708029210567474,-0.5898619294166565,-0.8073234558105469,0,0,0,-1,-1,2810.827083875,walking,2,2022-05-12T10:31:53.243+02:00,2022-05-11T22:15:20.957+02:00,266,0.9427902,0.6794919,1.85568,200.7785,0,0,2022-05-12T10:31:50.685+02:00,674037113.2428695,0,1.349998,100.8907,1,0.97
2022-05-12T10:31:55.002+02:00,1652344314.829616,53.22895879396538,10.3984066005893,37.4501,0,0.06,92.4609375,84.08905434391158,4,5,-9999,2812.585104541667,0.0197601318359375,-0.60040283203125,-0.8193206787109375,2812.580107541667,0.7956593224866106,0.02126810368754397,0.6305112971836369,-0.03027577698230743,0.008706000633537769,-0.004299372900277376,0.007709875702857971,-0.0117143988609314,-0.008725643157958984,XArbitraryZVertical,0.2819122176733056,0.1294361895280927,0.3713441026527957,0.8751431489475889,0.01717750914394855,-0.5895578265190125,-0.8075435757637024,0,0,0,-1,-1,2810.827083875,walking,2,2022-05-12T10:31:53.243+02:00,2022-05-11T22:15:20.957+02:00,266,0.9427902,0.6794919,1.85568,200.7785,0,0,2022-05-12T10:31:50.685+02:00,674037113.2428695,0,1.349998,100.8907,1,0.97
2022-05-12T10:31:55.012+02:00,1652344314.829616,53.22895879396538,10.3984066005893,37.4501,0,0.06,92.4609375,84.08905434391158,4,5,-9999,2812.595100541667,0.0185394287109375,-0.596038818359375,-0.82275390625,2812.590102541667,0.7955890444480407,0.02139241863996477,0.6301485193387473,-0.02361114881932735,0.004673575516790152,-0.004643053747713566,0.002920463681221008,-0.01136660575866699,-0.01208460330963135,XArbitraryZVertical,0.2817344775222012,0.129414441144527,0.3713509596313328,0.875200667085856,0.01728247292339802,-0.5892647504806519,-0.807755172252655,0,0,0,-1,-1,2810.827083875,walking,2,2022-05-12T10:31:53.243+02:00,2022-05-11T22:15:20.957+02:00,266,0.9427902,0.6794919,1.85568,200.7785,0,0,2022-05-12T10:31:50.685+02:00,674037113.2428695,0,1.349998,100.8907,1,0.97
2022-05-12T10:31:55.022+02:00,1652344314.829616,53.22895879396538,10.3984066005893,37.4501,0,0.06,92.4609375,84.08905434391158,4,5,-9999,2812.605095541667,0.02166748046875,-0.5908355712890625,-0.81732177734375,2812.600097541667,0.7955294996787636,0.02149362256160085,0.6299347577402585,-0.01092411577701569,0.006729535292834044,-0.004570881836116314,0.00193573534488678,-0.009387791156768799,-0.01307433843612671,XArbitraryZVertical,0.2816257289638339,0.1294113221577067,0.3713509909350547,0.8752360722130901,0.0173669271171093,-0.5890920162200928,-0.8078793287277222,0,0,0,-1,-1,2810.827083875,walking,2,2022-05-12T10:31:53.243+02:00,2022-05-11T22:15:20.957+02:00,266,0.9427902,0.6794919,1.85568,200.7785,0,0,2022-05-12T10:31:50.685+02:00,674037113.2428695,0,1.349998,100.8907,1,0.97
2022-05-12T10:31:55.032+02:00,1652344314.829616,53.22895879396538,10.3984066005893,37.4501,0,0.06,92.4609375,84.08905434391158,4,5,-9999,2812.615090541667,0.0250244140625,-0.5990142822265625,-0.8138427734375,2812.610092541667,0.7954424525085552,0.0216582755668309,0.6298955936281413,0.007855264469981194,0.01277164835482836,-0.005769504699856043,0.001374972984194756,-0.004124581813812256,-0.01233696937561035,XArbitraryZVertical,0.2815836160299546,0.1294639959638069,0.3713382657960994,0.8752471592132224,0.01750044524669647,-0.589060366153717,-0.8078994750976562,0,0,0,-1,-1,2810.827083875,walking,2,2022-05-12T10:31:53.243+02:00,2022-05-11T22:15:20.957+02:00,266,0.9427902,0.6794919,1.85568,200.7785,0,0,2022-05-12T10:31:50.685+02:00,674037113.2428695,0,1.349998,100.8907,1,0.97
2022-05-12T10:31:55.042+02:00,1652344314.829616,53.22895879396538,10.3984066005893,37.4501,0,0.06,92.4609375,84.08905434391158,4,5,-9999,2812.625085541667,0.0258331298828125,-0.593994140625,-0.80865478515625,2812.620087541667,0.7953220367263042,0.02188527627842358,0.629999765640505,0.005677330773323774,0.01479778159409761,-0.00898740254342556,0.005434870719909668,-0.00591731071472168,-0.00736689567565918,XArbitraryZVertical,0.2815949663949381,0.1295653541455351,0.3713117413883252,0.8752398885910054,0.01768249832093716,-0.5891445875167847,-0.8078342080116272,0,0,0,-1,-1,2810.827083875,walking,2,2022-05-12T10:31:53.243+02:00,2022-05-11T22:15:20.957+02:00,266,0.9427902,0.6794919,1.85568,200.7785,0,0,2022-05-12T10:31:50.685+02:00,674037113.2428695,0,1.349998,100.8907,1,0.97
2022-05-12T10:31:55.052+02:00,1652344314.829616,53.22895879396538,10.3984066005893,37.4501,0,0.06,92.4609375,84.08905434391158,4,5,-9999,2812.635080541667,0.0230255126953125,-0.58636474609375,-0.8033905029296875,2812.630082541667,0.7951839074287126,0.02212876178333569,0.6300283679766061,-0.007997334934771061,0.01026561483740807,-0.007318132556974888,0.008305564522743225,-0.008823871612548828,-0.003375053405761719,XArbitraryZVertical,0.2815712696083417,0.1296576807258832,0.371283995639083,0.8752456118229925,0.01787881925702095,-0.5891676545143127,-0.8078129887580872,0,0,0,-1,-1,2810.827083875,walking,2,2022-05-12T10:31:53.243+02:00,2022-05-11T22:15:20.957+02:00,266,0.9427902,0.6794919,1.85568,200.7785,0,0,2022-05-12T10:31:50.685+02:00,674037113.2428695,0,1.349998,100.8907,1,0.97
2022-05-12T10:31:55.062+02:00,1652344314.829616,53.22895879396538,10.3984066005893,37.4501,0,0.06,92.4609375,84.08905434391158,4,5,-9999,2812.645075541667,0.0204010009765625,-0.580322265625,-0.80169677734375,2812.640078541667,0.795033312622986,0.02236206000554723,0.6299595424695325,-0.01836715266108513,0.007756650447845459,-0.009597532451152802,0.007032826542854309,-0.001021206378936768,0.00241386890411377,XArbitraryZVertical,0.2815075195163154,0.1297260296251721,0.371254730702046,0.8752683820350744,0.01806818693876266,-0.5891120433807373,-0.8078493475914001,0,0,0,-1,-1,2810.827083875,walking,2,2022-05-12T10:31:53.243+02:00,2022-05-11T22:15:20.957+02:00,266,0.9427902,0.6794919,1.85568,200.7785,0,0,2022-05-12T10:31:50.685+02:00,674037113.2428695,0,1.349998,100.8907,1,0.97
2022-05-12T10:31:55.072+02:00,1652344314.829616,53.22895879396538,10.3984066005893,37.4501,0,0.06,92.4609375,84.08905434391158,4,5,-9999,2812.655070541667,0.0169219970703125,-0.58685302734375,-0.8075714111328125,2812.650073541667,0.7948683394235069,0.02263986654322152,0.6297981146377326,-0.0201678816229105,0.021373325958848,-0.01102065853774548,0.004181727766990662,0.006874442100524902,0.005952358245849609,XArbitraryZVertical,0.2813957876538682,0.1297949427213494,0.3712305029177035,0.8753043842499639,0.01829476468265057,-0.5889816284179688,-0.807939350605011,0,0,0,-1,-1,2810.827083875,walking,2,2022-05-12T10:31:53.243+02:00,2022-05-11T22:15:20.957+02:00,266,0.9427902,0.6794919,1.85568,200.7785,0,0,2022-05-12T10:31:50.685+02:00,674037113.2428695,0,1.349998,100.8907,1,0.97
2022-05-12T10:31:55.082+02:00,1652344314.829616,53.22895879396538,10.3984066005893,37.4501,0,0.06,92.4609375,84.08905434391158,4,5,-9999,2812.665065541667,0.0176849365234375,-0.5834808349609375,-0.81207275390625,2812.660068541667,0.7946852149709297,0.02302881422872239,0.62960015275394,-0.03027218021452427,0.02743547782301903,-0.01456452719867229,-0.0009874850511550903,0.005844712257385254,0.003772914409637451,XArbitraryZVertical,0.2812485893393351,0.1299033423863775,0.371215960929567,0.875341697347037,0.01861169375479221,-0.5888216495513916,-0.8080487251281738,0,0,0,-1,-1,2810.827083875,walking,2,2022-05-12T10:31:53.243+02:00,2022-05-11T22:15:20.957+02:00,266,0.9427902,0.6794919,1.85568,200.7785,0,0,2022-05-12T10:31:50.685+02:00,674037113.2428695,0,1.349998,100.8907,1,0.97
2022-05-12T10:31:55.098+02:00,1652344314.829616,53.22895879396538,10.3984066005893,37.4501,0,0.06,92.4609375,84.08905434391158,4,5,-9999,2812.675061541667,0.0209197998046875,-0.5769805908203125,-0.813140869140625,2812.670063541667,0.7945084376512374,0.02342097979104256,0.6292220404477449,-0.047679103910923,0.02743474766612053,-0.0136844189837575,-0.001706317067146301,0.001403927803039551,-0.002176463603973389,XArbitraryZVertical,0.2810212538701352,0.1299811912509452,0.3712144138168169,0.8754038650012704,0.01893379352986813,-0.5885159373283386,-0.808263897895813,0,0,0,-1,-1,2810.827083875,walking,2,2022-05-12T10:31:53.243+02:00,2022-05-11T22:15:20.957+02:00,266,0.9427902,0.6794919,1.85568,200.7785,0,0,2022-05-12T10:31:50.685+02:00,674037113.2428695,0,1.349998,100.8907,1,0.97
2022-05-12T10:31:55.102+02:00,1652344314.829616,53.22895879396538,10.3984066005893,37.4501,0,0.06,92.4609375,84.08905434391158,4,5,-9999,2812.685056541667,0.0227813720703125,-0.57904052734375,-0.8154144287109375,2812.680058541667,0.7943535958253363,0.02379371395746584,0.6287225881455457,-0.05317506939172745,0.02881293371319771,-0.01163831260055304,-0.001785695552825928,0.008537888526916504,-0.004544854164123535,XArbitraryZVertical,0.2807428085813319,0.1300315750953712,0.3712262783789044,0.8754806948089127,0.0192420519888401,-0.5881121158599854,-0.8085505366325378,0,0,0,-1,-1,2810.827083875,walking,2,2022-05-12T10:31:53.243+02:00,2022-05-11T22:15:20.957+02:00,266,0.9427902,0.6794919,1.85568,200.7785,0,0,2022-05-12T10:31:50.685+02:00,674037113.2428695,0,1.349998,100.8907,1,0.97
2022-05-12T10:31:55.112+02:00,1652344314.829616,53.22895879396538,10.3984066005893,37.4501,0,0.06,92.4609375,84.08905434391158,4,5,-9999,2812.695051541667,0.022674560546875,-0.5827484130859375,-0.8162689208984375,2812.690053541667,0.7942799872468908,0.02411022900671282,0.6281268744486721,-0.06112533807754517,0.02946607396006584,-0.004117679316550493,0.002848014235496521,0.009200394153594971,-0.006489694118499756,XArbitraryZVertical,0.2804272011010019,0.1300512460684058,0.3712709256099362,0.8755600265989151,0.01950641162693501,-0.5876302123069763,-0.8088945150375366,0,0,0,-1,-1,2810.827083875,walking,2,2022-05-12T10:31:53.243+02:00,2022-05-11T22:15:20.957+02:00,266,0.9427902,0.6794919,1.85568,200.7785,0,0,2022-05-12T10:31:50.685+02:00,674037113.2428695,0,1.349998,100.8907,1,0.97
2022-05-12T10:31:55.122+02:00,1652344314.829616,53.22895879396538,10.3984066005893,37.4501,0,0.06,92.4609375,84.08905434391158,4,5,-9999,2812.705046541667,0.025543212890625,-0.583282470703125,-0.8160400390625,2812.700048541667,0.7942702687602817,0.02444687548195824,0.6275216988541255,-0.05899986624717712,0.03237530961632729,0.003173257224261761,0.001575186848640442,0.007154226303100586,-0.006354570388793945,XArbitraryZVertical,0.2800995229926054,0.130087024692977,0.371346775357165,0.8756273765210555,0.01978741027414799,-0.5871404409408569,-0.8092432618141174,0,0,0,-1,-1,2810.827083875,walking,2,2022-05-12T10:31:53.243+02:00,2022-05-11T22:15:20.957+02:00,266,0.9427902,0.6794919,1.85568,200.7785,0,0,2022-05-12T10:31:50.685+02:00,674037113.2428695,0,1.349998,100.8907,1,0.97
2022-05-12T10:31:55.132+02:00,1652344314.829616,53.22895879396538,10.3984066005893,37.4501,0,0.06,92.4609375,84.08905434391158,4,5,-9999,2812.715041541667,0.0220489501953125,-0.5820159912109375,-0.819915771484375,2812.710043541667,0.7942909576038978,0.0247667744398359,0.626997672030061,-0.05382654443383217,0.02413469180464745,0.004133593291044235,0.00458933413028717,0.002289652824401855,-0.007213115692138672,XArbitraryZVertical,0.2798085608532165,0.1301344873988386,0.3714290319122847,0.8756785137174502,0.02005390264093876,-0.5867161154747009,-0.8095443844795227,0,0,0,-1,-1,2810.827083875,walking,2,2022-05-12T10:31:53.243+02:00,2022-05-11T22:15:20.957+02:00,266,0.9427902,0.6794919,1.85568,200.7785,0,0,2022-05-12T10:31:50.685+02:00,674037113.2428695,0,1.349998,100.8907,1,0.97
2022-05-12T10:31:55.142+02:00,1652344314.829616,53.22895879396538,10.3984066005893,37.4501,0,0.06,92.4609375,84.08905434391158,4,5,-9999,2812.725036541667,0.0201416015625,-0.5813140869140625,-0.813720703125,2812.720039541667,0.7943173693266666,0.02501035118538915,0.626490739950277,-0.05298977717757225,0.0235245618969202,0.0005849311128258705,0.003926960751414299,0.005327582359313965,-0.01061344146728516,XArbitraryZVertical,0.2795389086325803,0.1301525063149255,0.3715021392155311,0.8757308434007535,0.02025852352380753,-0.586305558681488,-0.8098366260528564,0,0,0,-1,-1,2810.827083875,walking,2,2022-05-12T10:31:53.243+02:00,2022-05-11T22:15:20.957+02:00,266,0.9427902,0.6794919,1.85568,200.7785,0,0,2022-05-12T10:31:50.685+02:00,674037113.2428695,0,1.349998,100.8907,1,0.97
2022-05-12T10:31:55.152+02:00,1652344314.829616,53.22895879396538,10.3984066005893,37.4501,0,0.06,92.4609375,84.08905434391158,4,5,-9999,2812.735031541667,0.01812744140625,-0.5766448974609375,-0.81231689453125,2812.730034541667,0.7943298991999537,0.02520854413108604,0.6260252387567936,-0.04128042235970497,0.01722159050405025,0.0009389324113726616,0.001119807362556458,0.003241419792175293,-0.006072282791137695,XArbitraryZVertical,0.2792967347673614,0.1301562063824555,0.3715604645601561,0.8757828756983883,0.02042590454220772,-0.5859283804893494,-0.8101053833961487,0,0,0,-1,-1,2810.827083875,walking,2,2022-05-12T10:31:53.243+02:00,2022-05-11T22:15:20.957+02:00,266,0.9427902,0.6794919,1.85568,200.7785,0,0,2022-05-12T10:31:50.685+02:00,674037113.2428695,0,1.349998,100.8907,1,0.97
2022-05-12T10:31:55.162+02:00,1652344314.829616,53.22895879396538,10.3984066005893,37.4501,0,0.06,92.4609375,84.08905434391158,4,5,-9999,2812.745026541667,0.018890380859375,-0.582244873046875,-0.8088226318359375,2812.740029541667,0.7943639132166399,0.02536694339581598,0.625687922214717,-0.02938781306147575,0.0232499223202467,0.000951448455452919,-0.0006309598684310913,0.008064448833465576,-0.001086711883544922,XArbitraryZVertical,0.2791168771859809,0.1301688647085867,0.3716156896117379,0.8758148809858102,0.02055923640727997,-0.5856550335884094,-0.8102996945381165,0,0,0,-1,-1,2810.827083875,walking,2,2022-05-12T10:31:53.243+02:00,2022-05-11T22:15:20.957+02:00,266,0.9427902,0.6794919,1.85568,200.7785,0,0,2022-05-12T10:31:50.685+02:00,674037113.2428695,0,1.349998,100.8907,1,0.97
2022-05-12T10:31:55.172+02:00,1652344314.829616,53.22895879396538,10.3984066005893,37.4501,0,0.06,92.4609375,84.08905434391158,4,5,-9999,2812.755021541667,0.0222625732421875,-0.5892333984375,-0.8108062744140625,2812.750024541667,0.7944237814713726,0.02562168661902617,0.6254722333709124,-0.0162348598241806,0.03771967813372612,0.003231913782656193,-0.002366499975323677,0.006470561027526855,-0.0001112222671508789,XArbitraryZVertical,0.278970872151382,0.130249488687723,0.3716890928406831,0.8758182156781718,0.02076888829469681,-0.5854801535606384,-0.8104206323623657,0,0,0,-1,-1,2810.827083875,walking,2,2022-05-12T10:31:53.243+02:00,2022-05-11T22:15:20.957+02:00,266,0.9427902,0.6794919,1.85568,200.7785,0,0,2022-05-12T10:31:50.685+02:00,674037113.2428695,0,1.349998,100.8907,1,0.97
2022-05-12T10:31:55.181+02:00,1652344314.829616,53.22895879396538,10.3984066005893,37.4501,0,0.06,92.4609375,84.08905434391158,4,5,-9999,2812.765017541667,0.025634765625,-0.579681396484375,-0.8117218017578125,2812.760019541667,0.794443038266478,0.0259638680889396,0.6253232439366521,-0.00679874699562788,0.03683897107839584,-0.003085636999458075,-0.001043887808918953,-0.0007150173187255859,0.002013504505157471,XArbitraryZVertical,0.2788405412329171,0.1303748615234702,0.3717532570092539,0.8758138617740596,0.02104846388101578,-0.5853593945503235,-0.8105006814002991,0,0,0,-1,-1,2810.827083875,walking,2,2022-05-12T10:31:53.243+02:00,2022-05-11T22:15:20.957+02:00,266,0.9427902,0.6794919,1.85568,200.7785,0,0,2022-05-12T10:31:50.685+02:00,674037113.2428695,0,1.349998,100.8907,1,0.97
2022-05-12T10:31:55.192+02:00,1652344314.829616,53.22895879396538,10.3984066005893,37.4501,0,0.06,92.4609375,84.08905434391158,4,5,-9999,2812.775012541667,0.02203369140625,-0.57940673828125,-0.8140716552734375,2812.770014541667,0.7944255280463698,0.02633408295257412,0.6251588060303874,-0.01615456491708755,0.03694016858935356,-0.0002203416079282761,0.003185376524925232,0.0001891851425170898,0.000865936279296875,XArbitraryZVertical,0.2787005839782846,0.1305045552813648,0.3718060071957885,0.8758167801216681,0.02135105617344379,-0.5852260589599609,-0.810589075088501,0,0,0,-1,-1,2810.827083875,walking,2,2022-05-12T10:31:53.243+02:00,2022-05-11T22:15:20.957+02:00,266,0.9427902,0.6794919,1.85568,200.7785,0,0,2022-05-12T10:31:50.685+02:00,674037113.2428695,0,1.349998,100.8907,1,0.97
2022-05-12T10:31:55.202+02:00,1652344314.829616,53.22895879396538,10.3984066005893,37.4501,0,0.06,92.4609375,84.08905434391158,4,5,-9999,2812.785007541667,0.0211639404296875,-0.5810546875,-0.816314697265625,2812.780009541667,0.7944786380898125,0.02666702116200171,0.6249830782021871,-0.01204264350235462,0.03724350035190582,0.007866347208619118,0.004057168960571289,0.006180763244628906,-0.003021001815795898,XArbitraryZVertical,0.2785580044811891,0.1306257701748328,0.371885102242338,0.8758103990183422,0.02162367105484009,-0.585083544254303,-0.8106846809387207,0,0,0,-1,-1,2810.827083875,walking,2,2022-05-12T10:31:53.243+02:00,2022-05-11T22:15:20.957+02:00,266,0.9427902,0.6794919,1.85568,200.7785,0,0,2022-05-12T10:31:50.685+02:00,674037113.2428695,0,1.349998,100.8907,1,0.97
2022-05-12T10:31:55.212+02:00,1652344314.829616,53.22895879396538,10.3984066005893,37.4501,0,0.06,92.4609375,84.08905434391158,4,5,-9999,2812.795002541667,0.0216827392578125,-0.5835113525390625,-0.8116302490234375,2812.790004541667,0.7945905047434857,0.02702450917532047,0.6248758940006663,-0.009311271831393242,0.04156721383333206,0.0110602080821991,0.001385286450386047,0.004613697528839111,-0.004949748516082764,XArbitraryZVertical,0.2784370899400434,0.1307783380474945,0.3719895879130892,0.8757817843071041,0.02191517502069473,-0.5849966406822205,-0.8107396364212036,0,0,0,-1,-1,2810.827083875,walking,2,2022-05-12T10:31:53.243+02:00,2022-05-11T22:15:20.957+02:00,266,0.9427902,0.6794919,1.85568,200.7785,0,0,2022-05-12T10:31:50.685+02:00,674037113.2428695,0,1.349998,100.8907,1,0.97
2022-05-12T10:31:55.222+02:00,1652344314.829616,53.22895879396538,10.3984066005893,37.4501,0,0.06,92.4609375,84.08905434391158,4,5,-9999,2812.804997541667,0.0279083251953125,-0.5880889892578125,-0.803955078125,2812.800000541667,0.7947383390028648,0.02736134584437896,0.6247291933041118,-0.01305514387786388,0.0427326112985611,0.01535828411579132,-0.002826914191246033,0.004174292087554932,-0.0039406418800354,XArbitraryZVertical,0.27830029123683,0.1309196995728751,0.3721090641623213,0.8757533477643443,0.02219060808420181,-0.584877610206604,-0.8108179569244385,0,0,0,-1,-1,2810.827083875,walking,2,2022-05-12T10:31:53.243+02:00,2022-05-11T22:15:20.957+02:00,266,0.9427902,0.6794919,1.85568,200.7785,0,0,2022-05-12T10:31:50.685+02:00,674037113.2428695,0,1.349998,100.8907,1,0.97
2022-05-12T10:31:55.232+02:00,1652344314.829616,53.22895879396538,10.3984066005893,37.4501,0,0.06,92.4609375,84.08905434391158,4,5,-9999,2812.814992541667,0.0300140380859375,-0.5872344970703125,-0.7982940673828125,2812.809995541667,0.7949083646149034,0.02761692458854182,0.6245027978345836,-0.02980496361851692,0.03069299086928368,0.01058323681354523,0.002211242914199829,-0.001426219940185547,0.003006696701049805,XArbitraryZVertical,0.2781420964683179,0.1310140172160722,0.3722311635697592,0.875737606888923,0.02240149118006229,-0.584693968296051,-0.8109446167945862,0,0,0,-1,-1,2810.827083875,walking,2,2022-05-12T10:31:53.243+02:00,2022-05-11T22:15:20.957+02:00,266,0.9427902,0.6794919,1.85568,200.7785,0,0,2022-05-12T10:31:50.685+02:00,674037113.2428695,0,1.349998,100.8907,1,0.97
2022-05-12T10:31:55.242+02:00,1652344314.829616,53.22895879396538,10.3984066005893,37.4501,0,0.06,92.4609375,84.08905434391158,4,5,-9999,2812.824987541667,0.03216552734375,-0.58538818359375,-0.802978515625,2812.819990541667,0.7950869115763317,0.02774440007389175,0.6241536445569488,-0.03590147197246552,0.02036338858306408,0.01395559683442116,0.007595375180244446,-0.003723680973052979,0.01150864362716675,XArbitraryZVertical,0.2779532085983006,0.131031026315999,0.3723456942522535,0.8757463638304911,0.02251052856445312,-0.5844107270240784,-0.8111457824707031,0,0,0,-1,-1,2810.827083875,walking,2,2022-05-12T10:31:53.243+02:00,2022-05-11T22:15:20.957+02:00,266,0.9427902,0.6794919,1.85568,200.7785,0,0,2022-05-12T10:31:50.685+02:00,674037113.2428695,0,1.349998,100.8907,1,0.97
2022-05-12T10:31:55.252+02:00,1652344314.829616,53.22895879396538,10.3984066005893,37.4501,0,0.06,92.4609375,84.08905434391158,4,5,-9999,2812.834982541667,0.034027099609375,-0.5870208740234375,-0.80535888671875,2812.829985541667,0.795336986877456,0.02773250420812423,0.6237623033980573,-0.03847594931721687,0.01262850314378738,0.02451556362211704,0.007659703493118286,-0.001554131507873535,0.01137125492095947,XArbitraryZVertical,0.2777670352476628,0.1309892206490133,0.3724744109375914,0.8757569679060101,0.02250722050666809,-0.5840930938720703,-0.8113746047019958,0,0,0,-1,-1,2810.827083875,walking,2,2022-05-12T10:31:53.243+02:00,2022-05-11T22:15:20.957+02:00,266,0.9427902,0.6794919,1.85568,200.7785,0,0,2022-05-12T10:31:50.685+02:00,674037113.2428695,0,1.349998,100.8907,1,0.97
2022-05-12T10:31:55.262+02:00,1652344314.829616,53.22895879396538,10.3984066005893,37.4501,0,0.06,92.4609375,84.08905434391158,4,5,-9999,2812.844978541667,0.02935791015625,-0.5868988037109375,-0.8153076171875,2812.839980541667,0.7956757424660856,0.0276046438046913,0.623370938006395,-0.04403556138277054,0.005794566590338945,0.02802001871168613,0.01027484238147736,-0.002711057662963867,0.006857097148895264,XArbitraryZVertical,0.2775966587730462,0.1309088961597144,0.3726258664251086,0.8757585707103208,0.02240978367626667,-0.5837754011154175,-0.8116059303283691,0,0,0,-1,-1,2810.827083875,walking,2,2022-05-12T10:31:53.243+02:00,2022-05-11T22:15:20.957+02:00,266,0.9427902,0.6794919,1.85568,200.7785,0,0,2022-05-12T10:31:50.685+02:00,674037113.2428695,0,1.349998,100.8907,1,0.97
2022-05-12T10:31:55.272+02:00,1652344314.829616,53.22895879396538,10.3984066005893,37.4501,0,0.06,92.4609375,84.08905434391158,4,5,-9999,2812.854973541667,0.025848388671875,-0.5888519287109375,-0.8244781494140625,2812.849975541667,0.7960341436874391,0.02743965659538522,0.6229104877222201,-0.05025098100304604,0.000483690295368433,0.02686260640621185,0.01124060153961182,-0.003817379474639893,0.001819312572479248,XArbitraryZVertical,0.2774015772869759,0.1308023594733669,0.3727844748446469,0.8757688158735855,0.02228325232863426,-0.5834015011787415,-0.8118782043457031,0,0,0,-1,-1,2810.827083875,walking,2,2022-05-12T10:31:53.243+02:00,2022-05-11T22:15:20.957+02:00,266,0.9427902,0.6794919,1.85568,200.7785,0,0,2022-05-12T10:31:50.685+02:00,674037113.2428695,0,1.349998,100.8907,1,0.97
2022-05-12T10:31:55.282+02:00,1652344314.829616,53.22895879396538,10.3984066005893,37.4501,0,0.06,92.4609375,84.08905434391158,4,5,-9999,2812.864968541667,0.0146026611328125,-0.5785980224609375,-0.831756591796875,2812.859970541667,0.7964093192372209,0.02720497526809717,0.6224846873662957,-0.03285388275980949,-0.00652841292321682,0.02855584397912025,0.004374831914901733,-0.006421566009521484,-0.007494509220123291,XArbitraryZVertical,0.2772336764573856,0.1306739043365864,0.3729389703923074,0.8757753061254867,0.02209947258234024,-0.5830556154251099,-0.8121316432952881,0,0,0,-1,-1,2810.827083875,walking,2,2022-05-12T10:31:53.243+02:00,2022-05-11T22:15:20.957+02:00,266,0.9427902,0.6794919,1.85568,200.7785,0,0,2022-05-12T10:31:50.685+02:00,674037113.2428695,0,1.349998,100.8907,1,0.97
2022-05-12T10:31:55.292+02:00,1652344314.829616,53.22895879396538,10.3984066005893,37.4501,0,0.06,92.4609375,84.08905434391158,4,5,-9999,2812.874963541667,0.0085906982421875,-0.5808868408203125,-0.83404541015625,2812.869965541667,0.7966866986840976,0.02698785635192151,0.622204397592528,-0.01903980039060116,-0.005367540754377842,0.01602833531796932,-0.001770392060279846,-0.001873314380645752,-0.01700043678283691,XArbitraryZVertical,0.2771328597857066,0.130566060355702,0.3730453052242052,0.8757780433615491,0.02192755229771137,-0.5828278660774231,-0.8122997879981995,0,0,0,-1,-1,2810.827083875,walking,2,2022-05-12T10:31:53.243+02:00,2022-05-11T22:15:20.957+02:00,266,0.9427902,0.6794919,1.85568,200.7785,0,0,2022-05-12T10:31:50.685+02:00,674037113.2428695,0,1.349998,100.8907,1,0.97
2022-05-12T10:31:55.302+02:00,1652344314.829616,53.22895879396538,10.3984066005893,37.4501,0,0.06,92.4609375,84.08905434391158,4,5,-9999,2812.884958541667,0.01123046875,-0.5828704833984375,-0.8322601318359375,2812.879960541667,0.7968392077290024,0.02682731394540296,0.6220071624061907,-0.02032903581857681,-0.008641364052891731,0.005621233955025673,-0.01140868663787842,0.005473732948303223,-0.01949131488800049,XArbitraryZVertical,0.2770661658125239,0.1304808377790424,0.3731003803807004,0.8757884121922636,0.02180022746324539,-0.5826675891876221,-0.8124181628227234,0,0,0,-1,-1,2810.827083875,walking,2,2022-05-12T10:31:53.243+02:00,2022-05-11T22:15:20.957+02:00,266,0.9427902,0.6794919,1.85568,200.7785,0,0,2022-05-12T10:31:50.685+02:00,674037113.2428695,0,1.349998,100.8907,1,0.97
2022-05-12T10:31:55.312+02:00,1652344314.829616,53.22895879396538,10.3984066005893,37.4501,0,0.06,92.4609375,84.08905434391158,4,5,-9999,2812.894953541667,0.0078887939453125,-0.582794189453125,-0.830963134765625,2812.889956541667,0.7968372991210091,0.02678022110878994,0.6217942459964676,-0.02857671305537224,-0.002566960174590349,-0.007723332848399878,-0.01097702980041504,-0.0007265210151672363,-0.02078533172607422,XArbitraryZVertical,0.2769814999509521,0.1304210358006122,0.3731044051539236,0.8758223866392728,0.02176528982818127,-0.5824944972991943,-0.8125432133674622,0,0,0,-1,-1,2810.827083875,walking,2,2022-05-12T10:31:53.243+02:00,2022-05-11T22:15:20.957+02:00,266,0.9427902,0.6794919,1.85568,200.7785,0,0,2022-05-12T10:31:50.685+02:00,674037113.2428695,0,1.349998,100.8907,1,0.97
2022-05-12T10:31:55.322+02:00,1652344314.829616,53.22895879396538,10.3984066005893,37.4501,0,0.06,92.4609375,84.08905434391158,4,5,-9999,2812.904948541667,0.0170135498046875,-0.585205078125,-0.831298828125,2812.899951541667,0.7966799224961575,0.02692757528864424,0.6215614771117611,-0.03004810959100723,0.002434722613543272,-0.01355885155498981,-0.0142894983291626,0.0008084774017333984,-0.01934075355529785,XArbitraryZVertical,0.2768619628082553,0.1304212243989915,0.3730683167967471,0.8758755554901545,0.02188867144286633,-0.5823053121566772,-0.8126755356788635,0,0,0,-1,-1,2810.827083875,walking,2,2022-05-12T10:31:53.243+02:00,2022-05-11T22:15:20.957+02:00,266,0.9427902,0.6794919,1.85568,200.7785,0,0,2022-05-12T10:31:50.685+02:00,674037113.2428695,0,1.349998,100.8907,1,0.97
2022-05-12T10:31:55.332+02:00,1652344314.829616,53.22895879396538,10.3984066005893,37.4501,0,0.06,92.4609375,84.08905434391158,4,5,-9999,2812.914943541667,0.023590087890625,-0.581512451171875,-0.826995849609375,2812.909946541667,0.79642804896658,0.02710050837900556,0.6213351609640961,-0.02955798991024494,-0.003540146164596081,-0.02077195607125759,-0.0111377090215683,-0.002442538738250732,-0.01880085468292236,XArbitraryZVertical,0.276746657622763,0.1304207575140667,0.3729940224990457,0.8759436867393166,0.02203278057277203,-0.5821213126182556,-0.8128034472465515,0,0,0,-1,-1,2810.827083875,walking,2,2022-05-12T10:31:53.243+02:00,2022-05-11T22:15:20.957+02:00,266,0.9427902,0.6794919,1.85568,200.7785,0,0,2022-05-12T10:31:50.685+02:00,674037113.2428695,0,1.349998,100.8907,1,0.97
2022-05-12T10:31:55.342+02:00,1652344314.829616,53.22895879396538,10.3984066005893,37.4501,0,0.06,92.4609375,84.08905434391158,4,5,-9999,2812.924939541667,0.0213623046875,-0.575927734375,-0.8264007568359375,2812.919941541667,0.7961339150023986,0.02728493846535981,0.6210319599293901,-0.037317905575037,-0.005900239571928978,-0.02545006573200226,0.0005331337451934814,-0.002093970775604248,-0.01730102300643921,XArbitraryZVertical,0.2765981532767115,0.1304054625506148,0.3729068543743194,0.8760299979443292,0.02218749932944775,-0.5818747282028198,-0.8129757642745972,0,0,0,-1,-1,2810.827083875,walking,2,2022-05-12T10:31:53.243+02:00,2022-05-11T22:15:20.957+02:00,266,0.9427902,0.6794919,1.85568,200.7785,0,0,2022-05-12T10:31:50.685+02:00,674037113.2428695,0,1.349998,100.8907,1,0.97
2022-05-12T10:31:55.352+02:00,1652344314.829616,53.22895879396538,10.3984066005893,37.4501,0,0.06,92.4609375,84.08905434391158,4,5,-9999,2812.934934541667,0.0186309814453125,-0.5751800537109375,-0.8238677978515625,2812.929936541667,0.7958067185336217,0.02750208571511791,0.6206766706484437,-0.03624778240919113,0.001306407619267702,-0.02422807365655899,0.0003661811351776123,0.004147768020629883,-0.01284205913543701,XArbitraryZVertical,0.2764227970205582,0.1303904793624885,0.3728124447705283,0.8761277535429043,0.02236971817910671,-0.5815857648849487,-0.8131775259971619,0,0,0,-1,-1,2810.827083875,walking,2,2022-05-12T10:31:53.243+02:00,2022-05-11T22:15:20.957+02:00,266,0.9427902,0.6794919,1.85568,200.7785,0,0,2022-05-12T10:31:50.685+02:00,674037113.2428695,0,1.349998,100.8907,1,0.97
2022-05-12T10:31:55.362+02:00,1652344314.829616,53.22895879396538,10.3984066005893,37.4501,0,0.06,92.4609375,84.08905434391158,4,5,-9999,2812.944929541667,0.0132598876953125,-0.5725250244140625,-0.8267059326171875,2812.939931541667,0.7954891990223711,0.0277296454391017,0.6203445360101258,-0.03280724585056305,0.005181306507438421,-0.02794744446873665,-0.000632941722869873,0.005525529384613037,-0.01120454072952271,XArbitraryZVertical,0.2762550399234386,0.1303856888953655,0.3727224158568226,0.8762196677022288,0.0225601177662611,-0.5813155174255371,-0.8133654594421387,0,0,0,-1,-1,2810.827083875,walking,2,2022-05-12T10:31:53.243+02:00,2022-05-11T22:15:20.957+02:00,266,0.9427902,0.6794919,1.85568,200.7785,0,0,2022-05-12T10:31:50.685+02:00,674037113.2428695,0,1.349998,100.8907,1,0.97
2022-05-12T10:31:55.372+02:00,1652344314.829616,53.22895879396538,10.3984066005893,37.4501,0,0.06,92.4609375,84.08905434391158,4,5,-9999,2812.954924541667,-0.0128326416015625,-0.579254150390625,-0.8236846923828125,2812.949926541667,0.7950023107066332,0.02808347341688333,0.6199553821896804,-0.03933658450841904,0.01909326016902924,-0.07117573916912079,-0.007610425353050232,0.006551563739776611,-0.01182568073272705,XArbitraryZVertical,0.276049701169985,0.1304024885894287,0.3725785354789288,0.8763431150094281,0.02285425923764706,-0.5809988379478455,-0.8135834932327271,0,0,0,-1,-1,2810.827083875,walking,2,2022-05-12T10:31:53.243+02:00,2022-05-11T22:15:20.957+02:00,266,0.9427902,0.6794919,1.85568,200.7785,0,0,2022-05-12T10:31:50.685+02:00,674037113.2428695,0,1.349998,100.8907,1,0.97
2022-05-12T10:31:55.382+02:00,1652344314.829616,53.22895879396538,10.3984066005893,37.4501,0,0.06,92.4609375,84.08905434391158,4,5,-9999,2812.964919541667,0.010223388671875,-0.5615234375,-0.8074951171875,2812.959921541667,0.7941115821133422,0.02879223730178604,0.6194681806240782,-0.03719806671142578,0.006615019869059324,-0.08308486640453339,-0.01966981589794159,0.006597518920898438,-0.00989609956741333,XArbitraryZVertical,0.2757615084414206,0.1305014497129249,0.372311693489949,0.8765324306834072,0.02343903668224812,-0.58060222864151,-0.813849925994873,0,0,0,-1,-1,2810.827083875,walking,2,2022-05-12T10:31:53.243+02:00,2022-05-11T22:15:20.957+02:00,266,0.9427902,0.6794919,1.85568,200.7785,0,0,2022-05-12T10:31:50.685+02:00,674037113.2428695,0,1.349998,100.8907,1,0.97
2022-05-12T10:31:55.392+02:00,1652344314.829616,53.22895879396538,10.3984066005893,37.4501,0,0.06,92.4609375,84.08905434391158,4,5,-9999,2812.974914541667,0.0007781982421875,-0.5572052001953125,-0.802398681640625,2812.969917541667,0.7927561992328305,0.02940863049778688,0.6187952429922093,-0.07715486735105515,0.001883514691144228,-0.1179287359118462,-0.02003034949302673,0.01358729600906372,-0.003065884113311768,XArbitraryZVertical,0.2754391383190396,0.1304624394454138,0.371837819867157,0.8768406664421819,0.02395216748118401,-0.5800542235374451,-0.8142256736755371,0,0,0,-1,-1,2810.827083875,walking,2,2022-05-12T10:31:53.243+02:00,2022-05-11T22:15:20.957+02:00,266,0.9427902,0.6794919,1.85568,200.7785,0,0,2022-05-12T10:31:50.685+02:00,674037113.2428695,0,1.349998,100.8907,1,0.97
2022-05-12T10:31:55.402+02:00,1652344314.829616,53.22895879396538,10.3984066005893,37.4501,0,0.06,92.4609375,84.08905434391158,4,5,-9999,2812.984909541667,-0.00433349609375,-0.571319580078125,-0.7954864501953125,2812.979912541667,0.7912719843601447,0.03000215835768506,0.6178338892103108,-0.1024426445364952,-0.02553452737629414,-0.148672804236412,-0.0314556211233139,0.01582515239715576,0.01102662086486816,XArbitraryZVertical,0.2750023902567931,0.1303438520717979,0.3713187687671394,0.877215303665568,0.02445214614272118,-0.5792708396911621,-0.8147683143615723,0,0,0,-1,-1,2810.827083875,walking,2,2022-05-12T10:31:53.243+02:00,2022-05-11T22:15:20.957+02:00,266,0.9427902,0.6794919,1.85568,200.7785,0,0,2022-05-12T10:31:50.685+02:00,674037113.2428695,0,1.349998,100.8907,1,0.97
2022-05-12T10:31:55.412+02:00,1652344314.829616,53.22895879396538,10.3984066005893,37.4501,0,0.06,92.4609375,84.08905434391158,4,5,-9999,2812.994904541667,-0.0025634765625,-0.5511016845703125,-0.7879638671875,2812.989907541667,0.7893530078601853,0.03072194994307073,0.6164880828541185,-0.1467113196849823,-0.04051826894283295,-0.1823482066392899,-0.02193418145179749,0.01506334543228149,0.01753979921340942,XArbitraryZVertical,0.2744010172514509,0.1301521823164562,0.370645406646219,0.8777166669004369,0.02506252564489841,-0.5781733393669128,-0.8155289888381958,0,0,0,-1,-1,2810.827083875,walking,2,2022-05-12T10:31:53.243+02:00,2022-05-11T22:15:20.957+02:00,266,0.9427902,0.6794919,1.85568,200.7785,0,0,2022-05-12T10:31:50.685+02:00,674037113.2428695,0,1.349998,100.8907,1,0.97
2022-05-12T10:31:55.422+02:00,1652344314.829616,53.22895879396538,10.3984066005893,37.4501,0,0.06,92.4609375,84.08905434391158,4,5,-9999,2813.004899541667,-0.0079345703125,-0.54632568359375,-0.785247802734375,2812.999902541667,0.787006631107615,0.03154498447129168,0.6146957100954975,-0.1967659592628479,-0.06069810688495636,-0.2138012051582336,-0.03022164292633533,0.01318806409835815,0.02619808912277222,XArbitraryZVertical,0.2736110590582956,0.1298680576460919,0.3698200286505379,0.8783532795046124,0.02576636895537376,-0.5767099857330322,-0.8165425658226013,0,0,0,-1,-1,2810.827083875,walking,2,2022-05-12T10:31:53.243+02:00,2022-05-11T22:15:20.957+02:00,266,0.9427902,0.6794919,1.85568,200.7785,0,0,2022-05-12T10:31:50.685+02:00,674037113.2428695,0,1.349998,100.8907,1,0.97
2022-05-12T10:31:55.432+02:00,1652344314.829616,53.22895879396538,10.3984066005893,37.4501,0,0.06,92.4609375,84.08905434391158,4,5,-9999,2813.014895541667,-0.0082550048828125,-0.559173583984375,-0.7825775146484375,2813.009897541667,0.7843143994874054,0.03241122561249777,0.6123716086063874,-0.2475676834583282,-0.07167179137468338,-0.2414065897464752,-0.03254397213459015,0.02990347146987915,0.03173953294754028,XArbitraryZVertical,0.2726001814034236,0.1294621661041812,0.3688733609895236,0.879125318968488,0.02651704661548138,-0.574809730052948,-0.8178573846817017,0,0,0,-1,-1,2810.827083875,walking,2,2022-05-12T10:31:53.243+02:00,2022-05-11T22:15:20.957+02:00,266,0.9427902,0.6794919,1.85568,200.7785,0,0,2022-05-12T10:31:50.685+02:00,674037113.2428695,0,1.349998,100.8907,1,0.97
2022-05-12T10:31:55.442+02:00,1652344314.829616,53.22895879396538,10.3984066005893,37.4501,0,0.06,92.4609375,84.08905434391158,4,5,-9999,2813.024890541667,-0.0183563232421875,-0.565032958984375,-0.777008056640625,2813.019892541667,0.7813556236837945,0.03333138949104723,0.6096143182309203,-0.291412353515625,-0.0769650936126709,-0.257449746131897,-0.03643150627613068,0.0185660719871521,0.03428757190704346,XArbitraryZVertical,0.2714040561946864,0.1289691991301106,0.3678354729016096,0.8800023260475017,0.02732231095433235,-0.5725513100624084,-0.8194135427474976,0,0,0,-1,-1,2810.827083875,walking,2,2022-05-12T10:31:53.243+02:00,2022-05-11T22:15:20.957+02:00,266,0.9427902,0.6794919,1.85568,200.7785,0,0,2022-05-12T10:31:50.685+02:00,674037113.2428695,0,1.349998,100.8907,1,0.97
2022-05-12T10:31:55.451+02:00,1652344314.829616,53.22895879396538,10.3984066005893,37.4501,0,0.06,92.4609375,84.08905434391158,4,5,-9999,2813.034885541667,-0.047332763671875,-0.5886993408203125,-0.7765350341796875,2813.029887541667,0.7781574310380439,0.03429610684196328,0.6062255275202636,-0.3612210750579834,-0.07073023170232773,-0.2935633957386017,-0.03886003792285919,0.00614088773727417,0.04083389043807983,XArbitraryZVertical,0.2699342017958748,0.1283546418602454,0.3667254686449015,0.8810069496632673,0.02817917056381702,-0.5697696208953857,-0.8213212490081787,0,0,0,-1,-1,2810.827083875,walking,2,2022-05-12T10:31:53.243+02:00,2022-05-11T22:15:20.957+02:00,266,0.9427902,0.6794919,1.85568,200.7785,0,0,2022-05-12T10:31:50.685+02:00,674037113.2428695,0,1.349998,100.8907,1,0.97
2022-05-12T10:31:55.462+02:00,1652344314.829616,53.22895879396538,10.3984066005893,37.4501,0,0.06,92.4609375,84.08905434391158,4,5,-9999,2813.044880541667,-0.0804595947265625,-0.642669677734375,-0.762420654296875,2813.039882541667,0.7753952919195549,0.03547031618411541,0.6026426200771073,-0.3400721251964569,-0.01702412962913513,-0.2132035940885544,-0.06618750095367432,-0.00565725564956665,0.05121219158172607,XArbitraryZVertical,0.2683099363712816,0.1278615523479962,0.3658404093193795,0.8819421838351019,0.02921575866639614,-0.5668215751647949,-0.8233224153518677,0,0,0,-1,-1,2810.827083875,walking,2,2022-05-12T10:31:53.243+02:00,2022-05-11T22:15:20.957+02:00,266,0.9427902,0.6794919,1.85568,200.7785,0,0,2022-05-12T10:31:50.685+02:00,674037113.2428695,0,1.349998,100.8907,1,0.97
