loggingTime(txt),locationTimestamp_since1970(s),locationLatitude(WGS84),locationLongitude(WGS84),locationAltitude(m),locationSpeed(m/s),locationSpeedAccuracy(m/s),locationCourse(°),locationCourseAccuracy(°),locationVerticalAccuracy(m),locationHorizontalAccuracy(m),locationFloor(Z),accelerometerTimestamp_sinceReboot(s),accelerometerAccelerationX(G),accelerometerAccelerationY(G),accelerometerAccelerationZ(G),motionTimestamp_sinceReboot(s),motionYaw(rad),motionRoll(rad),motionPitch(rad),motionRotationRateX(rad/s),motionRotationRateY(rad/s),motionRotationRateZ(rad/s),motionUserAccelerationX(G),motionUserAccelerationY(G),motionUserAccelerationZ(G),motionAttitudeReferenceFrame(txt),motionQuaternionX(R),motionQuaternionY(R),motionQuaternionZ(R),motionQuaternionW(R),motionGravityX(G),motionGravityY(G),motionGravityZ(G),motionMagneticFieldX(µT),motionMagneticFieldY(µT),motionMagneticFieldZ(µT),motionHeading(°),motionMagneticFieldCalibrationAccuracy(Z),activityTimestamp_sinceReboot(s),activity(txt),activityActivityConfidence(Z),activityActivityStartDate(txt),pedometerStartDate(txt),pedometerNumberofSteps(N),pedometerAverageActivePace(s/m),pedometerCurrentPace(s/m),pedometerCurrentCadence(steps/s),pedometerDistance(m),pedometerFloorAscended(N),pedometerFloorDescended(N),pedometerEndDate(txt),altimeterTimestamp_sinceReboot(s),altimeterReset(bool),altimeterRelativeAltitude(m),altimeterPressure(kPa),batteryState(N),batteryLevel(R)
2022-05-12T10:32:44.374+02:00,1652344364.000522,53.22908070029595,10.3983775306639,36.83102,0.9336013,0.7788853,2.92782355353238,180,2.400000095367432,7.999579855010837,-9999,2861.941007666667,0.0067138671875,-0.462554931640625,-0.8744659423828125,2861.936010666667,0.5962451518460279,-0.001137379320508733,0.5039112651124201,0.07905165106058121,-0.06330400705337524,-0.07162062078714371,0.0251203179359436,-0.01134687662124634,0.0005167722702026367,XArbitraryZVertical,-0.2384634096488322,-0.07269897951249465,-0.2843166635415006,-0.9257505351546789,-0.0009960036259144545,-0.4828543066978455,-0.8757001161575317,0,0,0,-1,-1,2859.44314075,walking,2,2022-05-12T10:32:41.859+02:00,2022-05-11T22:15:20.957+02:00,335,0.8999186,0.8204216,1.72769,251.5268,0,0,2022-05-12T10:32:39.301+02:00,674037161.8589634,0,0.2400017,100.9056,1,0.96
2022-05-12T10:32:44.377+02:00,1652344364.000522,53.22908070029595,10.3983775306639,36.83102,0.9336013,0.7788853,2.92782355353238,180,2.400000095367432,7.999579855010837,-9999,2861.951002666667,0.0071868896484375,-0.4647369384765625,-0.879425048828125,2861.946005666667,0.5954514432516076,-0.001354406378121483,0.5047212437485383,0.08211082220077515,-0.05923443287611008,-0.06203750520944595,0.02707986533641815,0.01772832870483398,0.00683903694152832,XArbitraryZVertical,-0.2388979309836748,-0.07261894888399102,-0.283893441836832,-0.9257748124278276,-0.001185524160973728,-0.4835634529590607,-0.8753085136413574,0,0,0,-1,-1,2859.44314075,walking,2,2022-05-12T10:32:41.859+02:00,2022-05-11T22:15:20.957+02:00,335,0.8999186,0.8204216,1.72769,251.5268,0,0,2022-05-12T10:32:39.301+02:00,674037161.8589634,0,0.2400017,100.9056,1,0.96
2022-05-12T10:32:44.380+02:00,1652344364.000522,53.22908070029595,10.3983775306639,36.83102,0.9336013,0.7788853,2.92782355353238,180,2.400000095367432,7.999579855010837,-9999,2861.960997666667,0.0106201171875,-0.4669342041015625,-0.8759765625,2861.956000666667,0.5948056425631033,-0.001565639570863552,0.5054420743818341,0.05974053591489792,-0.05132617801427841,-0.05310872569680214,0.004467576742172241,0.02032753825187683,-0.002283811569213867,XArbitraryZVertical,-0.2392849619940922,-0.07254635193136599,-0.2835426095002064,-0.9257880597386045,-0.001369872246868908,-0.484194278717041,-0.8749594688415527,0,0,0,-1,-1,2859.44314075,walking,2,2022-05-12T10:32:41.859+02:00,2022-05-11T22:15:20.957+02:00,335,0.8999186,0.8204216,1.72769,251.5268,0,0,2022-05-12T10:32:39.301+02:00,674037161.8589634,0,0.2400017,100.9056,1,0.96
2022-05-12T10:32:44.387+02:00,1652344364.000522,53.22908070029595,10.3983775306639,36.83102,0.9336013,0.7788853,2.92782355353238,180,2.400000095367432,7.999579855010837,-9999,2861.970993666667,0.0068359375,-0.4771270751953125,-0.8800811767578125,2861.965995666667,0.5942575835182619,-0.001793806309354743,0.5057748934260089,0.01120894961059093,-0.04570451006293297,-0.04323452338576317,0.01150286197662354,0.01852831244468689,-0.004795193672180176,XArbitraryZVertical,-0.2394912142832702,-0.07242237552207158,-0.2832492970486417,-0.9258341466975827,-0.001569219748489559,-0.4844854474067688,-0.8747979402542114,0,0,0,-1,-1,2859.44314075,walking,2,2022-05-12T10:32:41.859+02:00,2022-05-11T22:15:20.957+02:00,335,0.8999186,0.8204216,1.72769,251.5268,0,0,2022-05-12T10:32:39.301+02:00,674037161.8589634,0,0.2400017,100.9056,1,0.96
2022-05-12T10:32:44.397+02:00,1652344364.000522,53.22908070029595,10.3983775306639,36.83102,0.9336013,0.7788853,2.92782355353238,180,2.400000095367432,7.999579855010837,-9999,2861.980988666667,0.0006866455078125,-0.487762451171875,-0.8826141357421875,2861.975990666667,0.5938572943950176,-0.001929408343596509,0.5056469103841423,-0.02779890410602093,-0.02207161858677864,-0.02511943317949772,0.01119436323642731,0.01206865906715393,-0.002688765525817871,XArbitraryZVertical,-0.2394656493837871,-0.0722935165662353,-0.2830524858169673,-0.9259110450725681,-0.001687963725998998,-0.4843735098838806,-0.8748596906661987,0,0,0,-1,-1,2859.44314075,walking,2,2022-05-12T10:32:41.859+02:00,2022-05-11T22:15:20.957+02:00,335,0.8999186,0.8204216,1.72769,251.5268,0,0,2022-05-12T10:32:39.301+02:00,674037161.8589634,0,0.2400017,100.9056,1,0.96
2022-05-12T10:32:44.407+02:00,1652344364.000522,53.22908070029595,10.3983775306639,36.83102,0.9336013,0.7788853,2.92782355353238,180,2.400000095367432,7.999579855010837,-9999,2861.990983666667,0.0057830810546875,-0.4840545654296875,-0.885009765625,2861.985985666667,0.5936779194203035,-0.00194746308538598,0.5051793134855704,-0.05182674527168274,0.000218505971133709,-0.003483912907540798,0.005870014429092407,0.002153307199478149,-0.007665634155273438,XArbitraryZVertical,-0.2392582143901867,-0.0721973951909954,-0.2829845698263246,-0.9259930042915298,-0.001704200054518878,-0.4839643537998199,-0.8750860691070557,0,0,0,-1,-1,2859.44314075,walking,2,2022-05-12T10:32:41.859+02:00,2022-05-11T22:15:20.957+02:00,335,0.8999186,0.8204216,1.72769,251.5268,0,0,2022-05-12T10:32:39.301+02:00,674037161.8589634,0,0.2400017,100.9056,1,0.96
2022-05-12T10:32:44.418+02:00,1652344364.000522,53.22908070029595,10.3983775306639,36.83102,0.9336013,0.7788853,2.92782355353238,180,2.400000095367432,7.999579855010837,-9999,2862.000978666667,0.0047149658203125,-0.48828125,-0.8881072998046875,2861.995980666667,0.5937444425248255,-0.001922146894123332,0.5045575003461303,-0.04813506454229355,0.01152176037430763,0.009412710554897785,0.003788501024246216,-0.004418134689331055,-0.008356690406799316,XArbitraryZVertical,-0.2389643812713125,-0.07212894907625889,-0.2830414055722951,-0.9260567787462612,-0.001682624220848083,-0.4834201335906982,-0.8753868937492371,0,0,0,-1,-1,2859.44314075,walking,2,2022-05-12T10:32:41.859+02:00,2022-05-11T22:15:20.957+02:00,335,0.8999186,0.8204216,1.72769,251.5268,0,0,2022-05-12T10:32:39.301+02:00,674037161.8589634,0,0.2400017,100.9056,1,0.96
2022-05-12T10:32:44.428+02:00,1652344364.000522,53.22908070029595,10.3983775306639,36.83102,0.9336013,0.7788853,2.92782355353238,180,2.400000095367432,7.999579855010837,-9999,2862.010973666667,0.0018310546875,-0.490509033203125,-0.889556884765625,2862.005975666667,0.5939109803680293,-0.001845958467963158,0.5040489494741135,-0.03838410228490829,0.02482438459992409,0.01347416453063488,0.009032338857650757,-0.00162854790687561,-0.01120835542678833,XArbitraryZVertical,-0.2387121500028884,-0.07211201807123453,-0.2831464006037156,-0.9260910468622171,-0.00161638343706727,-0.4829748868942261,-0.8756327033042908,0,0,0,-1,-1,2859.44314075,walking,2,2022-05-12T10:32:41.859+02:00,2022-05-11T22:15:20.957+02:00,335,0.8999186,0.7476743,1.72769,251.5268,0,0,2022-05-12T10:32:41.859+02:00,674037161.8589634,0,0.2400017,100.9056,1,0.96
2022-05-12T10:32:44.438+02:00,1652344364.000522,53.22908070029595,10.3983775306639,36.83102,0.9336013,0.7788853,2.92782355353238,180,2.400000095367432,7.999579855010837,-9999,2862.020968666667,0.0030670166015625,-0.489959716796875,-0.887115478515625,2862.015971666667,0.5940046347466683,-0.001566795284227503,0.5037732503527967,-0.01883756555616856,0.03043166920542717,0.007002416998147964,0.0042409747838974,-0.007180005311965942,-0.01253968477249146,XArbitraryZVertical,-0.2385416018667691,-0.07221336852292833,-0.283233244934336,-0.9261005202544862,-0.001372147584334016,-0.4827334582805634,-0.8757662773132324,0,0,0,-1,-1,2859.44314075,walking,2,2022-05-12T10:32:41.859+02:00,2022-05-11T22:15:20.957+02:00,335,0.8999186,0.7476743,1.72769,251.5268,0,0,2022-05-12T10:32:41.859+02:00,674037164.4170872,0,0.2599983,100.9045,1,0.96
2022-05-12T10:32:44.448+02:00,1652344364.000522,53.22908070029595,10.3983775306639,36.83102,0.9336013,0.7788853,2.92782355353238,180,2.400000095367432,7.999579855010837,-9999,2862.030963666667,0.005950927734375,-0.494415283203125,-0.8849334716796875,2862.025966666667,0.5939747210453062,-0.001199341793054912,0.5036698613413729,0.002533901948481798,0.027551194652915,-0.005767440423369408,0.003415688872337341,-0.007484197616577148,-0.01294708251953125,XArbitraryZVertical,-0.2384427708727385,-0.07236528911338118,-0.2832670110529817,-0.9261037970544028,-0.001050403923727572,-0.4826429188251495,-0.8758166432380676,0,0,0,-1,-1,2859.44314075,walking,2,2022-05-12T10:32:41.859+02:00,2022-05-11T22:15:20.957+02:00,335,0.8999186,0.7476743,1.72769,251.5268,0,0,2022-05-12T10:32:41.859+02:00,674037164.4170872,0,0.2599983,100.9045,1,0.96
2022-05-12T10:32:44.458+02:00,1652344364.000522,53.22908070029595,10.3983775306639,36.83102,0.9336013,0.7788853,2.92782355353238,180,2.400000095367432,7.999579855010837,-9999,2862.040958666667,0.0068817138671875,-0.497589111328125,-0.8824310302734375,2862.035961666667,0.5938228778243564,-0.0008928524402016832,0.5037234519137394,0.01501667127013206,0.01898034289479256,-0.01872158795595169,0.005970105528831482,-0.008032351732254028,-0.01037865877151489,XArbitraryZVertical,-0.238429682046599,-0.07249670934294393,-0.2832312781965224,-0.9261077920992876,-0.0007819523452781141,-0.4826898574829102,-0.8757910132408142,0,0,0,-1,-1,2859.44314075,walking,2,2022-05-12T10:32:41.859+02:00,2022-05-11T22:15:20.957+02:00,335,0.8999186,0.7476743,1.72769,251.5268,0,0,2022-05-12T10:32:41.859+02:00,674037164.4170872,0,0.2599983,100.9045,1,0.96
2022-05-12T10:32:44.468+02:00,1652344364.000522,53.22908070029595,10.3983775306639,36.83102,0.9336013,0.7788853,2.92782355353238,180,2.400000095367432,7.999579855010837,-9999,2862.050954666667,0.00787353515625,-0.4981231689453125,-0.8795928955078125,2862.045956666667,0.5935057798835288,-0.0005415364557224244,0.5038887141719469,0.0288594476878643,0.0168379619717598,-0.03349161148071289,0.007646039128303528,-0.01377749443054199,-0.008642435073852539,XArbitraryZVertical,-0.2384679568115702,-0.07264498495550253,-0.2831202650329154,-0.9261203138381389,-0.0004742297460325062,-0.4828345775604248,-0.8757115006446838,0,0,0,-1,-1,2859.44314075,walking,2,2022-05-12T10:32:41.859+02:00,2022-05-11T22:15:20.957+02:00,335,0.8999186,0.7476743,1.72769,251.5268,0,0,2022-05-12T10:32:41.859+02:00,674037164.4170872,0,0.2599983,100.9045,1,0.96
2022-05-12T10:32:44.478+02:00,1652344364.000522,53.22908070029595,10.3983775306639,36.83102,0.9336013,0.7788853,2.92782355353238,180,2.400000095367432,7.999579855010837,-9999,2862.060949666667,0.0089111328125,-0.4942169189453125,-0.87994384765625,2862.055951666667,0.5930680244231562,-0.0001282299896807801,0.504193687492721,0.03617115691304207,0.01628562249243259,-0.03745625913143158,0.006643205881118774,-0.01540255546569824,-0.005219042301177979,XArbitraryZVertical,-0.238566594736135,-0.07282732718474851,-0.2829556970070935,-0.9261309305347196,-0.0001122736066463403,-0.4831016063690186,-0.8755643367767334,0,0,0,-1,-1,2859.44314075,walking,2,2022-05-12T10:32:41.859+02:00,2022-05-11T22:15:20.957+02:00,335,0.8999186,0.7476743,1.72769,251.5268,0,0,2022-05-12T10:32:41.859+02:00,674037164.4170872,0,0.2599983,100.9045,1,0.96
2022-05-12T10:32:44.488+02:00,1652344364.000522,53.22908070029595,10.3983775306639,36.83102,0.9336013,0.7788853,2.92782355353238,180,2.400000095367432,7.999579855010837,-9999,2862.070944666667,0.0102386474609375,-0.493133544921875,-0.88116455078125,2862.065946666667,0.5926630902537214,0.0002348885215563741,0.5045765665853523,0.04383706673979759,0.01505923643708229,-0.03298454731702805,0.006630495190620422,-0.01448753476142883,-0.004702210426330566,XArbitraryZVertical,-0.2387072990009653,-0.0730013116602183,-0.2827975657658126,-0.9261292684107472,0.0002056165394606069,-0.4834368228912354,-0.8753792643547058,0,0,0,-1,-1,2859.44314075,walking,2,2022-05-12T10:32:41.859+02:00,2022-05-11T22:15:20.957+02:00,335,0.8999186,0.7476743,1.72769,251.5268,0,0,2022-05-12T10:32:41.859+02:00,674037164.4170872,0,0.2599983,100.9045,1,0.96
2022-05-12T10:32:44.497+02:00,1652344364.000522,53.22908070029595,10.3983775306639,36.83102,0.9336013,0.7788853,2.92782355353238,180,2.400000095367432,7.999579855010837,-9999,2862.080939666667,0.0094757080078125,-0.48681640625,-0.8787994384765625,2862.075941666667,0.5923009772525617,0.000547633559509474,0.5050258887600646,0.04465918242931366,0.01382432878017426,-0.02787580341100693,0.0103393942117691,-0.00791439414024353,-0.006399691104888916,XArbitraryZVertical,-0.2388844071865876,-0.07316640915052768,-0.2826509078989249,-0.9261152676449181,0.0004792680265381932,-0.4838300943374634,-0.8751618266105652,0,0,0,-1,-1,2859.44314075,walking,2,2022-05-12T10:32:41.859+02:00,2022-05-11T22:15:20.957+02:00,335,0.8999186,0.7476743,1.72769,251.5268,0,0,2022-05-12T10:32:41.859+02:00,674037164.4170872,0,0.2599983,100.9045,1,0.96
2022-05-12T10:32:44.507+02:00,1652344364.000522,53.22908070029595,10.3983775306639,36.83102,0.9336013,0.7788853,2.92782355353238,180,2.400000095367432,7.999579855010837,-9999,2862.090934666667,0.0115966796875,-0.4815521240234375,-0.875457763671875,2862.085936666667,0.5920038848032616,0.0008384452200562093,0.5053910497030684,0.0344129391014576,0.009948099032044411,-0.0185273103415966,0.009612008929252625,-0.005794346332550049,-0.005584776401519775,XArbitraryZVertical,-0.2390232945010837,-0.07331714029851012,-0.2825348272884364,-0.926102934491725,0.0007336271228268743,-0.4841496348381042,-0.8749849200248718,0,0,0,-1,-1,2859.44314075,walking,2,2022-05-12T10:32:41.859+02:00,2022-05-11T22:15:20.957+02:00,335,0.8999186,0.7476743,1.72769,251.5268,0,0,2022-05-12T10:32:41.859+02:00,674037164.4170872,0,0.2599983,100.9045,1,0.96
2022-05-12T10:32:44.518+02:00,1652344364.000522,53.22908070029595,10.3983775306639,36.83102,0.9336013,0.7788853,2.92782355353238,180,2.400000095367432,7.999579855010837,-9999,2862.100929666667,0.015106201171875,-0.4776153564453125,-0.8717498779296875,2862.095932666667,0.5918320260514881,0.001008276295846821,0.5056731323786761,0.02403220348060131,0.006376799661666155,-0.008567088283598423,0.00963139533996582,-0.0008478164672851562,-0.002700269222259521,XArbitraryZVertical,-0.2391362411428399,-0.07341505318464316,-0.2824653275787877,-0.9260872018731215,0.0008820889634080231,-0.4843964278697968,-0.8748481869697571,0,0,0,-1,-1,2859.44314075,walking,2,2022-05-12T10:32:41.859+02:00,2022-05-11T22:15:20.957+02:00,335,0.8999186,0.7476743,1.72769,251.5268,0,0,2022-05-12T10:32:41.859+02:00,674037164.4170872,0,0.2599983,100.9045,1,0.96
2022-05-12T10:32:44.528+02:00,1652344364.000522,53.22908070029595,10.3983775306639,36.83102,0.9336013,0.7788853,2.92782355353238,180,2.400000095367432,7.999579855010837,-9999,2862.110924666667,0.0136871337890625,-0.473663330078125,-0.8705291748046875,2862.105927666667,0.5917374682955855,0.001043444847978585,0.5058803681998723,0.01992753893136978,-0.01085611619055271,-0.007171192206442356,0.01327809691429138,0.006184667348861694,0.002356767654418945,XArbitraryZVertical,-0.2392307130586463,-0.07344927027141149,-0.2824182393611993,-0.9260744485190338,0.0009127513621933758,-0.4845777153968811,-0.8747477531433105,0,0,0,-1,-1,2859.44314075,walking,2,2022-05-12T10:32:41.859+02:00,2022-05-11T22:15:20.957+02:00,335,0.8999186,0.7476743,1.72769,251.5268,0,0,2022-05-12T10:32:41.859+02:00,674037164.4170872,0,0.2599983,100.9045,1,0.96
2022-05-12T10:32:44.538+02:00,1652344364.000522,53.22908070029595,10.3983775306639,36.83102,0.9336013,0.7788853,2.92782355353238,180,2.400000095367432,7.999579855010837,-9999,2862.120919666667,0.0101776123046875,-0.4722900390625,-0.8694610595703125,2862.115922666667,0.5916935704496908,0.0009549290634749673,0.5060603636504017,0.01257481798529625,-0.01549667399376631,0.001656653359532356,0.01445424556732178,0.010172039270401,0.003963291645050049,XArbitraryZVertical,-0.2393281824561567,-0.07342843514554578,-0.2823808071386837,-0.9260622907950304,0.000835239072330296,-0.4847351610660553,-0.8746605515480042,0,0,0,-1,-1,2859.44314075,walking,2,2022-05-12T10:32:41.859+02:00,2022-05-11T22:15:20.957+02:00,335,0.8999186,0.7476743,1.72769,251.5268,0,0,2022-05-12T10:32:41.859+02:00,674037164.4170872,0,0.2599983,100.9045,1,0.96
2022-05-12T10:32:44.548+02:00,1652344364.000522,53.22908070029595,10.3983775306639,36.83102,0.9336013,0.7788853,2.92782355353238,180,2.400000095367432,7.999579855010837,-9999,2862.130915666667,0.009185791015625,-0.474639892578125,-0.868560791015625,2862.125917666667,0.5916817130878895,0.000804626379934018,0.5061814284881393,0.005984526593238115,-0.01943768560886383,0.0008226186037063599,0.01248003542423248,0.01456567645072937,0.003782689571380615,XArbitraryZVertical,-0.2394058794224528,-0.0733744813455465,-0.2823529118789427,-0.926055079840855,0.0007037280010990798,-0.4848410487174988,-0.8746020197868347,0,0,0,-1,-1,2859.44314075,walking,2,2022-05-12T10:32:41.859+02:00,2022-05-11T22:15:20.957+02:00,335,0.8999186,0.7476743,1.72769,251.5268,0,0,2022-05-12T10:32:41.859+02:00,674037164.4170872,0,0.2599983,100.9045,1,0.96
2022-05-12T10:32:44.558+02:00,1652344364.000522,53.22908070029595,10.3983775306639,36.83102,0.9336013,0.7788853,2.92782355353238,180,2.400000095367432,7.999579855010837,-9999,2862.140910666667,0.009002685546875,-0.48046875,-0.86993408203125,2862.135912666667,0.5916826746526749,0.0006159804010733326,0.5061857188547088,-0.01185758784413338,-0.02176795154809952,0.003462609834969044,0.006984010338783264,0.009610295295715332,0.006283164024353027,XArbitraryZVertical,-0.2394344635481965,-0.07328785465226695,-0.2823306200359822,-0.9260613392804163,0.0005387365818023682,-0.4848448038101196,-0.8746000528335571,0,0,0,-1,-1,2859.44314075,walking,2,2022-05-12T10:32:41.859+02:00,2022-05-11T22:15:20.957+02:00,335,0.8999186,0.7476743,1.72769,251.5268,0,0,2022-05-12T10:32:41.859+02:00,674037164.4170872,0,0.2599983,100.9045,1,0.96
2022-05-12T10:32:44.568+02:00,1652344364.000522,53.22908070029595,10.3983775306639,36.83102,0.9336013,0.7788853,2.92782355353238,180,2.400000095367432,7.999579855010837,-9999,2862.150905666667,0.00396728515625,-0.4811553955078125,-0.874969482421875,2862.145907666667,0.5917088714955846,0.000450556494048451,0.506070807640062,-0.02132752165198326,-0.01269988901913166,0.006315120495855808,0.009859994053840637,0.008228063583374023,0.005942165851593018,XArbitraryZVertical,-0.2394036517669547,-0.0731981855919876,-0.2823271338744697,-0.9260774326665595,0.000394081900594756,-0.4847443103790283,-0.8746558427810669,0,0,0,-1,-1,2859.44314075,walking,2,2022-05-12T10:32:41.859+02:00,2022-05-11T22:15:20.957+02:00,335,0.8999186,0.7476743,1.72769,251.5268,0,0,2022-05-12T10:32:41.859+02:00,674037164.4170872,0,0.2599983,100.9045,1,0.96
2022-05-12T10:32:44.578+02:00,1652344364.000522,53.22908070029595,10.3983775306639,36.83102,0.9336013,0.7788853,2.92782355353238,180,2.400000095367432,7.999579855010837,-9999,2862.160900666667,0.0035552978515625,-0.47760009765625,-0.8785552978515625,2862.155902666667,0.5917699288763443,0.0003389999694694512,0.5058437214007624,-0.02615263871848583,-0.01196192670613527,0.007435246370732784,0.00611230731010437,0.002612560987472534,0.001962959766387939,XArbitraryZVertical,-0.2393120128711137,-0.07312179087877352,-0.2823503210631067,-0.9261000814090197,0.0002965456224046648,-0.4845456779003143,-0.874765932559967,0,0,0,-1,-1,2859.44314075,walking,2,2022-05-12T10:32:41.859+02:00,2022-05-11T22:15:20.957+02:00,335,0.8999186,0.7476743,1.72769,251.5268,0,0,2022-05-12T10:32:41.859+02:00,674037164.4170872,0,0.2599983,100.9045,1,0.96
2022-05-12T10:32:44.588+02:00,1652344364.000522,53.22908070029595,10.3983775306639,36.83102,0.9336013,0.7788853,2.92782355353238,180,2.400000095367432,7.999579855010837,-9999,2862.170895666667,0.003082275390625,-0.47369384765625,-0.8829803466796875,2862.165898666667,0.5918594001480648,0.0002239657271474325,0.5056384780163325,-0.01617450453341007,-0.01026376243680716,0.01069855131208897,0.002627119421958923,0.00470656156539917,-0.002469480037689209,XArbitraryZVertical,-0.2392299403148147,-0.0730502543567865,-0.2823854587059504,-0.9261162327381516,0.0001959398650797084,-0.4843661189079285,-0.8748654127120972,0,0,0,-1,-1,2859.44314075,walking,2,2022-05-12T10:32:41.859+02:00,2022-05-11T22:15:20.957+02:00,335,0.8999186,0.7476743,1.72769,251.5268,0,0,2022-05-12T10:32:41.859+02:00,674037164.4170872,0,0.2599983,100.9045,1,0.96
2022-05-12T10:32:44.597+02:00,1652344364.000522,53.22908070029595,10.3983775306639,36.83102,0.9336013,0.7788853,2.92782355353238,180,2.400000095367432,7.999579855010837,-9999,2862.180890666667,0.0055389404296875,-0.4814300537109375,-0.8832244873046875,2862.175893666667,0.5919376452689545,0.0001365373425003704,0.505515602320762,-0.01077254861593246,-0.006707643158733845,0.01024341769516468,0.00323764979839325,0.008520543575286865,-0.007872581481933594,XArbitraryZVertical,-0.239182526880695,-0.0730017788615674,-0.2824157083673118,-0.9261230859631997,0.000119459924462717,-0.484258621931076,-0.874924898147583,0,0,0,-1,-1,2859.44314075,walking,2,2022-05-12T10:32:41.859+02:00,2022-05-11T22:15:20.957+02:00,335,0.8999186,0.7476743,1.72769,251.5268,0,0,2022-05-12T10:32:41.859+02:00,674037164.4170872,0,0.2599983,100.9045,1,0.96
2022-05-12T10:32:44.619+02:00,1652344364.000522,53.22908070029595,10.3983775306639,36.83102,0.9336013,0.7788853,2.92782355353238,180,2.400000095367432,7.999579855010837,-9999,2862.190885666667,-0.000885009765625,-0.49395751953125,-0.8757781982421875,2862.185888666667,0.5919958495386458,0.0001028032313034054,0.5053946938793762,-0.01090687233954668,-0.006046047434210777,0.007907492108643055,0.004289492964744568,0.007483959197998047,-0.00882112979888916,XArbitraryZVertical,-0.2391291818135174,-0.07297604973624189,-0.2824430374190293,-0.9261305353597675,8.99511287570931e-05,-0.4841528236865997,-0.8749834895133972,0,0,0,-1,-1,2859.44314075,walking,2,2022-05-12T10:32:41.859+02:00,2022-05-11T22:15:20.957+02:00,335,0.8999186,0.7476743,1.72769,251.5268,0,0,2022-05-12T10:32:41.859+02:00,674037164.4170872,0,0.2599983,100.9045,1,0.96
2022-05-12T10:32:44.621+02:00,1652344364.000522,53.22908070029595,10.3983775306639,36.83102,0.9336013,0.7788853,2.92782355353238,180,2.400000095367432,7.999579855010837,-9999,2862.200880666667,0.0219573974609375,-0.4785308837890625,-0.8807220458984375,2862.195883666667,0.5918806343294232,0.0001270149843451046,0.5051668088745527,-0.0133058475330472,-0.002743994351476431,0.01060953456908464,0.005122795701026917,-0.001351892948150635,-0.004880845546722412,XArbitraryZVertical,-0.2390244281180808,-0.07294130319013689,-0.28240086895185,-0.9261732140530493,0.0001111500241677277,-0.4839534163475037,-0.8750937581062317,0,0,0,-1,-1,2859.44314075,walking,2,2022-05-12T10:32:41.859+02:00,2022-05-11T22:15:20.957+02:00,335,0.8999186,0.7476743,1.72769,251.5268,0,0,2022-05-12T10:32:41.859+02:00,674037164.4170872,0,0.2599983,100.9045,1,0.96
2022-05-12T10:32:44.627+02:00,1652344364.000522,53.22908070029595,10.3983775306639,36.83102,0.9336013,0.7788853,2.92782355353238,180,2.400000095367432,7.999579855010837,-9999,2862.210876666667,0.005462646484375,-0.4900360107421875,-0.880584716796875,2862.205878666667,0.5920083008938289,3.838841628702313e-05,0.5049884347131131,-0.01158561185002327,-0.006746259052306414,0.0115377139300108,0.0086183100938797,-0.008069276809692383,-0.005191266536712646,XArbitraryZVertical,-0.2389497009575294,-0.07289034549327909,-0.2824559141272197,-0.9261796489791301,3.359677793923765e-05,-0.4837973117828369,-0.8751800656318665,0,0,0,-1,-1,2859.44314075,walking,2,2022-05-12T10:32:41.859+02:00,2022-05-11T22:15:20.957+02:00,335,0.8999186,0.7476743,1.72769,251.5268,0,0,2022-05-12T10:32:41.859+02:00,674037164.4170872,0,0.2599983,100.9045,1,0.96
2022-05-12T10:32:44.638+02:00,1652344364.000522,53.22908070029595,10.3983775306639,36.83102,0.9336013,0.7788853,2.92782355353238,180,2.400000095367432,7.999579855010837,-9999,2862.220871666667,0.003387451171875,-0.4878997802734375,-0.881103515625,2862.215873666667,0.5921603819195401,-0.0001043675673530468,0.504824776298655,-0.01270387321710587,-0.01072715222835541,0.01635776832699776,0.01597592234611511,0.002499163150787354,-0.004791676998138428,XArbitraryZVertical,-0.2388885347127765,-0.07281928670901112,-0.2825152507097152,-0.9261829246778311,-9.134868014371023e-05,-0.4836540818214417,-0.8752592206001282,0,0,0,-1,-1,2859.44314075,walking,2,2022-05-12T10:32:41.859+02:00,2022-05-11T22:15:20.957+02:00,335,0.8999186,0.7476743,1.72769,251.5268,0,0,2022-05-12T10:32:41.859+02:00,674037164.4170872,0,0.2599983,100.9045,1,0.96
2022-05-12T10:32:44.647+02:00,1652344364.000522,53.22908070029595,10.3983775306639,36.83102,0.9336013,0.7788853,2.92782355353238,180,2.400000095367432,7.999579855010837,-9999,2862.230866666667,0.0012664794921875,-0.48388671875,-0.8805694580078125,2862.225868666667,0.5923345512201749,-0.0002569446347723152,0.5047123127186979,-0.008786296471953392,-0.01067189127206802,0.0142414877191186,0.003734603524208069,-0.006937652826309204,-0.003760755062103271,XArbitraryZVertical,-0.2388516571380723,-0.0727535263272982,-0.2825817692766321,-0.9261773785898105,-0.0002249071403639391,-0.4835556447505951,-0.8753136396408081,0,0,0,-1,-1,2859.44314075,walking,2,2022-05-12T10:32:41.859+02:00,2022-05-11T22:15:20.957+02:00,335,0.8999186,0.7476743,1.72769,251.5268,0,0,2022-05-12T10:32:41.859+02:00,674037164.4170872,0,0.2599983,100.9045,1,0.96
2022-05-12T10:32:44.657+02:00,1652344364.000522,53.22908070029595,10.3983775306639,36.83102,0.9336013,0.7788853,2.92782355353238,180,2.400000095367432,7.999579855010837,-9999,2862.240861666667,-0.000396728515625,-0.477020263671875,-0.8759918212890625,2862.235863666667,0.592468470858463,-0.0004099535077316525,0.504586253545154,-0.01374909654259682,-0.01140452735126019,0.01319300103932619,0.004402622580528259,-0.00135648250579834,-0.006309092044830322,XArbitraryZVertical,-0.2388100263879226,-0.07268083669629549,-0.2826301087377369,-0.9261791050425703,-0.0003588628896977752,-0.4834452867507935,-0.8753745555877686,0,0,0,-1,-1,2859.44314075,walking,2,2022-05-12T10:32:41.859+02:00,2022-05-11T22:15:20.957+02:00,335,0.8999186,0.7476743,1.72769,251.5268,0,0,2022-05-12T10:32:41.859+02:00,674037164.4170872,0,0.2599983,100.9045,1,0.96
2022-05-12T10:32:44.668+02:00,1652344364.000522,53.22908070029595,10.3983775306639,36.83102,0.9336013,0.7788853,2.92782355353238,180,2.400000095367432,7.999579855010837,-9999,2862.250856666667,-0.0008087158203125,-0.4843292236328125,-0.874755859375,2862.245859666667,0.5925664313243959,-0.0005566972731070783,0.5044528426886562,-0.007984219118952751,-0.01181345619261265,0.005551991984248161,-9.229779243469238e-05,0.002127796411514282,-0.002399444580078125,XArbitraryZVertical,-0.2387654304099758,-0.07260571804416509,-0.2826628320230659,-0.9261864946021967,-0.0004873545258305967,-0.4833285212516785,-0.875438928604126,0,0,0,-1,-1,2859.44314075,walking,2,2022-05-12T10:32:41.859+02:00,2022-05-11T22:15:20.957+02:00,335,0.8999186,0.7476743,1.72769,251.5268,0,0,2022-05-12T10:32:41.859+02:00,674037164.4170872,0,0.2599983,100.9045,1,0.96
2022-05-12T10:32:44.678+02:00,1652344364.000522,53.22908070029595,10.3983775306639,36.83102,0.9336013,0.7788853,2.92782355353238,180,2.400000095367432,7.999579855010837,-9999,2862.260851666667,0.005126953125,-0.48638916015625,-0.8749237060546875,2862.255854666667,0.5925798768033302,-0.0006233612109767217,0.5042841425350818,-0.01579101011157036,-0.007187012583017349,-0.002369048073887825,-0.0006900131702423096,0.002743035554885864,-0.000181734561920166,XArbitraryZVertical,-0.2386962465745241,-0.07255259989898641,-0.282667273458578,-0.9262071175954207,-0.0005457655643112957,-0.483180820941925,-0.8755204677581787,0,0,0,-1,-1,2859.44314075,walking,2,2022-05-12T10:32:41.859+02:00,2022-05-11T22:15:20.957+02:00,335,0.8999186,0.7476743,1.72769,251.5268,0,0,2022-05-12T10:32:41.859+02:00,674037164.4170872,0,0.2599983,100.9045,1,0.96
2022-05-12T10:32:44.688+02:00,1652344364.000522,53.22908070029595,10.3983775306639,36.83102,0.9336013,0.7788853,2.92782355353238,180,2.400000095367432,7.999579855010837,-9999,2862.270846666667,0.0052947998046875,-0.481170654296875,-0.877532958984375,2862.265849666667,0.5924915507724617,-0.0006642776722090457,0.5040520957505974,-0.02146673947572708,-0.007801136933267117,-0.007680721580982208,0.002306073904037476,-0.001137495040893555,0.002158105373382568,XArbitraryZVertical,-0.2385977674441985,-0.07249029392288006,-0.2826299627357673,-0.926248782801625,-0.0005816632183268666,-0.4829776287078857,-0.8756325244903564,0,0,0,-1,-1,2859.44314075,walking,2,2022-05-12T10:32:41.859+02:00,2022-05-11T22:15:20.957+02:00,335,0.8999186,0.7476743,1.72769,251.5268,0,0,2022-05-12T10:32:41.859+02:00,674037164.4170872,0,0.2599983,100.9045,1,0.96
2022-05-12T10:32:44.698+02:00,1652344364.000522,53.22908070029595,10.3983775306639,36.83102,0.9336013,0.7788853,2.92782355353238,180,2.400000095367432,7.999579855010837,-9999,2862.280842666667,0.0031585693359375,-0.4797515869140625,-0.8786468505859375,2862.275844666667,0.592383418847678,-0.0006706414522093788,0.5038407473680032,-0.01875590533018112,-0.006989938206970692,-0.008110023103654385,0.00653839111328125,-0.003092557191848755,-0.0006694793701171875,XArbitraryZVertical,-0.2385047265305356,-0.07244458807179473,-0.2825868703118851,-0.926289375374073,-0.0005873040063306689,-0.4827925562858582,-0.8757345676422119,0,0,0,-1,-1,2859.44314075,walking,2,2022-05-12T10:32:41.859+02:00,2022-05-11T22:15:20.957+02:00,335,0.8999186,0.7476743,1.72769,251.5268,0,0,2022-05-12T10:32:41.859+02:00,674037164.4170872,0,0.2599983,100.9045,1,0.96
2022-05-12T10:32:44.708+02:00,1652344364.000522,53.22908070029595,10.3983775306639,36.83102,0.9336013,0.7788853,2.92782355353238,180,2.400000095367432,7.999579855010837,-9999,2862.290837666667,0.001953125,-0.4839019775390625,-0.874755859375,2862.285839666667,0.5922710216379751,-0.0006419146655574892,0.5037003537498451,-0.01448626071214676,-0.005018267314881086,-0.007174321450293064,0.004758521914482117,0.004825860261917114,-0.003149926662445068,XArbitraryZVertical,-0.2384397136063259,-0.07242464007614663,-0.282543360266426,-0.9263209676732067,-0.0005621904274448752,-0.4826696217060089,-0.8758023381233215,0,0,0,-1,-1,2859.44314075,walking,2,2022-05-12T10:32:41.859+02:00,2022-05-11T22:15:20.957+02:00,335,0.8999186,0.7476743,1.72769,251.5268,0,0,2022-05-12T10:32:41.859+02:00,674037164.4170872,0,0.2599983,100.9045,1,0.96
2022-05-12T10:32:44.718+02:00,1652344364.000522,53.22908070029595,10.3983775306639,36.83102,0.9336013,0.7788853,2.92782355353238,180,2.400000095367432,7.999579855010837,-9999,2862.300832666667,0.0047454833984375,-0.4872283935546875,-0.871551513671875,2862.295834666667,0.5921497686559207,-0.0005755796618544574,0.5034803673600796,-0.02458070777356625,-0.006814302876591682,-0.006262721493840218,0.003449276089668274,4.029273986816406e-05,-0.0004802346229553223,XArbitraryZVertical,-0.2383328430960449,-0.07240981629416937,-0.2825031288704415,-0.9263619177502949,-0.0005041551776230335,-0.4824769496917725,-0.8759085536003113,0,0,0,-1,-1,2859.44314075,walking,2,2022-05-12T10:32:41.859+02:00,2022-05-11T22:15:20.957+02:00,335,0.8999186,0.7476743,1.72769,251.5268,0,0,2022-05-12T10:32:41.859+02:00,674037164.4170872,0,0.2599983,100.9045,1,0.96
2022-05-12T10:32:44.728+02:00,1652344364.000522,53.22908070029595,10.3983775306639,36.83102,0.9336013,0.7788853,2.92782355353238,180,2.400000095367432,7.999579855010837,-9999,2862.310827666667,0.007720947265625,-0.4939117431640625,-0.8685150146484375,2862.305829666667,0.5920568907965608,-0.0005742770459830582,0.5031890772436121,-0.03915122523903847,-0.005190507043153048,-0.01055074390023947,0.003280371427536011,-0.003129333257675171,0.002681493759155273,XArbitraryZVertical,-0.2382011041137826,-0.07235819303292468,-0.2824708847958314,-0.9264096624055752,-0.0005030949250794947,-0.482221782207489,-0.8760490417480469,0,0,0,-1,-1,2859.44314075,walking,2,2022-05-12T10:32:41.859+02:00,2022-05-11T22:15:20.957+02:00,335,0.8999186,0.7476743,1.72769,251.5268,0,0,2022-05-12T10:32:41.859+02:00,674037164.4170872,0,0.2599983,100.9045,1,0.96
2022-05-12T10:32:44.737+02:00,1652344364.000522,53.22908070029595,10.3983775306639,36.83102,0.9336013,0.7788853,2.92782355353238,180,2.400000095367432,7.999579855010837,-9999,2862.320822666667,0.0097198486328125,-0.49468994140625,-0.8696746826171875,2862.315824666667,0.5919191128756264,-0.0005204334281084241,0.5027473687641351,-0.04595400393009186,-0.01100791618227959,-0.02531397715210915,0.00663602352142334,-0.009955555200576782,0.006419181823730469,XArbitraryZVertical,-0.2379938759347449,-0.07230431647006061,-0.2824295519596466,-0.9264797591692234,-0.0004560360684990883,-0.4818347692489624,-0.8762620091438293,0,0,0,-1,-1,2859.44314075,walking,2,2022-05-12T10:32:41.859+02:00,2022-05-11T22:15:20.957+02:00,335,0.8999186,0.7476743,1.72769,251.5268,0,0,2022-05-12T10:32:41.859+02:00,674037164.4170872,0,0.2599983,100.9045,1,0.96
2022-05-12T10:32:44.747+02:00,1652344364.000522,53.22908070029595,10.3983775306639,36.83102,0.9336013,0.7788853,2.92782355353238,180,2.400000095367432,7.999579855010837,-9999,2862.330817666667,0.0174407958984375,-0.4734954833984375,-0.87554931640625,2862.325820666667,0.5918271554077512,-0.0004684871696589985,0.5022927685484656,-0.04137300327420235,-0.003174560610204935,0.002622915431857109,0.01096987724304199,-0.01169669628143311,0.009491562843322754,XArbitraryZVertical,-0.2377792864618631,-0.07225323356780698,-0.2824096765816541,-0.9265448482248454,-0.0004106201231479645,-0.4814363718032837,-0.8764809370040894,0,0,0,-1,-1,2859.44314075,walking,2,2022-05-12T10:32:41.859+02:00,2022-05-11T22:15:20.957+02:00,335,0.8999186,0.7476743,1.72769,251.5268,0,0,2022-05-12T10:32:41.859+02:00,674037164.4170872,0,0.2599983,100.9045,1,0.96
2022-05-12T10:32:44.757+02:00,1652344364.000522,53.22908070029595,10.3983775306639,36.83102,0.9336013,0.7788853,2.92782355353238,180,2.400000095367432,7.999579855010837,-9999,2862.340812666667,0.0001220703125,-0.4761962890625,-0.88018798828125,2862.335815666667,0.5918165209876225,-0.0005144558275302475,0.5018573499974402,-0.04192987084388733,-0.006636403501033783,-0.00430662976577878,0.02071486413478851,0.000494837760925293,0.003139793872833252,XArbitraryZVertical,-0.2375844424371515,-0.07216916034374633,-0.2824151029535823,-0.926599743808622,-0.0004510185681283474,-0.4810546934604645,-0.8766905069351196,0,0,0,-1,-1,2859.44314075,walking,2,2022-05-12T10:32:41.859+02:00,2022-05-11T22:15:20.957+02:00,335,0.8999186,0.7476743,1.72769,251.5268,0,0,2022-05-12T10:32:41.859+02:00,674037164.4170872,0,0.2599983,100.9045,1,0.96
2022-05-12T10:32:44.768+02:00,1652344364.000522,53.22908070029595,10.3983775306639,36.83102,0.9336013,0.7788853,2.92782355353238,180,2.400000095367432,7.999579855010837,-9999,2862.350807666667,-0.0007171630859375,-0.473846435546875,-0.88568115234375,2862.345810666667,0.5917501076781586,-0.0005735992314311796,0.5014740212838962,-0.03494802862405777,-0.01050444506108761,-0.006482632365077734,0.004317834973335266,0.004904240369796753,-0.00241321325302124,XArbitraryZVertical,-0.2374175979270459,-0.07207972388725263,-0.2823912337341689,-0.9266567268130067,-0.0005029747844673693,-0.480718582868576,-0.8768748044967651,0,0,0,-1,-1,2859.44314075,walking,2,2022-05-12T10:32:41.859+02:00,2022-05-11T22:15:20.957+02:00,335,0.8999186,0.7476743,1.72769,251.5268,0,0,2022-05-12T10:32:41.859+02:00,674037164.4170872,0,0.2599983,100.9045,1,0.96
2022-05-12T10:32:44.777+02:00,1652344364.000522,53.22908070029595,10.3983775306639,36.83102,0.9336013,0.7788853,2.92782355353238,180,2.400000095367432,7.999579855010837,-9999,2862.360803666667,-0.0037384033203125,-0.4737396240234375,-0.8836669921875,2862.355805666667,0.5916424139221385,-0.0006199789611260735,0.5011390945932409,-0.03714007511734962,-0.01326507888734341,-0.009707720018923283,0.001047462224960327,0.006197452545166016,-0.008340537548065186,XArbitraryZVertical,-0.2372728515068304,-0.07199814873103738,-0.2823479929860377,-0.9267132934187908,-0.0005437437794171274,-0.4804248809814453,-0.8770357370376587,0,0,0,-1,-1,2859.44314075,walking,2,2022-05-12T10:32:41.859+02:00,2022-05-11T22:15:20.957+02:00,335,0.8999186,0.7476743,1.72769,251.5268,0,0,2022-05-12T10:32:41.859+02:00,674037164.4170872,0,0.2599983,100.9045,1,0.96
2022-05-12T10:32:44.788+02:00,1652344364.000522,53.22908070029595,10.3983775306639,36.83102,0.9336013,0.7788853,2.92782355353238,180,2.400000095367432,7.999579855010837,-9999,2862.370798666667,0.0011749267578125,-0.4760589599609375,-0.886627197265625,2862.365800666667,0.5914703543244084,-0.0006839538869958714,0.5007112951634743,-0.04671423509716988,-0.02073943987488747,-0.01801205612719059,-0.003473922610282898,0.006112158298492432,-0.006349802017211914,XArbitraryZVertical,-0.2370898550328098,-0.07188768602943627,-0.2822762024989052,-0.9267905440417512,-0.0005999925779178739,-0.4800496399402618,-0.8772411346435547,0,0,0,-1,-1,2859.44314075,walking,2,2022-05-12T10:32:41.859+02:00,2022-05-11T22:15:20.957+02:00,335,0.8999186,0.7476743,1.72769,251.5268,0,0,2022-05-12T10:32:41.859+02:00,674037164.4170872,0,0.2599983,100.9045,1,0.96
2022-05-12T10:32:44.798+02:00,1652344364.000522,53.22908070029595,10.3983775306639,36.83102,0.9336013,0.7788853,2.92782355353238,180,2.400000095367432,7.999579855010837,-9999,2862.380793666667,0.0023345947265625,-0.482666015625,-0.8888702392578125,2862.375795666667,0.5912500990836543,-0.0008018814745696225,0.500218576849243,-0.05247838050127029,-0.02688867785036564,-0.02087788283824921,-0.001539230346679688,0.004993170499801636,-0.00681537389755249,XArbitraryZVertical,-0.2368860731366133,-0.07173735437228711,-0.2821780078644429,-0.9268842466644315,-0.00070363306440413,-0.4796173572540283,-0.8774774670600891,0,0,0,-1,-1,2859.44314075,walking,2,2022-05-12T10:32:41.859+02:00,2022-05-11T22:15:20.957+02:00,335,0.8999186,0.7476743,1.72769,251.5268,0,0,2022-05-12T10:32:41.859+02:00,674037164.4170872,0,0.2599983,100.9045,1,0.96
2022-05-12T10:32:44.808+02:00,1652344364.000522,53.22908070029595,10.3983775306639,36.83102,0.9336013,0.7788853,2.92782355353238,180,2.400000095367432,7.999579855010837,-9999,2862.390788666667,-0.0003509521484375,-0.4853668212890625,-0.8839569091796875,2862.385790666667,0.5909959474586512,-0.0009442829862246492,0.4996719919122156,-0.06614809483289719,-0.03082582913339138,-0.0226683933287859,0.002690583467483521,-0.001559525728225708,-0.01027661561965942,XArbitraryZVertical,-0.2366619521302158,-0.07156410385383877,-0.2820631542443507,-0.9269898709194506,-0.000828834599815309,-0.479137659072876,-0.8777393698692322,0,0,0,-1,-1,2859.44314075,walking,2,2022-05-12T10:32:41.859+02:00,2022-05-11T22:15:20.957+02:00,335,0.8999186,0.7476743,1.72769,251.5268,0,0,2022-05-12T10:32:41.859+02:00,674037164.4170872,0,0.2599983,100.9045,1,0.96
2022-05-12T10:32:44.818+02:00,1652344364.000522,53.22908070029595,10.3983775306639,36.83102,0.9336013,0.7788853,2.92782355353238,180,2.400000095367432,7.999579855010837,-9999,2862.400783666667,-0.002685546875,-0.4845123291015625,-0.880584716796875,2862.395785666667,0.5907490656798722,-0.001142866267472036,0.4990289591142049,-0.07838798314332962,-0.03589142858982086,-0.02063746750354767,0.001263067126274109,-0.005603015422821045,-0.009404301643371582,XArbitraryZVertical,-0.2364007288801936,-0.0713521012790123,-0.2819485097724492,-0.9271077737084111,-0.001003490877337754,-0.4785731434822083,-0.8780471682548523,0,0,0,-1,-1,2859.44314075,walking,2,2022-05-12T10:32:41.859+02:00,2022-05-11T22:15:20.957+02:00,335,0.8999186,0.7476743,1.72769,251.5268,0,0,2022-05-12T10:32:41.859+02:00,674037164.4170872,0,0.2599983,100.9045,1,0.96
2022-05-12T10:32:44.828+02:00,1652344364.000522,53.22908070029595,10.3983775306639,36.83102,0.9336013,0.7788853,2.92782355353238,180,2.400000095367432,7.999579855010837,-9999,2862.410778666667,-0.00390625,-0.4828338623046875,-0.8745574951171875,2862.405781666667,0.5904329157654855,-0.001318661770637421,0.4982667971351517,-0.09359988570213318,-0.03697759658098221,-0.02807314693927765,-0.0008556544780731201,-0.006089270114898682,-0.003806233406066895,XArbitraryZVertical,-0.2360834778690994,-0.07112573903404724,-0.2818087727141641,-0.9272484465258239,-0.001158328261226416,-0.4779037833213806,-0.8784114122390747,0,0,0,-1,-1,2859.44314075,walking,2,2022-05-12T10:32:41.859+02:00,2022-05-11T22:15:20.957+02:00,335,0.8999186,0.7476743,1.72769,251.5268,0,0,2022-05-12T10:32:41.859+02:00,674037164.4170872,0,0.2599983,100.9045,1,0.96
2022-05-12T10:32:44.838+02:00,1652344364.000522,53.22908070029595,10.3983775306639,36.83102,0.9336013,0.7788853,2.92782355353238,180,2.400000095367432,7.999579855010837,-9999,2862.420773666667,-0.013916015625,-0.478851318359375,-0.87042236328125,2862.415776666667,0.5899583267527154,-0.001396097018439963,0.4973202578433535,-0.09842739999294281,-0.04512793570756912,-0.04838267713785172,-0.001351580023765564,-0.006844639778137207,0.002306640148162842,XArbitraryZVertical,-0.2356723941908265,-0.07090037859320041,-0.2816137838621871,-0.9274295336248238,-0.001226979307830334,-0.4770721197128296,-0.8788633346557617,0,0,0,-1,-1,2859.44314075,walking,2,2022-05-12T10:32:41.859+02:00,2022-05-11T22:15:20.957+02:00,335,0.8999186,0.7476743,1.72769,251.5268,0,0,2022-05-12T10:32:41.859+02:00,674037164.4170872,0,0.2599983,100.9045,1,0.96
2022-05-12T10:32:44.848+02:00,1652344364.000522,53.22908070029595,10.3983775306639,36.83102,0.9336013,0.7788853,2.92782355353238,180,2.400000095367432,7.999579855010837,-9999,2862.430768666667,-0.01983642578125,-0.4752197265625,-0.86181640625,2862.425771666667,0.5891970084723583,-0.001505020552209704,0.4962895136328266,-0.1060763001441956,-0.05012808740139008,-0.07853039354085922,-0.005359739065170288,-0.005767136812210083,0.005284965038299561,XArbitraryZVertical,-0.2352366814499092,-0.07061501007707635,-0.2812850443721875,-0.9276616479972921,-0.001323447562754154,-0.4761659801006317,-0.8793544769287109,0,0,0,-1,-1,2859.44314075,walking,2,2022-05-12T10:32:41.859+02:00,2022-05-11T22:15:20.957+02:00,335,0.8999186,0.7476743,1.72769,251.5268,0,0,2022-05-12T10:32:41.859+02:00,674037164.4170872,0,0.2599983,100.9045,1,0.96
2022-05-12T10:32:44.858+02:00,1652344364.000522,53.22908070029595,10.3983775306639,36.83102,0.9336013,0.7788853,2.92782355353238,180,2.400000095367432,7.999579855010837,-9999,2862.440764666667,-0.0241851806640625,-0.48931884765625,-0.86346435546875,2862.435766666667,0.5874907383807882,-0.001441927146872259,0.4950263137088781,-0.1458402276039124,-0.04633654654026031,-0.1792998760938644,-0.01290641725063324,0.0003848671913146973,0.01188254356384277,XArbitraryZVertical,-0.2347019531884497,-0.07026618060065105,-0.2805462314584614,-0.9280472021981362,-0.001268832362256944,-0.4750548005104065,-0.8799552917480469,0,0,0,-1,-1,2859.44314075,walking,2,2022-05-12T10:32:41.859+02:00,2022-05-11T22:15:20.957+02:00,335,0.8999186,0.7476743,1.72769,251.5268,0,0,2022-05-12T10:32:41.859+02:00,674037164.4170872,0,0.2599983,100.9045,1,0.96
2022-05-12T10:32:44.868+02:00,1652344364.000522,53.22908070029595,10.3983775306639,36.83102,0.9336013,0.7788853,2.92782355353238,180,2.400000095367432,7.999579855010837,-9999,2862.450759666667,-0.008026123046875,-0.490814208984375,-0.8521575927734375,2862.445761666667,0.5852935567472041,-0.001117792030394315,0.493366874888047,-0.1825455725193024,-0.1037677451968193,-0.2240192741155624,-0.03668929636478424,-0.02289608120918274,0.02177953720092773,XArbitraryZVertical,-0.233963421326832,-0.06992655128102865,-0.2796235426592343,-0.9285376683669788,-0.0009844877058640122,-0.4735939204692841,-0.8807427883148193,0,0,0,-1,-1,2859.44314075,walking,2,2022-05-12T10:32:41.859+02:00,2022-05-11T22:15:20.957+02:00,335,0.8999186,0.7476743,1.72769,251.5268,0,0,2022-05-12T10:32:41.859+02:00,674037164.4170872,0,0.2599983,100.9045,1,0.96
2022-05-12T10:32:44.878+02:00,1652344364.000522,53.22908070029595,10.3983775306639,36.83102,0.9336013,0.7788853,2.92782355353238,180,2.400000095367432,7.999579855010837,-9999,2862.460754666667,-0.0300140380859375,-0.498260498046875,-0.85382080078125,2862.455756666667,0.582245900443482,-0.0009767291630987094,0.4911367728120359,-0.2715143263339996,-0.1315650343894958,-0.3045943081378937,-0.004189208149909973,-0.008473455905914307,0.02321511507034302,XArbitraryZVertical,-0.2330141683923956,-0.06932492805202012,-0.2783032692098826,-0.9292179326147271,-0.0008612770470790565,-0.4716286063194275,-0.8817968964576721,0,0,0,-1,-1,2859.44314075,walking,2,2022-05-12T10:32:41.859+02:00,2022-05-11T22:15:20.957+02:00,335,0.8999186,0.7476743,1.72769,251.5268,0,0,2022-05-12T10:32:41.859+02:00,674037164.4170872,0,0.2599983,100.9045,1,0.96
2022-05-12T10:32:44.888+02:00,1652344364.000522,53.22908070029595,10.3983775306639,36.83102,0.9336013,0.7788853,2.92782355353238,180,2.400000095367432,7.999579855010837,-9999,2862.470749666667,-0.05609130859375,-0.4877166748046875,-0.8511962890625,2862.465751666667,0.5785311227465755,-0.0006312925330474639,0.4878878350330921,-0.3778948187828064,-0.1555541753768921,-0.3493783473968506,-0.0211096853017807,-0.03221487998962402,0.03116691112518311,XArbitraryZVertical,-0.2315842388726823,-0.06860292753093239,-0.2767299229549597,-0.9300983599168947,-0.0005576363764703274,-0.4687612056732178,-0.8833247423171997,0,0,0,-1,-1,2859.44314075,walking,2,2022-05-12T10:32:41.859+02:00,2022-05-11T22:15:20.957+02:00,335,0.8999186,0.7476743,1.72769,251.5268,0,0,2022-05-12T10:32:41.859+02:00,674037164.4170872,0,0.2599983,100.9045,1,0.96
2022-05-12T10:32:44.898+02:00,1652344364.000522,53.22908070029595,10.3983775306639,36.83102,0.9336013,0.7788853,2.92782355353238,180,2.400000095367432,7.999579855010837,-9999,2862.480744666667,-0.0989532470703125,-0.4907684326171875,-0.8433380126953125,2862.475747666667,0.574324401920582,-0.0002355481498244677,0.4838200025082992,-0.4399973154067993,-0.1439265608787537,-0.3883654177188873,-0.03723639249801636,-0.02056843042373657,0.03498917818069458,XArbitraryZVertical,-0.2297803110458973,-0.06774061653545867,-0.274957623013376,-0.931134006088961,-0.0002085129817714915,-0.4651641249656677,-0.885224461555481,0,0,0,-1,-1,2859.44314075,walking,2,2022-05-12T10:32:41.859+02:00,2022-05-11T22:15:20.957+02:00,335,0.8999186,0.7476743,1.72769,251.5268,0,0,2022-05-12T10:32:41.859+02:00,674037164.4170872,0,0.2599983,100.9045,1,0.96
2022-05-12T10:32:44.908+02:00,1652344364.000522,53.22908070029595,10.3983775306639,36.83102,0.9336013,0.7788853,2.92782355353238,180,2.400000095367432,7.999579855010837,-9999,2862.490739666667,-0.2936553955078125,-0.414031982421875,-0.8206787109375,2862.485742666667,0.5720241824578177,-0.0006531802951098936,0.4805363675168208,-0.1701737642288208,-0.131221815943718,0.1133790612220764,-0.07405136525630951,-0.03006947040557861,0.03692370653152466,XArbitraryZVertical,-0.2283857201488286,-0.06683186144223224,-0.273949619448513,-0.9318396484301769,-0.0005792056908831,-0.4622548520565033,-0.8867469429969788,0,0,0,-1,-1,2859.44314075,walking,2,2022-05-12T10:32:41.859+02:00,2022-05-11T22:15:20.957+02:00,335,0.8999186,0.7476743,1.72769,251.5268,0,0,2022-05-12T10:32:41.859+02:00,674037164.4170872,0,0.2599983,100.9045,1,0.96
2022-05-12T10:32:44.918+02:00,1652344364.000522,53.22908070029595,10.3983775306639,36.83102,0.9336013,0.7788853,2.92782355353238,180,2.400000095367432,7.999579855010837,-9999,2862.500734666667,-0.093505859375,-0.6905059814453125,-0.7555999755859375,2862.495737666667,0.5707627028409376,0.0003398384664644041,0.4778249747775374,-0.3290710151195526,0.0932813361287117,-0.3000708222389221,-0.1934931427240372,0.07017037272453308,0.07607674598693848,XArbitraryZVertical,-0.2270283456154464,-0.06677982810955557,-0.2735655461057216,-0.9322878317629909,0.0003017756098415703,-0.4598488509654999,-0.8879971504211426,0,0,0,-1,-1,2859.44314075,walking,2,2022-05-12T10:32:41.859+02:00,2022-05-11T22:15:20.957+02:00,335,0.8999186,0.7476743,1.72769,251.5268,0,0,2022-05-12T10:32:41.859+02:00,674037164.4170872,0,0.2599983,100.9045,1,0.96
2022-05-12T10:32:44.928+02:00,1652344364.000522,53.22908070029595,10.3983775306639,36.83102,0.9336013,0.7788853,2.92782355353238,180,2.400000095367432,7.999579855010837,-9999,2862.510729666667,-0.1864471435546875,-0.5797119140625,-0.690643310546875,2862.505732666667,0.566946350713799,0.002461600405861892,0.4735787870966715,-0.5435405969619751,-0.002483404008671641,-0.3819075226783752,-0.2223595827817917,-0.1464491784572601,0.08696037530899048,XArbitraryZVertical,-0.2248857678447175,-0.06675956745304563,-0.2721643995324508,-0.9332181406630212,0.002190678846091032,-0.4560741186141968,-0.8899391293525696,0,0,0,-1,-1,2859.44314075,walking,2,2022-05-12T10:32:41.859+02:00,2022-05-11T22:15:20.957+02:00,335,0.8999186,0.7476743,1.72769,251.5268,0,0,2022-05-12T10:32:41.859+02:00,674037164.4170872,0,0.2599983,100.9045,1,0.96
2022-05-12T10:32:44.938+02:00,1652344364.000522,53.22908070029595,10.3983775306639,36.83102,0.9336013,0.7788853,2.92782355353238,180,2.400000095367432,7.999579855010837,-9999,2862.520725666667,-0.3100128173828125,-0.6953277587890625,-0.676177978515625,2862.515727666667,0.5618503621923195,0.004602357813445013,0.4665367119031767,-0.8732553720474243,-0.01820617355406284,-0.5488250851631165,-0.1076412200927734,-0.1868003904819489,0.1738834381103516,XArbitraryZVertical,-0.2214757185084384,-0.06623840210156612,-0.2702461732903377,-0.9346272157401329,0.004110496025532484,-0.4497958123683929,-0.8931219577789307,0,0,0,-1,-1,2859.44314075,walking,2,2022-05-12T10:32:41.859+02:00,2022-05-11T22:15:20.957+02:00,335,0.8999186,0.7476743,1.72769,251.5268,0,0,2022-05-12T10:32:41.859+02:00,674037164.4170872,0,0.2599983,100.9045,1,0.96
2022-05-12T10:32:44.948+02:00,1652344364.000522,53.22908070029595,10.3983775306639,36.83102,0.9336013,0.7788853,2.92782355353238,180,2.400000095367432,7.999579855010837,-9999,2862.530720666667,-0.3382568359375,-0.7094573974609375,-0.6692352294921875,2862.525722666667,0.555212412867472,0.007898297210332174,0.4561564942286817,-1.214794516563416,0.0871964767575264,-0.6418062448501587,-0.2749280035495758,-0.1737564504146576,0.2216985821723938,XArbitraryZVertical,-0.216393358603252,-0.06566440017119972,-0.2678136703940746,-0.9365564820278831,0.007090639788657427,-0.4405008554458618,-0.8977242112159729,0,0,0,-1,-1,2859.44314075,walking,2,2022-05-12T10:32:41.859+02:00,2022-05-11T22:15:20.957+02:00,335,0.8999186,0.7476743,1.72769,251.5268,0,0,2022-05-12T10:32:41.859+02:00,674037164.4170872,0,0.2599983,100.9045,1,0.96
2022-05-12T10:32:44.958+02:00,1652344364.000522,53.22908070029595,10.3983775306639,36.83102,0.9336013,0.7788853,2.92782355353238,180,2.400000095367432,7.999579855010837,-9999,2862.540715666667,-0.380523681640625,-0.69720458984375,-0.670196533203125,2862.535717666667,0.5472381809788288,0.01288685985476735,0.4420901007420014,-1.57492208480835,0.2157358229160309,-0.8144209384918213,-0.3363392055034637,-0.2987934947013855,0.2260192632675171,XArbitraryZVertical,-0.2093899915803459,-0.06529656309094685,-0.2649976320918541,-0.9389720188531575,0.01164758764207363,-0.4278295636177063,-0.9037843942642212,0,0,0,-1,-1,2859.44314075,walking,2,2022-05-12T10:32:41.859+02:00,2022-05-11T22:15:20.957+02:00,335,0.8999186,0.7476743,1.72769,251.5268,0,0,2022-05-12T10:32:41.859+02:00,674037164.4170872,0,0.2599983,100.9045,1,0.96
2022-05-12T10:32:44.968+02:00,1652344364.000522,53.22908070029595,10.3983775306639,36.83102,0.9336013,0.7788853,2.92782355353238,180,2.400000095367432,7.999579855010837,-9999,2862.550710666667,-0.4120025634765625,-0.7259674072265625,-0.691680908203125,2862.545712666667,0.5377881104572245,0.0197153322914361,0.4244972345869987,-1.920853734016418,0.3506815731525421,-0.9707207083702087,-0.3817642629146576,-0.2811452448368073,0.2439085841178894,XArbitraryZVertical,-0.200518720206458,-0.06525198643121331,-0.2616930928693526,-0.9418340148168981,0.01796435192227364,-0.411862701177597,-0.911068856716156,0,0,0,-1,-1,2859.44314075,walking,2,2022-05-12T10:32:41.859+02:00,2022-05-11T22:15:20.957+02:00,335,0.8999186,0.7476743,1.72769,251.5268,0,0,2022-05-12T10:32:41.859+02:00,674037164.4170872,0,0.2599983,100.9045,1,0.96
2022-05-12T10:32:44.978+02:00,1652344364.000522,53.22908070029595,10.3983775306639,36.83102,0.9336013,0.7788853,2.92782355353238,180,2.400000095367432,7.999579855010837,-9999,2862.560705666667,-0.4159393310546875,-0.722808837890625,-0.721282958984375,2862.555708666667,0.5267304103455911,0.02836003642621174,0.4034943085317635,-2.22931170463562,0.4776464402675629,-1.150534152984619,-0.4226701259613037,-0.3216747641563416,0.2392250895500183,XArbitraryZVertical,-0.1898361075022001,-0.06557320793780272,-0.2577688313591588,-0.9451020039832468,0.02607907727360725,-0.3926344215869904,-0.9193248152732849,0,0,0,-1,-1,2859.44314075,walking,2,2022-05-12T10:32:41.859+02:00,2022-05-11T22:15:20.957+02:00,335,0.8999186,0.7476743,1.72769,251.5268,0,0,2022-05-12T10:32:41.859+02:00,674037164.4170872,0,0.2599983,100.9045,1,0.96
2022-05-12T10:32:44.988+02:00,1652344364.000522,53.22908070029595,10.3983775306639,36.83102,0.9336013,0.7788853,2.92782355353238,180,2.400000095367432,7.999579855010837,-9999,2862.570700666667,-0.4031219482421875,-0.7116546630859375,-0.7610931396484375,2862.565703666667,0.5145213057565993,0.03772381031877137,0.3794895188229138,-2.486342191696167,0.4798485636711121,-1.271584868431091,-0.4578525125980377,-0.3554137051105499,0.2197120189666748,XArbitraryZVertical,-0.1776561217874969,-0.06589219722799425,-0.2532616188085542,-0.9486597557768641,0.03503159806132317,-0.3704463541507721,-0.9281930327415466,0,0,0,-1,-1,2859.44314075,walking,2,2022-05-12T10:32:41.859+02:00,2022-05-11T22:15:20.957+02:00,335,0.8999186,0.7476743,1.72769,251.5268,0,0,2022-05-12T10:32:41.859+02:00,674037164.4170872,0,0.2599983,100.9045,1,0.96
2022-05-12T10:32:44.998+02:00,1652344364.000522,53.22908070029595,10.3983775306639,36.83102,0.9336013,0.7788853,2.92782355353238,180,2.400000095367432,7.999579855010837,-9999,2862.580695666667,-0.4853363037109375,-0.7126007080078125,-0.796783447265625,2862.575698666667,0.500976499154955,0.04791603377996595,0.3525496588964007,-2.816256761550903,0.6259748339653015,-1.485271096229553,-0.4362022280693054,-0.3713977634906769,0.1986942887306213,XArbitraryZVertical,-0.1639957165321088,-0.06630453104274084,-0.2480356590492336,-0.9524638838226385,0.04495177045464516,-0.3452917635440826,-0.9374182224273682,0,0,0,-1,-1,2859.44314075,walking,2,2022-05-12T10:32:41.859+02:00,2022-05-11T22:15:20.957+02:00,335,0.8999186,0.7476743,1.72769,251.5268,0,0,2022-05-12T10:32:41.859+02:00,674037164.4170872,0,0.2599983,100.9045,1,0.96
2022-05-12T10:32:45.008+02:00,1652344364.000522,53.22908070029595,10.3983775306639,36.83102,0.9336013,0.7788853,2.92782355353238,180,2.400000095367432,7.999579855010837,-9999,2862.590691666667,-0.50274658203125,-0.753936767578125,-0.8410186767578125,2862.585693666667,0.4863458362481928,0.06003821034682081,0.3216715064910575,-3.204766750335693,0.8314056396484375,-1.582190752029419,-0.5025725960731506,-0.3900386691093445,0.1687394976615906,XArbitraryZVertical,-0.1482278598233105,-0.06729800946627174,-0.2422339263520933,-0.9564634199055405,0.05692453682422638,-0.3161527812480927,-0.9469989538192749,0,0,0,-1,-1,2859.44314075,walking,2,2022-05-12T10:32:41.859+02:00,2022-05-11T22:15:20.957+02:00,335,0.8999186,0.7476743,1.72769,251.5268,0,0,2022-05-12T10:32:41.859+02:00,674037164.4170872,0,0.2599983,100.9045,1,0.96
2022-05-12T10:32:45.018+02:00,1652344364.000522,53.22908070029595,10.3983775306639,36.83102,0.9336013,0.7788853,2.92782355353238,180,2.400000095367432,7.999579855010837,-9999,2862.600686666667,-0.479034423828125,-0.731964111328125,-0.8411102294921875,2862.595688666667,0.4717137400748663,0.07336658243793659,0.2864941347272582,-3.627901315689087,0.922294557094574,-1.708810448646545,-0.5741581916809082,-0.4511730968952179,0.1347604393959045,XArbitraryZVertical,-0.130229642300029,-0.06863107208938479,-0.2362179006686602,-0.9604849586187071,0.07031308114528656,-0.2825910151004791,-0.9566600322723389,0,0,0,-1,-1,2859.44314075,walking,2,2022-05-12T10:32:41.859+02:00,2022-05-11T22:15:20.957+02:00,335,0.8999186,0.7476743,1.72769,251.5268,0,0,2022-05-12T10:32:41.859+02:00,674037164.4170872,0,0.2599983,100.9045,1,0.96
2022-05-12T10:32:45.028+02:00,1652344364.000522,53.22908070029595,10.3983775306639,36.83102,0.9336013,0.7788853,2.92782355353238,180,2.400000095367432,7.999579855010837,-9999,2862.610681666667,-0.487335205078125,-0.68878173828125,-0.837310791015625,2862.605683666667,0.4563885746716944,0.0875267088732128,0.247009474894158,-4.00272798538208,1.116231918334961,-1.85490608215332,-0.5809774398803711,-0.5108499526977539,0.125054657459259,XArbitraryZVertical,-0.1100609963574872,-0.07013209720114073,-0.229530726633414,-0.9645122473897652,0.08476177603006363,-0.244505301117897,-0.9659361243247986,0,0,0,-1,-1,2859.44314075,walking,2,2022-05-12T10:32:41.859+02:00,2022-05-11T22:15:20.957+02:00,335,0.8999186,0.7476743,1.72769,251.5268,0,0,2022-05-12T10:32:41.859+02:00,674037164.4170872,0,0.2599983,100.9045,1,0.96
2022-05-12T10:32:45.037+02:00,1652344364.000522,53.22908070029595,10.3983775306639,36.83102,0.9336013,0.7788853,2.92782355353238,180,2.400000095367432,7.999579855010837,-9999,2862.620677166667,-0.4920196533203125,-0.670745849609375,-0.8292236328125,2862.615678666667,0.4411609754419855,0.1031758779875969,0.2039695222639844,-4.289144992828369,1.358568429946899,-1.924796938896179,-0.5743685364723206,-0.5028398036956787,0.1324944496154785,XArbitraryZVertical,-0.08798553957883634,-0.07229979336452959,-0.2224921858174556,-0.9682606605025428,0.1008578985929489,-0.2025581449270248,-0.9740625619888306,0,0,0,-1,-1,2859.44314075,walking,2,2022-05-12T10:32:41.859+02:00,2022-05-11T22:15:20.957+02:00,335,0.8999186,0.7476743,1.72769,251.5268,0,0,2022-05-12T10:32:41.859+02:00,674037164.4170872,0,0.2599983,100.9045,1,0.96
2022-05-12T10:32:45.047+02:00,1652344364.000522,53.22908070029595,10.3983775306639,36.83102,0.9336013,0.7788853,2.92782355353238,180,2.400000095367432,7.999579855010837,-9999,2862.630672166667,-0.50848388671875,-0.663299560546875,-0.829071044921875,2862.625675166667,0.4268136611120009,0.1204134088848439,0.1578397347334173,-4.574493885040283,1.591015815734863,-1.935427665710449,-0.6175459623336792,-0.5207927227020264,0.1448163390159607,XArbitraryZVertical,-0.06420607765392163,-0.07528923083203153,-0.2153850031575427,-0.9715032114663786,0.1186294034123421,-0.1571851670742035,-0.9804182052612305,0,0,0,-1,-1,2859.44314075,walking,2,2022-05-12T10:32:41.859+02:00,2022-05-11T22:15:20.957+02:00,335,0.8999186,0.7476743,1.72769,251.5268,0,0,2022-05-12T10:32:41.859+02:00,674037164.4170872,0,0.2599983,100.9045,1,0.96
