loggingTime(txt),locationTimestamp_since1970(s),locationLatitude(WGS84),locationLongitude(WGS84),locationAltitude(m),locationSpeed(m/s),locationSpeedAccuracy(m/s),locationCourse(°),locationCourseAccuracy(°),locationVerticalAccuracy(m),locationHorizontalAccuracy(m),locationFloor(Z),accelerometerTimestamp_sinceReboot(s),accelerometerAccelerationX(G),accelerometerAccelerationY(G),accelerometerAccelerationZ(G),motionTimestamp_sinceReboot(s),motionYaw(rad),motionRoll(rad),motionPitch(rad),motionRotationRateX(rad/s),motionRotationRateY(rad/s),motionRotationRateZ(rad/s),motionUserAccelerationX(G),motionUserAccelerationY(G),motionUserAccelerationZ(G),motionAttitudeReferenceFrame(txt),motionQuaternionX(R),motionQuaternionY(R),motionQuaternionZ(R),motionQuaternionW(R),motionGravityX(G),motionGravityY(G),motionGravityZ(G),motionMagneticFieldX(µT),motionMagneticFieldY(µT),motionMagneticFieldZ(µT),motionHeading(°),motionMagneticFieldCalibrationAccuracy(Z),activityTimestamp_sinceReboot(s),activity(txt),activityActivityConfidence(Z),activityActivityStartDate(txt),pedometerStartDate(txt),pedometerNumberofSteps(N),pedometerAverageActivePace(s/m),pedometerCurrentPace(s/m),pedometerCurrentCadence(steps/s),pedometerDistance(m),pedometerFloorAscended(N),pedometerFloorDescended(N),pedometerEndDate(txt),altimeterTimestamp_sinceReboot(s),altimeterReset(bool),altimeterRelativeAltitude(m),altimeterPressure(kPa),batteryState(N),batteryLevel(R)
2022-05-12T10:33:37.534+02:00,1652344416.999545,53.22900322227729,10.39840659767277,36.69004,0.04089499,0.6892284,344.6338602345685,57.54590150779836,2.400000095367432,7.999579855010836,-9999,2915.075080041667,-0.0162353515625,-0.5768890380859375,-0.7831878662109375,2915.070082041667,0.5704590542149782,-0.01301308192134378,0.643765738967545,0.03264393284916878,-0.03434266522526741,-0.08540088683366776,-0.003858700394630432,0.04221343994140625,0.02831929922103882,XArbitraryZVertical,0.3053020158581723,0.08308991919033715,0.2649457133550427,0.9108735259081611,-0.01040810532867908,-0.6002116799354553,-0.7997735142707825,0,0,0,-1,-1,2910.61828025,walking,2,2022-05-12T10:33:33.034+02:00,2022-05-11T22:15:20.957+02:00,375,0.8798808,0,0,297.2407,0,0,2022-05-12T10:33:33.034+02:00,674037215.5928795,0,0.75,100.8989,1,0.96
2022-05-12T10:33:37.559+02:00,1652344416.999545,53.22900322227729,10.39840659767277,36.69004,0.04089499,0.6892284,344.6338602345685,57.54590150779836,2.400000095367432,7.999579855010836,-9999,2915.085075041667,-0.003173828125,-0.583953857421875,-0.7925262451171875,2915.080077041667,0.5695065617760963,-0.01282195293873119,0.643841193801624,-0.01174523495137691,-0.04438571259379387,-0.06304950267076492,-0.01002411544322968,0.02986842393875122,0.02188253402709961,XArbitraryZVertical,0.3053505957117036,0.08304169352096097,0.2645374856934009,0.9109802952633409,-0.01025466434657574,-0.6002720594406128,-0.7997301816940308,0,0,0,-1,-1,2910.61828025,walking,2,2022-05-12T10:33:33.034+02:00,2022-05-11T22:15:20.957+02:00,375,0.8798808,0,0,297.2407,0,0,2022-05-12T10:33:33.034+02:00,674037215.5928795,0,0.75,100.8989,1,0.96
2022-05-12T10:33:37.563+02:00,1652344416.999545,53.22900322227729,10.39840659767277,36.69004,0.04089499,0.6892284,344.6338602345685,57.54590150779836,2.400000095367432,7.999579855010836,-9999,2915.095070041667,0.0046844482421875,-0.586395263671875,-0.80218505859375,2915.090072041667,0.5687983330602505,-0.01286065360334818,0.6435154116904603,-0.03827804327011108,-0.05069847032427788,-0.0456116572022438,0.0002480000257492065,0.01813316345214844,0.01171696186065674,XArbitraryZVertical,0.3052368474585669,0.08287223254504376,0.2642243588785991,0.9111247902430345,-0.01028812956064939,-0.6000114679336548,-0.7999253273010254,0,0,0,-1,-1,2910.61828025,walking,2,2022-05-12T10:33:33.034+02:00,2022-05-11T22:15:20.957+02:00,375,0.8798808,0,0,297.2407,0,0,2022-05-12T10:33:33.034+02:00,674037215.5928795,0,0.75,100.8989,1,0.96
2022-05-12T10:33:37.566+02:00,1652344416.999545,53.22900322227729,10.39840659767277,36.69004,0.04089499,0.6892284,344.6338602345685,57.54590150779836,2.400000095367432,7.999579855010836,-9999,2915.105065041667,0.0081024169921875,-0.5870819091796875,-0.8099365234375,2915.100068041667,0.5682573054458873,-0.01309614229409736,0.6430354302950558,-0.04330752044916153,-0.05980002135038376,-0.03995224088430405,0.01333382725715637,0.0151856541633606,0.001992583274841309,XArbitraryZVertical,0.3050719322210947,0.08261807864592752,0.2639646382355061,0.9112783428270558,-0.01048027258366346,-0.5996273756027222,-0.80021071434021,0,0,0,-1,-1,2910.61828025,walking,2,2022-05-12T10:33:33.034+02:00,2022-05-11T22:15:20.957+02:00,375,0.8798808,0,0,297.2407,0,0,2022-05-12T10:33:33.034+02:00,674037215.5928795,0,0.75,100.8989,1,0.96
2022-05-12T10:33:37.570+02:00,1652344416.999545,53.22900322227729,10.39840659767277,36.69004,0.04089499,0.6892284,344.6338602345685,57.54590150779836,2.400000095367432,7.999579855010836,-9999,2915.115060041667,0.0068206787109375,-0.5871734619140625,-0.806915283203125,2915.110063041667,0.5678968274423724,-0.0135214970078779,0.6424756861409885,-0.04130855202674866,-0.05891825258731842,-0.02731847204267979,0.01865307986736298,0.01093822717666626,-0.005961954593658447,XArbitraryZVertical,0.3048881848810278,0.0822943131818047,0.2637619888864851,0.9114277802427441,-0.01082518137991428,-0.5991793274879456,-0.8005416989326477,0,0,0,-1,-1,2910.61828025,walking,2,2022-05-12T10:33:33.034+02:00,2022-05-11T22:15:20.957+02:00,375,0.8798808,0,0,297.2407,0,0,2022-05-12T10:33:33.034+02:00,674037215.5928795,0,0.75,100.8989,1,0.96
2022-05-12T10:33:37.572+02:00,1652344416.999545,53.22900322227729,10.39840659767277,36.69004,0.04089499,0.6892284,344.6338602345685,57.54590150779836,2.400000095367432,7.999579855010836,-9999,2915.125055041667,0.0060577392578125,-0.5973968505859375,-0.8016815185546875,2915.120058041667,0.567606619762666,-0.0138984121357332,0.6421834068699533,-0.02522549033164978,-0.05773640796542168,-0.01635790057480335,0.01883520185947418,0.0122758150100708,-0.009315788745880127,XArbitraryZVertical,0.3048167595861482,0.08203915002330277,0.2635860998122206,0.9115255989308715,-0.0111293513327837,-0.5989453196525574,-0.8007126450538635,0,0,0,-1,-1,2910.61828025,walking,2,2022-05-12T10:33:33.034+02:00,2022-05-11T22:15:20.957+02:00,375,0.8798808,0,0,297.2407,0,0,2022-05-12T10:33:33.034+02:00,674037215.5928795,0,0.75,100.8989,1,0.96
2022-05-12T10:33:37.574+02:00,1652344416.999545,53.22900322227729,10.39840659767277,36.69004,0.04089499,0.6892284,344.6338602345685,57.54590150779836,2.400000095367432,7.999579855010836,-9999,2915.135050041667,0.01397705078125,-0.602813720703125,-0.7986907958984375,2915.130053041667,0.5673634111868454,-0.01432352470634512,0.6421306888916771,-0.02473253756761551,-0.06124938279390335,-0.01398502383381128,0.01591065526008606,0.006999850273132324,-0.003811120986938477,XArbitraryZVertical,0.3048587314093447,0.08180126215527452,0.2634129508329685,0.9115830055857662,-0.01147019490599632,-0.5989031195640564,-0.8007394075393677,0,0,0,-1,-1,2910.61828025,walking,2,2022-05-12T10:33:33.034+02:00,2022-05-11T22:15:20.957+02:00,375,0.8798808,0,0,297.2407,0,0,2022-05-12T10:33:33.034+02:00,674037215.5928795,0,0.75,100.8989,1,0.96
2022-05-12T10:33:37.575+02:00,1652344416.999545,53.22900322227729,10.39840659767277,36.69004,0.04089499,0.6892284,344.6338602345685,57.54590150779836,2.400000095367432,7.999579855010836,-9999,2915.145046041667,0.0171661376953125,-0.6083526611328125,-0.7977294921875,2915.140048041667,0.5672762366812417,-0.01486194366157161,0.6418701614443756,-0.02790406346321106,-0.05957578122615814,0.001130213961005211,0.02208141982555389,-0.001967370510101318,0.001114606857299805,XArbitraryZVertical,0.3048146066840973,0.08150767753741513,0.2633035198821673,0.9116556682807831,-0.01190364547073841,-0.5986944437026978,-0.8008891344070435,0,0,0,-1,-1,2910.61828025,walking,2,2022-05-12T10:33:33.034+02:00,2022-05-11T22:15:20.957+02:00,375,0.8798808,0,0,297.2407,0,0,2022-05-12T10:33:33.034+02:00,674037215.5928795,0,0.75,100.8989,1,0.96
2022-05-12T10:33:37.577+02:00,1652344416.999545,53.22900322227729,10.39840659767277,36.69004,0.04089499,0.6892284,344.6338602345685,57.54590150779836,2.400000095367432,7.999579855010836,-9999,2915.155041041667,0.0130767822265625,-0.611297607421875,-0.804962158203125,2915.150043041667,0.5673966617416847,-0.01555723962385252,0.6415065625975284,-0.03033659607172012,-0.06176410615444183,0.01803995482623577,0.02775333821773529,-0.007614493370056152,0.001705169677734375,XArbitraryZVertical,0.304735764536751,0.08116040257405228,0.2632697866056531,0.9117226652885768,-0.01246388256549835,-0.5984031558036804,-0.8010982275009155,0,0,0,-1,-1,2910.61828025,walking,2,2022-05-12T10:33:33.034+02:00,2022-05-11T22:15:20.957+02:00,375,0.8798808,0,0,297.2407,0,0,2022-05-12T10:33:33.034+02:00,674037215.5928795,0,0.75,100.8989,1,0.96
2022-05-12T10:33:37.587+02:00,1652344416.999545,53.22900322227729,10.39840659767277,36.69004,0.04089499,0.6892284,344.6338602345685,57.54590150779836,2.400000095367432,7.999579855010836,-9999,2915.165036041667,0.00079345703125,-0.6082916259765625,-0.809844970703125,2915.160038041667,0.5677894575379115,-0.01640960739195653,0.6411420057103617,-0.03339054435491562,-0.05281981080770493,0.04238757118582726,0.03088115155696869,-0.01144665479660034,0.0004017353057861328,XArbitraryZVertical,0.304666132601358,0.08078278927026226,0.2633363965104316,0.9117602729226651,-0.01315028686076403,-0.5981110334396362,-0.80130535364151,0,0,0,-1,-1,2910.61828025,walking,2,2022-05-12T10:33:33.034+02:00,2022-05-11T22:15:20.957+02:00,375,0.8798808,0,0,297.2407,0,0,2022-05-12T10:33:33.034+02:00,674037215.5928795,0,0.75,100.8989,1,0.96
2022-05-12T10:33:37.592+02:00,1652344416.999545,53.22900322227729,10.39840659767277,36.69004,0.04089499,0.6892284,344.6338602345685,57.54590150779836,2.400000095367432,7.999579855010836,-9999,2915.175031041667,-0.0094757080078125,-0.605743408203125,-0.8168182373046875,2915.170033041667,0.5684127324026256,-0.01720181309649565,0.6407363488270504,-0.03859036415815353,-0.03296488150954247,0.06351469457149506,0.02064059674739838,-0.0142894983291626,-0.006507515907287598,XArbitraryZVertical,0.3045607056428556,0.08046208946468701,0.2635193237214332,0.9117710534962268,-0.01378925424069166,-0.5977858901023865,-0.8015372753143311,0,0,0,-1,-1,2910.61828025,walking,2,2022-05-12T10:33:33.034+02:00,2022-05-11T22:15:20.957+02:00,375,0.8798808,0,0,297.2407,0,0,2022-05-12T10:33:33.034+02:00,674037215.5928795,0,0.75,100.8989,1,0.96
2022-05-12T10:33:37.602+02:00,1652344416.999545,53.22900322227729,10.39840659767277,36.69004,0.04089499,0.6892284,344.6338602345685,57.54590150779836,2.400000095367432,7.999579855010836,-9999,2915.185026041667,-0.0120849609375,-0.6133575439453125,-0.818878173828125,2915.180029041667,0.5691697056526347,-0.0178122917390659,0.6402855760819982,-0.03761072084307671,-0.01123987697064877,0.06964981555938721,0.009034500457346439,-0.007311403751373291,-0.01099222898483276,XArbitraryZVertical,0.3044056536701029,0.08023843883895455,0.2637932067985972,0.9117632335326932,-0.01428337022662163,-0.5974244475364685,-0.8017979860305786,0,0,0,-1,-1,2910.61828025,walking,2,2022-05-12T10:33:33.034+02:00,2022-05-11T22:15:20.957+02:00,375,0.8798808,0,0,297.2407,0,0,2022-05-12T10:33:33.034+02:00,674037215.5928795,0,0.75,100.8989,1,0.96
2022-05-12T10:33:37.612+02:00,1652344416.999545,53.22900322227729,10.39840659767277,36.69004,0.04089499,0.6892284,344.6338602345685,57.54590150779836,2.400000095367432,7.999579855010836,-9999,2915.195021041667,-0.0079345703125,-0.6169586181640625,-0.8164825439453125,2915.190024041667,0.5699212517040615,-0.01823189523216276,0.6398286855155962,-0.04027627781033516,-0.003113773884251714,0.06588383764028549,0.002845153212547302,-0.01207244396209717,-0.01724100112915039,XArbitraryZVertical,0.3042229713077984,0.08009995463467731,0.2640940308894408,0.9117493327452952,-0.01462478097528219,-0.5970579981803894,-0.8020647764205933,0,0,0,-1,-1,2910.61828025,walking,2,2022-05-12T10:33:33.034+02:00,2022-05-11T22:15:20.957+02:00,375,0.8798808,0,0,297.2407,0,0,2022-05-12T10:33:33.034+02:00,674037215.5928795,0,0.75,100.8989,1,0.96
2022-05-12T10:33:37.622+02:00,1652344416.999545,53.22900322227729,10.39840659767277,36.69004,0.04089499,0.6892284,344.6338602345685,57.54590150779836,2.400000095367432,7.999579855010836,-9999,2915.205016041667,-0.011749267578125,-0.6233367919921875,-0.81695556640625,2915.200019041667,0.5706256938491014,-0.01856135192393382,0.6393934956814126,-0.03262794390320778,0.005183304660022259,0.06140200793743134,0.005082607269287109,-0.01959323883056641,-0.01588749885559082,XArbitraryZVertical,0.3040402575780987,0.07999817198878514,0.2643861228528128,0.9117345978689281,-0.0148938475176692,-0.5967088341712952,-0.8023196458816528,0,0,0,-1,-1,2910.61828025,walking,2,2022-05-12T10:33:33.034+02:00,2022-05-11T22:15:20.957+02:00,375,0.8798808,0,0,297.2407,0,0,2022-05-12T10:33:33.034+02:00,674037215.5928795,0,0.75,100.8989,1,0.96
2022-05-12T10:33:37.632+02:00,1652344416.999545,53.22900322227729,10.39840659767277,36.69004,0.04089499,0.6892284,344.6338602345685,57.54590150779836,2.400000095367432,7.999579855010836,-9999,2915.215012041667,-0.0179290771484375,-0.621429443359375,-0.8142242431640625,2915.210014041667,0.5712269987614205,-0.01875394826371467,0.6390481814827182,-0.02938794530928135,0.008264848031103611,0.05137653648853302,0.006034448742866516,-0.0239291787147522,-0.01496720314025879,XArbitraryZVertical,0.3038845422529285,0.0799551085156734,0.2646476969899662,0.9117144402854354,-0.01505223475396633,-0.5964317321777344,-0.8025227189064026,0,0,0,-1,-1,2910.61828025,walking,2,2022-05-12T10:33:33.034+02:00,2022-05-11T22:15:20.957+02:00,375,0.8798808,0,0,297.2407,0,0,2022-05-12T10:33:33.034+02:00,674037215.5928795,0,0.75,100.8989,1,0.96
2022-05-12T10:33:37.642+02:00,1652344416.999545,53.22900322227729,10.39840659767277,36.69004,0.04089499,0.6892284,344.6338602345685,57.54590150779836,2.400000095367432,7.999579855010836,-9999,2915.225007041667,-0.0200042724609375,-0.627197265625,-0.812347412109375,2915.220009041667,0.571700366077099,-0.01890676330708886,0.6387763941197085,-0.03017937019467354,-0.002313893754035234,0.0407746285200119,0.0003007650375366211,-0.02573424577713013,-0.01271706819534302,XArbitraryZVertical,0.3037622051686165,0.07992062951931773,0.2648534813524773,0.9116983978140941,-0.01517793536186218,-0.5962135195732117,-0.8026824593544006,0,0,0,-1,-1,2910.61828025,walking,2,2022-05-12T10:33:33.034+02:00,2022-05-11T22:15:20.957+02:00,375,0.8798808,0,0,297.2407,0,0,2022-05-12T10:33:33.034+02:00,674037215.5928795,0,0.75,100.8989,1,0.96
2022-05-12T10:33:37.652+02:00,1652344416.999545,53.22900322227729,10.39840659767277,36.69004,0.04089499,0.6892284,344.6338602345685,57.54590150779836,2.400000095367432,7.999579855010836,-9999,2915.235002041667,-0.02459716796875,-0.628997802734375,-0.8164825439453125,2915.230004041667,0.5720676663981508,-0.01902409194697683,0.6385134761438236,-0.02988402545452118,-0.001016668044030666,0.03632049262523651,-0.002150297164916992,-0.02902770042419434,-0.009144186973571777,XArbitraryZVertical,0.3036434443131025,0.07988734275458337,0.2650158740143014,0.9116936820787538,-0.01527509465813637,-0.596002459526062,-0.8028373718261719,0,0,0,-1,-1,2910.61828025,walking,2,2022-05-12T10:33:33.034+02:00,2022-05-11T22:15:20.957+02:00,375,0.8798808,0,0,297.2407,0,0,2022-05-12T10:33:33.034+02:00,674037215.5928795,0,0.75,100.8989,1,0.96
2022-05-12T10:33:37.662+02:00,1652344416.999545,53.22900322227729,10.39840659767277,36.69004,0.04089499,0.6892284,344.6338602345685,57.54590150779836,2.400000095367432,7.999579855010836,-9999,2915.244997041667,-0.02117919921875,-0.6305999755859375,-0.8160552978515625,2915.239999041667,0.572384846276051,-0.01911312213907461,0.6382765511222857,-0.02956840768456459,-0.003863520454615355,0.03462691977620125,-0.006928414106369019,-0.03230017423629761,-0.01107954978942871,XArbitraryZVertical,0.3035347562712808,0.07986280339579123,0.2651584482001594,0.9116906361230949,-0.01534926984459162,-0.595812201499939,-0.8029771447181702,0,0,0,-1,-1,2910.61828025,walking,2,2022-05-12T10:33:33.034+02:00,2022-05-11T22:15:20.957+02:00,375,0.8798808,0,0,297.2407,0,0,2022-05-12T10:33:33.034+02:00,674037215.5928795,0,0.75,100.8989,1,0.96
2022-05-12T10:33:37.672+02:00,1652344416.999545,53.22900322227729,10.39840659767277,36.69004,0.04089499,0.6892284,344.6338602345685,57.54590150779836,2.400000095367432,7.999579855010836,-9999,2915.254992041667,-0.019317626953125,-0.636138916015625,-0.819000244140625,2915.249995041667,0.5727627659687479,-0.01927852618264638,0.638024208414977,-0.0260879211127758,0.001157870050519705,0.03437764942646027,-0.009508758783340454,-0.03347939252853394,-0.01309859752655029,XArbitraryZVertical,0.3034268144682681,0.07981057771496607,0.2653179201874549,0.9116846688161779,-0.01548498217016459,-0.5956094861030579,-0.8031249046325684,0,0,0,-1,-1,2910.61828025,walking,2,2022-05-12T10:33:33.034+02:00,2022-05-11T22:15:20.957+02:00,375,0.8798808,0,0,297.2407,0,0,2022-05-12T10:33:33.034+02:00,674037215.5928795,0,0.75,100.8989,1,0.96
2022-05-12T10:33:37.682+02:00,1652344416.999545,53.22900322227729,10.39840659767277,36.69004,0.04089499,0.6892284,344.6338602345685,57.54590150779836,2.400000095367432,7.999579855010836,-9999,2915.264987041667,-0.0227508544921875,-0.6312255859375,-0.8205108642578125,2915.259990041667,0.5731945933469893,-0.01950102463187077,0.6378293606133458,-0.01236684992909431,0.002791053615510464,0.03726331889629364,-0.004567056894302368,-0.03836619853973389,-0.01405417919158936,XArbitraryZVertical,0.3033504635633217,0.07974823549831227,0.2654905046310948,0.9116652899122449,-0.01566593907773495,-0.5954529643058777,-0.8032374382019043,0,0,0,-1,-1,2910.61828025,walking,2,2022-05-12T10:33:33.034+02:00,2022-05-11T22:15:20.957+02:00,375,0.8798808,0,0,297.2407,0,0,2022-05-12T10:33:33.034+02:00,674037215.5928795,0,0.75,100.8989,1,0.96
2022-05-12T10:33:37.692+02:00,1652344416.999545,53.22900322227729,10.39840659767277,36.69004,0.04089499,0.6892284,344.6338602345685,57.54590150779836,2.400000095367432,7.999579855010836,-9999,2915.274982041667,-0.0223236083984375,-0.6253509521484375,-0.8164520263671875,2915.269985041667,0.5736588588660582,-0.01969720738400767,0.6377202979880008,-0.007190198171883821,0.009396491572260857,0.04107749834656715,-0.003584221005439758,-0.03970503807067871,-0.017059326171875,XArbitraryZVertical,0.3033083841180732,0.07971441557441951,0.2656776914325981,0.9116277309803228,-0.01582479849457741,-0.5953653454780579,-0.8032992482185364,0,0,0,-1,-1,2910.61828025,walking,2,2022-05-12T10:33:33.034+02:00,2022-05-11T22:15:20.957+02:00,375,0.8798808,0,0,297.2407,0,0,2022-05-12T10:33:33.034+02:00,674037215.5928795,0,0.75,100.8989,1,0.96
2022-05-12T10:33:37.702+02:00,1652344416.999545,53.22900322227729,10.39840659767277,36.69004,0.04089499,0.6892284,344.6338602345685,57.54590150779836,2.400000095367432,7.999579855010836,-9999,2915.284978041667,-0.0189056396484375,-0.6251068115234375,-0.8073883056640625,2915.279980041667,0.5741345143789751,-0.01987952625540784,0.6377264608601458,0.0062544378452003,0.008206192404031754,0.03527353703975677,-0.007405117154121399,-0.03194856643676758,-0.01544845104217529,XArbitraryZVertical,0.3033164609788745,0.0797042906408871,0.2658665463379107,0.9115708600882837,-0.01597118191421032,-0.5953702926635742,-0.8032926917076111,0,0,0,-1,-1,2910.61828025,walking,2,2022-05-12T10:33:33.034+02:00,2022-05-11T22:15:20.957+02:00,375,0.8798808,0,0,297.2407,0,0,2022-05-12T10:33:33.034+02:00,674037215.5928795,0,0.75,100.8989,1,0.96
2022-05-12T10:33:37.712+02:00,1652344416.999545,53.22900322227729,10.39840659767277,36.69004,0.04089499,0.6892284,344.6338602345685,57.54590150779836,2.400000095367432,7.999579855010836,-9999,2915.294973041667,-0.0190277099609375,-0.6241912841796875,-0.802734375,2915.289975041667,0.5745267978646914,-0.02002839699157399,0.6378720420779053,0.01961258798837662,0.009654153138399124,0.02634741924703121,-0.004983201622962952,-0.03009217977523804,-0.009189844131469727,XArbitraryZVertical,0.3033868237846845,0.07971571543488204,0.2660156146720446,0.911503023659272,-0.01608903333544731,-0.5954872369766235,-0.8032037019729614,0,0,0,-1,-1,2910.61828025,walking,2,2022-05-12T10:33:33.034+02:00,2022-05-11T22:15:20.957+02:00,375,0.8798808,0,0,297.2407,0,0,2022-05-12T10:33:33.034+02:00,674037215.5928795,0,0.75,100.8989,1,0.96
2022-05-12T10:33:37.722+02:00,1652344416.999545,53.22900322227729,10.39840659767277,36.69004,0.04089499,0.6892284,344.6338602345685,57.54590150779836,2.400000095367432,7.999579855010836,-9999,2915.304968041667,-0.017974853515625,-0.61767578125,-0.7987823486328125,2915.299970041667,0.5747848902189689,-0.0200660658771305,0.6381632942996512,0.03449995815753937,0.01169713027775288,0.01526753790676594,-0.001767337322235107,-0.02787452936172485,-0.001551449298858643,XArbitraryZVertical,0.3035140472894771,0.07977735955708071,0.2661132736238484,0.9114266659809666,-0.01611580699682236,-0.5957212448120117,-0.8030295968055725,0,0,0,-1,-1,2910.61828025,walking,2,2022-05-12T10:33:33.034+02:00,2022-05-11T22:15:20.957+02:00,375,0.8798808,0,0,297.2407,0,0,2022-05-12T10:33:33.034+02:00,674037215.5928795,0,0.75,100.8989,1,0.96
2022-05-12T10:33:37.732+02:00,1652344416.999545,53.22900322227729,10.39840659767277,36.69004,0.04089499,0.6892284,344.6338602345685,57.54590150779836,2.400000095367432,7.999579855010836,-9999,2915.314963041667,-0.0192108154296875,-0.608367919921875,-0.7944183349609375,2915.309965041667,0.5749036733102996,-0.0200883944249566,0.6385533299022976,0.03247915208339691,-0.004195283632725477,0.001514440402388573,-0.001433640718460083,-0.02585232257843018,0.002122163772583008,XArbitraryZVertical,0.3036896400030948,0.07983826811586688,0.2661448609728557,0.9113537086013449,-0.01612907089293003,-0.5960344672203064,-0.8027969002723694,0,0,0,-1,-1,2910.61828025,walking,2,2022-05-12T10:33:33.034+02:00,2022-05-11T22:15:20.957+02:00,375,0.8798808,0,0,297.2407,0,0,2022-05-12T10:33:33.034+02:00,674037215.5928795,0,0.75,100.8989,1,0.96
2022-05-12T10:33:37.742+02:00,1652344416.999545,53.22900322227729,10.39840659767277,36.69004,0.04089499,0.6892284,344.6338602345685,57.54590150779836,2.400000095367432,7.999579855010836,-9999,2915.324958041667,-0.02630615234375,-0.60394287109375,-0.7918701171875,2915.319961041667,0.5748619217162597,-0.02012233572537263,0.6388682546018309,0.02434229478240013,-0.002883344190195203,-0.01265018060803413,-0.001547500491142273,-0.01826000213623047,0.005733311176300049,XArbitraryZVertical,0.303839038171776,0.07985931492399934,0.2661052221805233,0.9113136560154591,-0.01615254022181034,-0.5962873101234436,-0.8026086688041687,0,0,0,-1,-1,2910.61828025,walking,2,2022-05-12T10:33:33.034+02:00,2022-05-11T22:15:20.957+02:00,375,0.8798808,0,0,297.2407,0,0,2022-05-12T10:33:33.034+02:00,674037215.5928795,0,0.75,100.8989,1,0.96
2022-05-12T10:33:37.752+02:00,1652344416.999545,53.22900322227729,10.39840659767277,36.69004,0.04089499,0.6892284,344.6338602345685,57.54590150779836,2.400000095367432,7.999579855010836,-9999,2915.334953041667,-0.02667236328125,-0.6030120849609375,-0.784088134765625,2915.329956041667,0.5747164497523469,-0.02004289786917436,0.6391704843748162,0.02603340148925781,0.003853121772408485,-0.01547206565737724,-0.006512954831123352,-0.006634414196014404,0.008667171001434326,XArbitraryZVertical,0.3039717157783792,0.07991452192293172,0.2660361689581767,0.9112847507523003,-0.01608517020940781,-0.5965299010276794,-0.802429735660553,0,0,0,-1,-1,2910.61828025,walking,2,2022-05-12T10:33:33.034+02:00,2022-05-11T22:15:20.957+02:00,375,0.8798808,0,0,297.2407,0,0,2022-05-12T10:33:33.034+02:00,674037215.5928795,0,0.75,100.8989,1,0.96
2022-05-12T10:33:37.762+02:00,1652344416.999545,53.22900322227729,10.39840659767277,36.69004,0.04089499,0.6892284,344.6338602345685,57.54590150779836,2.400000095367432,7.999579855010836,-9999,2915.344948041667,-0.02435302734375,-0.5897979736328125,-0.7812957763671875,2915.339951041667,0.5744949263199711,-0.01989642705010528,0.6394071948304387,0.009743445552885532,-0.001386248040944338,-0.02096257172524929,-0.01221799850463867,-0.008916318416595459,0.01348739862442017,XArbitraryZVertical,0.3040687493727352,0.07997979312791158,0.2659458972046473,0.9112729529190561,-0.01596482843160629,-0.5967198610305786,-0.8022908568382263,0,0,0,-1,-1,2910.61828025,walking,2,2022-05-12T10:33:33.034+02:00,2022-05-11T22:15:20.957+02:00,375,0.8798808,0,0,297.2407,0,0,2022-05-12T10:33:33.034+02:00,674037215.5928795,0,0.75,100.8989,1,0.96
2022-05-12T10:33:37.772+02:00,1652344416.999545,53.22900322227729,10.39840659767277,36.69004,0.04089499,0.6892284,344.6338602345685,57.54590150779836,2.400000095367432,7.999579855010836,-9999,2915.354943041667,-0.02899169921875,-0.583831787109375,-0.782470703125,2915.349946041667,0.5742132552985711,-0.01976848065618227,0.6394663509888315,-0.007385207805782557,-0.005564747843891382,-0.02361880801618099,-0.008781313896179199,-0.002170264720916748,0.021342933177948,XArbitraryZVertical,0.3040899080231417,0.08000330802918391,0.2658341096840001,0.9112964419292928,-0.01586147956550121,-0.5967673063278198,-0.8022575974464417,0,0,0,-1,-1,2910.61828025,walking,2,2022-05-12T10:33:33.034+02:00,2022-05-11T22:15:20.957+02:00,375,0.8798808,0,0,297.2407,0,0,2022-05-12T10:33:33.034+02:00,674037215.5928795,0,0.75,100.8989,1,0.96
2022-05-12T10:33:37.782+02:00,1652344416.999545,53.22900322227729,10.39840659767277,36.69004,0.04089499,0.6892284,344.6338602345685,57.54590150779836,2.400000095367432,7.999579855010836,-9999,2915.364939041667,-0.02264404296875,-0.5844879150390625,-0.788330078125,2915.359941041667,0.5738998743100759,-0.01969415755966942,0.6393294228047463,-0.02943365275859833,-0.01397341303527355,-0.0263698548078537,-0.0110823642462492,0.01270407438278198,0.02096807956695557,XArbitraryZVertical,0.3040303047503466,0.07997094011904517,0.2657093298773799,0.9113555154397379,-0.01580346189439297,-0.5966574549674988,-0.8023404479026794,0,0,0,-1,-1,2910.61828025,walking,2,2022-05-12T10:33:33.034+02:00,2022-05-11T22:15:20.957+02:00,375,0.8798808,0,0,297.2407,0,0,2022-05-12T10:33:33.034+02:00,674037215.5928795,0,0.75,100.8989,1,0.96
2022-05-12T10:33:37.792+02:00,1652344416.999545,53.22900322227729,10.39840659767277,36.69004,0.04089499,0.6892284,344.6338602345685,57.54590150779836,2.400000095367432,7.999579855010836,-9999,2915.374934041667,-0.02581787109375,-0.5837249755859375,-0.794097900390625,2915.369936041667,0.5736081983269345,-0.01972437738563384,0.6390228101066721,-0.04774101823568344,-0.02195810154080391,-0.01844215579330921,-0.01006269454956055,0.01135933399200439,0.01800715923309326,XArbitraryZVertical,0.3039065101383236,0.07987119386342303,0.2655868162007521,0.9114412917104903,-0.01583131588995457,-0.5964113473892212,-0.8025228381156921,0,0,0,-1,-1,2910.61828025,walking,2,2022-05-12T10:33:33.034+02:00,2022-05-11T22:15:20.957+02:00,375,0.8798808,0,0,297.2407,0,0,2022-05-12T10:33:33.034+02:00,674037215.5928795,0,0.75,100.8989,1,0.96
2022-05-12T10:33:37.802+02:00,1652344416.999545,53.22900322227729,10.39840659767277,36.69004,0.04089499,0.6892284,344.6338602345685,57.54590150779836,2.400000095367432,7.999579855010836,-9999,2915.384929041667,-0.0222930908203125,-0.58270263671875,-0.79937744140625,2915.379931041667,0.573392286205733,-0.01986714544192738,0.6385897452884292,-0.05631743371486664,-0.03020371496677399,-0.01301416754722595,-0.007684692740440369,0.01104211807250977,0.01122874021530151,XArbitraryZVertical,0.3037370905902723,0.07971453812857786,0.2654879065420297,0.9115402991869807,-0.01595102064311504,-0.5960636734962463,-0.8027787208557129,0,0,0,-1,-1,2910.61828025,walking,2,2022-05-12T10:33:33.034+02:00,2022-05-11T22:15:20.957+02:00,375,0.8798808,0,0,297.2407,0,0,2022-05-12T10:33:33.034+02:00,674037215.5928795,0,0.75,100.8989,1,0.96
2022-05-12T10:33:37.812+02:00,1652344416.999545,53.22900322227729,10.39840659767277,36.69004,0.04089499,0.6892284,344.6338602345685,57.54590150779836,2.400000095367432,7.999579855010836,-9999,2915.394924041667,-0.022064208984375,-0.5782470703125,-0.7994537353515625,2915.389926041667,0.5732415435930717,-0.02014618883578096,0.638090915811516,-0.06417562067508698,-0.04002385586500168,-0.006817525252699852,-0.00855332612991333,0.01157230138778687,0.006333410739898682,XArbitraryZVertical,0.3035532195196474,0.07949677211432708,0.2654012459299767,0.9116457434326899,-0.01618101820349693,-0.5956630706787109,-0.8030714392662048,0,0,0,-1,-1,2910.61828025,walking,2,2022-05-12T10:33:33.034+02:00,2022-05-11T22:15:20.957+02:00,375,0.8798808,0,0,297.2407,0,0,2022-05-12T10:33:33.034+02:00,674037215.5928795,0,0.75,100.8989,1,0.96
2022-05-12T10:33:37.822+02:00,1652344416.999545,53.22900322227729,10.39840659767277,36.69004,0.04089499,0.6892284,344.6338602345685,57.54590150779836,2.400000095367432,7.999579855010836,-9999,2915.404919041667,-0.0235137939453125,-0.585052490234375,-0.800445556640625,2915.399922041667,0.5731559932065922,-0.02055475168218454,0.6375387368090613,-0.06432469189167023,-0.04816846922039986,-0.004075667820870876,-0.004678428173065186,0.01503497362136841,0.004168272018432617,XArbitraryZVertical,0.303359605493921,0.07922258988798229,0.2653272813120323,0.9117555978723449,-0.01651587896049023,-0.5952194929122925,-0.8033934831619263,0,0,0,-1,-1,2910.61828025,walking,2,2022-05-12T10:33:33.034+02:00,2022-05-11T22:15:20.957+02:00,375,0.8798808,0,0,297.2407,0,0,2022-05-12T10:33:33.034+02:00,674037215.5928795,0,0.75,100.8989,1,0.96
2022-05-12T10:33:37.832+02:00,1652344416.999545,53.22900322227729,10.39840659767277,36.69004,0.04089499,0.6892284,344.6338602345685,57.54590150779836,2.400000095367432,7.999579855010836,-9999,2915.414914041667,-0.02777099609375,-0.58642578125,-0.7984161376953125,2915.409917041667,0.5730800732950648,-0.02109358795996045,0.6369031041467286,-0.07823198288679123,-0.06307071447372437,-0.007923136465251446,-0.00542774610221386,0.01420366764068604,0.003499805927276611,XArbitraryZVertical,0.3031448645737774,0.07887910890092238,0.2652421117280472,0.9118816056369861,-0.01695675030350685,-0.5947085618972778,-0.8037625551223755,0,0,0,-1,-1,2910.61828025,walking,2,2022-05-12T10:33:33.034+02:00,2022-05-11T22:15:20.957+02:00,375,0.8798808,0,0,297.2407,0,0,2022-05-12T10:33:33.034+02:00,674037215.5928795,0,0.75,100.8989,1,0.96
2022-05-12T10:33:37.842+02:00,1652344416.999545,53.22900322227729,10.39840659767277,36.69004,0.04089499,0.6892284,344.6338602345685,57.54590150779836,2.400000095367432,7.999579855010836,-9999,2915.424909041667,-0.0298004150390625,-0.587615966796875,-0.7957916259765625,2915.419912041667,0.5728972802582433,-0.02171265756236913,0.6361220362888325,-0.09598628431558609,-0.07684765011072159,-0.02232511155307293,-0.008444858714938164,0.007563591003417969,0.005997955799102783,XArbitraryZVertical,0.3028787475359136,0.07846308684486318,0.265103329425213,0.9120461798747652,-0.0174644123762846,-0.5940804481506348,-0.8042160272598267,0,0,0,-1,-1,2910.61828025,walking,2,2022-05-12T10:33:33.034+02:00,2022-05-11T22:15:20.957+02:00,375,0.8798808,0,0,297.2407,0,0,2022-05-12T10:33:33.034+02:00,674037215.5928795,0,0.75,100.8989,1,0.96
2022-05-12T10:33:37.852+02:00,1652344416.999545,53.22900322227729,10.39840659767277,36.69004,0.04089499,0.6892284,344.6338602345685,57.54590150779836,2.400000095367432,7.999579855010836,-9999,2915.434904041667,-0.033203125,-0.58203125,-0.7901458740234375,2915.429907041667,0.5725358887353925,-0.02238755298288661,0.6352004469038222,-0.1061792597174644,-0.09779047966003418,-0.03664785623550415,-0.01037704944610596,0.004395782947540283,0.006868660449981689,XArbitraryZVertical,0.3025628636684184,0.07797541039816898,0.2648816390596252,0.9122573088592338,-0.0180194191634655,-0.5933388471603394,-0.8047510981559753,0,0,0,-1,-1,2910.61828025,walking,2,2022-05-12T10:33:33.034+02:00,2022-05-11T22:15:20.957+02:00,375,0.8798808,0,0,297.2407,0,0,2022-05-12T10:33:33.034+02:00,674037215.5928795,0,0.75,100.8989,1,0.96
2022-05-12T10:33:37.862+02:00,1652344416.999545,53.22900322227729,10.39840659767277,36.69004,0.04089499,0.6892284,344.6338602345685,57.54590150779836,2.400000095367432,7.999579855010836,-9999,2915.444900041667,-0.1082763671875,-0.604583740234375,-0.760650634765625,2915.439902041667,0.571704490288481,-0.02306209674308996,0.6340543809667603,-0.1382170915603638,-0.1268218606710434,-0.1227087080478668,-0.0142283271998167,0.00910341739654541,0.01267790794372559,XArbitraryZVertical,0.3021627329444657,0.07738643218721893,0.2644567605168224,0.9125632774751816,-0.01857792213559151,-0.5924159288406372,-0.805418074131012,0,0,0,-1,-1,2910.61828025,walking,2,2022-05-12T10:33:33.034+02:00,2022-05-11T22:15:20.957+02:00,375,0.8798808,0,0,297.2407,0,0,2022-05-12T10:33:33.034+02:00,674037215.5928795,0,0.75,100.8989,1,0.96
2022-05-12T10:33:37.872+02:00,1652344416.999545,53.22900322227729,10.39840659767277,36.69004,0.04089499,0.6892284,344.6338602345685,57.54590150779836,2.400000095367432,7.999579855010836,-9999,2915.454895041667,-0.0717010498046875,-0.5782012939453125,-0.7434234619140625,2915.449897041667,0.5680082934503154,-0.02144490078559728,0.6314188557802373,-0.3545025289058685,-0.06734735518693924,-0.348114937543869,-0.02584290318191051,0.005711615085601807,0.02483940124511719,XArbitraryZVertical,0.3008917605936955,0.07721102060836557,0.263141916663835,0.9133778307091481,-0.01730879954993725,-0.5902906656265259,-0.8070052266120911,0,0,0,-1,-1,2910.61828025,walking,2,2022-05-12T10:33:33.034+02:00,2022-05-11T22:15:20.957+02:00,375,0.8798808,0,0,297.2407,0,0,2022-05-12T10:33:33.034+02:00,674037215.5928795,0,0.75,100.8989,1,0.96
2022-05-12T10:33:37.882+02:00,1652344416.999545,53.22900322227729,10.39840659767277,36.69004,0.04089499,0.6892284,344.6338602345685,57.54590150779836,2.400000095367432,7.999579855010836,-9999,2915.464890041667,-0.0022735595703125,-0.588623046875,-0.752899169921875,2915.459892041667,0.5653109861864003,-0.02090350394164267,0.6280283231778183,-0.3503016829490662,-0.1614992171525955,-0.1606000959873199,-0.147377610206604,-0.02014565467834473,0.05090802907943726,XArbitraryZVertical,0.2993783649869063,0.0765976759777698,0.2621539157796653,0.9142104896953597,-0.01691362448036671,-0.5875504612922668,-0.8090108036994934,0,0,0,-1,-1,2910.61828025,walking,2,2022-05-12T10:33:33.034+02:00,2022-05-11T22:15:20.957+02:00,375,0.8798808,0,0,297.2407,0,0,2022-05-12T10:33:33.034+02:00,674037215.5928795,0,0.75,100.8989,1,0.96
2022-05-12T10:33:37.892+02:00,1652344416.999545,53.22900322227729,10.39840659767277,36.69004,0.04089499,0.6892284,344.6338602345685,57.54590150779836,2.400000095367432,7.999579855010836,-9999,2915.474885041667,-0.1440887451171875,-0.61944580078125,-0.7676544189453125,2915.469887041667,0.5629201362960341,-0.02083121379033291,0.6243178243486285,-0.3891492187976837,-0.09130521863698959,-0.1916885077953339,0.05509333312511444,0.02042692899703979,0.06245225667953491,XArbitraryZVertical,0.2977664219339984,0.0757768433832794,0.2612480510533717,0.9150642451731364,-0.016900435090065,-0.5845439434051514,-0.8111860752105713,0,0,0,-1,-1,2910.61828025,walking,2,2022-05-12T10:33:33.034+02:00,2022-05-11T22:15:20.957+02:00,375,0.8798808,0,0,297.2407,0,0,2022-05-12T10:33:33.034+02:00,674037215.5928795,0,0.75,100.8989,1,0.96
2022-05-12T10:33:37.902+02:00,1652344416.999545,53.22900322227729,10.39840659767277,36.69004,0.04089499,0.6892284,344.6338602345685,57.54590150779836,2.400000095367432,7.999579855010836,-9999,2915.484880041667,-0.29461669921875,-0.6424407958984375,-0.7526702880859375,2915.479883041667,0.5623469240520346,-0.02046477210416713,0.6215896304633139,-0.1118763312697411,0.09483908861875534,0.1170064806938171,-0.06954574584960938,-0.02787035703659058,0.05455881357192993,XArbitraryZVertical,0.2964940534142981,0.07549474727538169,0.2611690646419859,0.915523263536424,-0.01663575507700443,-0.582328200340271,-0.8127836585044861,0,0,0,-1,-1,2910.61828025,walking,2,2022-05-12T10:33:33.034+02:00,2022-05-11T22:15:20.957+02:00,375,0.8798808,0,0,297.2407,0,0,2022-05-12T10:33:33.034+02:00,674037215.5928795,0,0.75,100.8989,1,0.96
2022-05-12T10:33:37.912+02:00,1652344416.999545,53.22900322227729,10.39840659767277,36.69004,0.04089499,0.6892284,344.6338602345685,57.54590150779836,2.400000095367432,7.999579855010836,-9999,2915.494875041667,-0.094207763671875,-0.6651458740234375,-0.6461181640625,2915.489878041667,0.5618515090920922,-0.01891210765928107,0.6197491200584686,-0.2358344793319702,0.03643090650439262,-0.1633548736572266,-0.2340107709169388,-0.03219050168991089,0.04669696092605591,XArbitraryZVertical,0.2954689260581028,0.07588660409403487,0.2612582744537204,0.9157967255894987,-0.01539399661123753,-0.5808309316635132,-0.8138786554336548,0,0,0,-1,-1,2910.61828025,walking,2,2022-05-12T10:33:33.034+02:00,2022-05-11T22:15:20.957+02:00,375,0.8798808,0,0,297.2407,0,0,2022-05-12T10:33:33.034+02:00,674037215.5928795,0,0.75,100.8989,1,0.96
2022-05-12T10:33:37.922+02:00,1652344416.999545,53.22900322227729,10.39840659767277,36.69004,0.04089499,0.6892284,344.6338602345685,57.54590150779836,2.400000095367432,7.999579855010836,-9999,2915.504870041667,-0.2845001220703125,-0.6558685302734375,-0.6094970703125,2915.499873041667,0.5574511186094091,-0.01722048068756094,0.616909045836099,-0.3503967225551605,-0.05055798962712288,-0.4187400937080383,-0.1566391289234161,-0.07555085420608521,0.1151403784751892,XArbitraryZVertical,0.2941163581667325,0.075635640036205,0.2596227323404283,0.9167175675651278,-0.0140455449000001,-0.5785167217254639,-0.8155496120452881,0,0,0,-1,-1,2910.61828025,walking,2,2022-05-12T10:33:33.034+02:00,2022-05-11T22:15:20.957+02:00,375,0.8798808,0,0,297.2407,0,0,2022-05-12T10:33:33.034+02:00,674037215.5928795,0,0.75,100.8989,1,0.96
2022-05-12T10:33:37.932+02:00,1652344416.999545,53.22900322227729,10.39840659767277,36.69004,0.04089499,0.6892284,344.6338602345685,57.54590150779836,2.400000095367432,7.999579855010836,-9999,2915.514866041667,-0.3428192138671875,-0.654754638671875,-0.530303955078125,2915.509868041667,0.5526585287738561,-0.01553945403621711,0.6131574726156701,-0.4189632833003998,-0.1689496040344238,-0.4002577662467957,-0.2055839002132416,-0.1031205654144287,0.1960014700889587,XArbitraryZVertical,0.2923615855374343,0.07520966695786772,0.2578408088092891,0.917816156712673,-0.01270820014178753,-0.5754526257514954,-0.8177364468574524,0,0,0,-1,-1,2910.61828025,walking,2,2022-05-12T10:33:33.034+02:00,2022-05-11T22:15:20.957+02:00,375,0.8798808,0,0,297.2407,0,0,2022-05-12T10:33:33.034+02:00,674037215.5928795,0,0.75,100.8989,1,0.96
2022-05-12T10:33:37.942+02:00,1652344416.999545,53.22900322227729,10.39840659767277,36.69004,0.04089499,0.6892284,344.6338602345685,57.54590150779836,2.400000095367432,7.999579855010836,-9999,2915.524861041667,-0.6049041748046875,-0.7927703857421875,-0.4316253662109375,2915.519863041667,0.5456011875841548,-0.01393890285865752,0.607545729323238,-0.8125760555267334,-0.3831638991832733,-0.8339399099349976,-0.2746274471282959,-0.0735241174697876,0.2505826950073242,XArbitraryZVertical,0.2898457167817515,0.07418607975505001,0.2550797536042658,0.9194673820546138,-0.01144418679177761,-0.570854127407074,-0.8209717869758606,0,0,0,-1,-1,2910.61828025,walking,2,2022-05-12T10:33:33.034+02:00,2022-05-11T22:15:20.957+02:00,375,0.8798808,0,0,297.2407,0,0,2022-05-12T10:33:33.034+02:00,674037215.5928795,0,0.75,100.8989,1,0.96
2022-05-12T10:33:37.952+02:00,1652344416.999545,53.22900322227729,10.39840659767277,36.69004,0.04089499,0.6892284,344.6338602345685,57.54590150779836,2.400000095367432,7.999579855010836,-9999,2915.534856041667,-0.564971923828125,-0.837310791015625,-0.4637908935546875,2915.529858041667,0.5349845402868898,-0.01038281361790638,0.5979964800332973,-1.03998875617981,-0.1723834872245789,-0.7640988230705261,-0.441690593957901,-0.1310730576515198,0.3551831841468811,XArbitraryZVertical,0.2853948464523373,0.0730713634336613,0.2511084353102648,0.9220385369971189,-0.008580880239605904,-0.562987744808197,-0.8264207243919373,0,0,0,-1,-1,2910.61828025,walking,2,2022-05-12T10:33:33.034+02:00,2022-05-11T22:15:20.957+02:00,375,0.8798808,0,0,297.2407,0,0,2022-05-12T10:33:33.034+02:00,674037215.5928795,0,0.75,100.8989,1,0.96
2022-05-12T10:33:37.962+02:00,1652344416.999545,53.22900322227729,10.39840659767277,36.69004,0.04089499,0.6892284,344.6338602345685,57.54590150779836,2.400000095367432,7.999579855010836,-9999,2915.544851041667,-0.64324951171875,-0.7915191650390625,-0.41485595703125,2915.539853041667,0.5245235257812911,-0.006921881709396072,0.5857595218782264,-1.448026657104492,-0.2854886054992676,-1.013011932373047,-0.6046750545501709,-0.2951285243034363,0.3540241718292236,XArbitraryZVertical,0.2796957782721906,0.07165199174886937,0.2472586199274352,0.9249322667124165,-0.005767906084656715,-0.5528324246406555,-0.8332725167274475,0,0,0,-1,-1,2910.61828025,walking,2,2022-05-12T10:33:33.034+02:00,2022-05-11T22:15:20.957+02:00,375,0.8798808,0,0,297.2407,0,0,2022-05-12T10:33:33.034+02:00,674037215.5928795,0,0.75,100.8989,1,0.96
2022-05-12T10:33:37.972+02:00,1652344416.999545,53.22900322227729,10.39840659767277,36.69004,0.04089499,0.6892284,344.6338602345685,57.54590150779836,2.400000095367432,7.999579855010836,-9999,2915.554846041667,-0.712005615234375,-0.8037872314453125,-0.4335479736328125,2915.549849041667,0.5113263996377131,-0.003691974275790562,0.5697193356300373,-1.755489349365234,-0.4578249454498291,-1.172896146774292,-0.5936775207519531,-0.2700367569923401,0.4126030206680298,XArbitraryZVertical,0.272335893782825,0.06935289590382343,0.2421937090668273,0.9286364325016868,-0.003108828794211149,-0.5393957495689392,-0.8420466780662537,0,0,0,-1,-1,2910.61828025,walking,2,2022-05-12T10:33:33.034+02:00,2022-05-11T22:15:20.957+02:00,375,0.8798808,0,0,297.2407,0,0,2022-05-12T10:33:33.034+02:00,674037215.5928795,0,0.75,100.8989,1,0.96
2022-05-12T10:33:37.982+02:00,1652344416.999545,53.22900322227729,10.39840659767277,36.69004,0.04089499,0.6892284,344.6338602345685,57.54590150779836,2.400000095367432,7.999579855010836,-9999,2915.564841041667,-0.8085479736328125,-0.8101806640625,-0.45220947265625,2915.559844041667,0.4964485174317572,-4.057251366494525e-05,0.5510300891163435,-1.976464986801147,-0.3746268749237061,-1.337894916534424,-0.6673847436904907,-0.2682586908340454,0.4281267523765564,XArbitraryZVertical,0.2637093311340573,0.06681731646221542,0.2364117884331681,0.9327927893518114,-3.456720151007175e-05,-0.5235651135444641,-0.8519856929779053,0,0,0,-1,-1,2910.61828025,walking,2,2022-05-12T10:33:33.034+02:00,2022-05-11T22:15:20.957+02:00,375,0.8798808,0,0,297.2407,0,0,2022-05-12T10:33:33.034+02:00,674037215.5928795,0,0.75,100.8989,1,0.96
2022-05-12T10:33:37.992+02:00,1652344416.999545,53.22900322227729,10.39840659767277,36.69004,0.04089499,0.6892284,344.6338602345685,57.54590150779836,2.400000095367432,7.999579855010836,-9999,2915.574836041667,-0.8165130615234375,-0.758453369140625,-0.4830169677734375,2915.569839041667,0.4797705974123291,0.005700532201074397,0.5304296563745999,-2.119324207305908,-0.2387704998254776,-1.531437754631042,-0.7714881300926208,-0.3077704310417175,0.4248313903808594,XArbitraryZVertical,0.2539563611828025,0.06494816557008212,0.2300088731840422,0.937221446464389,0.004917194601148367,-0.5059040188789368,-0.8625758290290833,0,0,0,-1,-1,2910.61828025,walking,2,2022-05-12T10:33:33.034+02:00,2022-05-11T22:15:20.957+02:00,375,0.8798808,0,0,297.2407,0,0,2022-05-12T10:33:33.034+02:00,674037215.5928795,0,0.75,100.8989,1,0.96
2022-05-12T10:33:38.002+02:00,1652344416.999545,53.22900322227729,10.39840659767277,36.69004,0.04089499,0.6892284,344.6338602345685,57.54590150779836,2.400000095367432,7.999579855010836,-9999,2915.584832041667,-0.7893218994140625,-0.6972808837890625,-0.508148193359375,2915.579834041667,0.4611448021531211,0.0122564746224601,0.5087730745294142,-2.187077283859253,-0.2855157852172852,-1.75758957862854,-0.8445660471916199,-0.3074796199798584,0.402970552444458,XArbitraryZVertical,0.2436319080456034,0.06328411194490949,0.2226772656925617,0.9418352154898175,0.01070383656769991,-0.4871060848236084,-0.8732772469520569,0,0,0,-1,-1,2910.61828025,walking,2,2022-05-12T10:33:33.034+02:00,2022-05-11T22:15:20.957+02:00,375,0.8798808,0,0,297.2407,0,0,2022-05-12T10:33:33.034+02:00,674037215.5928795,0,0.75,100.8989,1,0.96
2022-05-12T10:33:38.012+02:00,1652344416.999545,53.22900322227729,10.39840659767277,36.69004,0.04089499,0.6892284,344.6338602345685,57.54590150779836,2.400000095367432,7.999579855010836,-9999,2915.594827041667,-0.79693603515625,-0.6992645263671875,-0.528411865234375,2915.589829041667,0.4401498685262651,0.01925614492648647,0.4865622416239515,-2.18315601348877,-0.3315149545669556,-1.998734593391418,-0.8058538436889648,-0.2508697211742401,0.3901596069335938,XArbitraryZVertical,0.2330276374120894,0.06170319076325317,0.2141278370633628,0.9465939949125401,0.01702033169567585,-0.4675898551940918,-0.8837816715240479,0,0,0,-1,-1,2910.61828025,walking,2,2022-05-12T10:33:33.034+02:00,2022-05-11T22:15:20.957+02:00,375,0.8798808,0,0,297.2407,0,0,2022-05-12T10:33:33.034+02:00,674037215.5928795,0,0.75,100.8989,1,0.96
2022-05-12T10:33:38.022+02:00,1652344416.999545,53.22900322227729,10.39840659767277,36.69004,0.04089499,0.6892284,344.6338602345685,57.54590150779836,2.400000095367432,7.999579855010836,-9999,2915.604822041667,-0.800933837890625,-0.69415283203125,-0.535491943359375,2915.599824041667,0.4168392253613155,0.02655146210382229,0.4643749456574078,-2.163132190704346,-0.3344350457191467,-2.263299703598022,-0.8259981870651245,-0.2469291687011719,0.3728207349777222,XArbitraryZVertical,0.222434135076979,0.06024763314461429,0.204332389686365,0.9513893651706721,0.02373691834509373,-0.4478640258312225,-0.8937865495681763,0,0,0,-1,-1,2910.61828025,walking,2,2022-05-12T10:33:33.034+02:00,2022-05-11T22:15:20.957+02:00,375,0.8798808,0,0,297.2407,0,0,2022-05-12T10:33:33.034+02:00,674037215.5928795,0,0.75,100.8989,1,0.96
2022-05-12T10:33:38.060+02:00,1652344416.999545,53.22900322227729,10.39840659767277,36.69004,0.04089499,0.6892284,344.6338602345685,57.54590150779836,2.400000095367432,7.999579855010836,-9999,2915.614817041667,-0.750030517578125,-0.677154541015625,-0.541717529296875,2915.609819041667,0.39095398689504,0.0341934830418959,0.4422169555553327,-2.128408670425415,-0.4109950661659241,-2.525722980499268,-0.8344565033912659,-0.2726168036460876,0.3689748644828796,XArbitraryZVertical,0.2118632608393381,0.05895360840223222,0.1931560226653916,0.9562057156098709,0.03089822456240654,-0.4279442131519318,-0.9032768607139587,0,0,0,-1,-1,2910.61828025,walking,2,2022-05-12T10:33:33.034+02:00,2022-05-11T22:15:20.957+02:00,375,0.8798808,0,0,297.2407,0,0,2022-05-12T10:33:33.034+02:00,674037215.5928795,0,0.75,100.8989,1,0.96
2022-05-12T10:33:38.066+02:00,1652344416.999545,53.22900322227729,10.39840659767277,36.69004,0.04089499,0.6892284,344.6338602345685,57.54590150779836,2.400000095367432,7.999579855010836,-9999,2915.624812041667,-0.7159881591796875,-0.6585235595703125,-0.5467376708984375,2915.619815041667,0.3626530962676873,0.04139221269725728,0.4200482617192113,-2.116643905639648,-0.5247469544410706,-2.803341150283813,-0.8186516761779785,-0.2772383093833923,0.3759710192680359,XArbitraryZVertical,0.2013716082647651,0.05749677280358353,0.1805778133520647,0.9610074631337878,0.03778316453099251,-0.4078045189380646,-0.912287175655365,0,0,0,-1,-1,2910.61828025,walking,2,2022-05-12T10:33:33.034+02:00,2022-05-11T22:15:20.957+02:00,375,0.8798808,0,0,297.2407,0,0,2022-05-12T10:33:33.034+02:00,674037215.5928795,0,0.75,100.8989,1,0.96
2022-05-12T10:33:38.069+02:00,1652344416.999545,53.22900322227729,10.39840659767277,36.69004,0.04089499,0.6892284,344.6338602345685,57.54590150779836,2.400000095367432,7.999579855010836,-9999,2915.634807041667,-0.7004852294921875,-0.6416168212890625,-0.5374908447265625,2915.629810041667,0.3315270466811488,0.04786635398212149,0.3974211761000215,-2.169851064682007,-0.6297591328620911,-3.089730978012085,-0.7743740081787109,-0.2836424708366394,0.3727270364761353,XArbitraryZVertical,0.1907727563973082,0.05570204084455709,0.1663714443554722,0.9658279959310719,0.04411890357732773,-0.3870418071746826,-0.9210060834884644,0,0,0,-1,-1,2910.61828025,walking,2,2022-05-12T10:33:33.034+02:00,2022-05-11T22:15:20.957+02:00,375,0.8798808,0,0,297.2407,0,0,2022-05-12T10:33:33.034+02:00,674037215.5928795,0,0.75,100.8989,1,0.96
2022-05-12T10:33:38.071+02:00,1652344416.999545,53.22900322227729,10.39840659767277,36.69004,0.04089499,0.6892284,344.6338602345685,57.54590150779836,2.400000095367432,7.999579855010836,-9999,2915.644802041667,-0.670074462890625,-0.5955352783203125,-0.5513763427734375,2915.639805041667,0.2977063990746457,0.0536078425007234,0.3738183686130933,-2.224867582321167,-0.7981052398681641,-3.421930551528931,-0.7487800717353821,-0.2794189751148224,0.3877320885658264,XArbitraryZVertical,0.1797964866435283,0.05359110455726725,0.1505938961000491,0.9706301181915287,0.04988177493214607,-0.3651727437973022,-0.9296024441719055,0,0,0,-1,-1,2910.61828025,walking,2,2022-05-12T10:33:33.034+02:00,2022-05-11T22:15:20.957+02:00,375,0.8798808,0,0,297.2407,0,0,2022-05-12T10:33:33.034+02:00,674037215.5928795,0,0.75,100.8989,1,0.96
2022-05-12T10:33:38.073+02:00,1652344416.999545,53.22900322227729,10.39840659767277,36.69004,0.04089499,0.6892284,344.6338602345685,57.54590150779836,2.400000095367432,7.999579855010836,-9999,2915.654797041667,-0.69390869140625,-0.5375213623046875,-0.5772705078125,2915.649800041667,0.2607272393439499,0.05852303545210013,0.3491434232962998,-2.340693473815918,-0.8181111812591553,-3.763049364089966,-0.7522416114807129,-0.2890099287033081,0.3987810611724854,XArbitraryZVertical,0.1683933581437982,0.05113680439658248,0.1330025607373074,0.9753662161365544,0.05496072769165039,-0.3420930504798889,-0.9380574226379395,0,0,0,-1,-1,2910.61828025,walking,2,2022-05-12T10:33:33.034+02:00,2022-05-11T22:15:20.957+02:00,375,0.8798808,0,0,297.2407,0,0,2022-05-12T10:33:33.034+02:00,674037215.5928795,0,0.75,100.8989,1,0.96
2022-05-12T10:33:38.081+02:00,1652344416.999545,53.22900322227729,10.39840659767277,36.69004,0.04089499,0.6892284,344.6338602345685,57.54590150779836,2.400000095367432,7.999579855010836,-9999,2915.664793041667,-0.6726226806640625,-0.4517974853515625,-0.627532958984375,2915.659795041667,0.2205830766455552,0.06308073773162066,0.32304842271169,-2.436008453369141,-0.8918926119804382,-4.130423069000244,-0.735650897026062,-0.2432554066181183,0.3820700645446777,XArbitraryZVertical,0.1563402732921566,0.0486281873263641,0.1136220656886695,0.9799403847973338,0.05977803841233253,-0.3174587786197662,-0.9463860392570496,0,0,0,-1,-1,2910.61828025,walking,2,2022-05-12T10:33:33.034+02:00,2022-05-11T22:15:20.957+02:00,375,0.8798808,0,0,297.2407,0,0,2022-05-12T10:33:33.034+02:00,674037215.5928795,0,0.75,100.8989,1,0.96
2022-05-12T10:33:38.091+02:00,1652344417.999543,53.22900320086749,10.39840600634724,36.69705,0.02896463,0.6489165,344.7301112603523,117.3044311117507,2.400000095367432,7.999579855010838,-9999,2915.674786625,-0.685455322265625,-0.382904052734375,-0.7076873779296875,2915.669790041667,0.1771756925320147,0.06734777560238163,0.295132820002785,-2.618943452835083,-0.8868539333343506,-4.48354959487915,-0.7476605772972107,-0.2095597684383392,0.3549544811248779,XArbitraryZVertical,0.1434255714689708,0.04617182114219784,0.09239164731902648,0.9842566632302766,0.06438719481229782,-0.2908669412136078,-0.9545945525169373,0,0,0,-1,-1,2910.61828025,walking,2,2022-05-12T10:33:33.034+02:00,2022-05-11T22:15:20.957+02:00,375,0.8798808,0,0,297.2407,0,0,2022-05-12T10:33:33.034+02:00,674037215.5928795,0,0.75,100.8989,1,0.96
2022-05-12T10:33:38.101+02:00,1652344417.999543,53.22900320086749,10.39840600634724,36.69705,0.02896463,0.6489165,344.7301112603523,117.3044311117507,2.400000095367432,7.999579855010838,-9999,2915.684781625,-0.6824951171875,-0.28155517578125,-0.8302154541015625,2915.679783625,0.1304816827556204,0.0712849585699375,0.2645369288893316,-2.86932373046875,-0.9328663945198059,-4.921247482299805,-0.7430024147033691,-0.1460993587970734,0.2992947697639465,XArbitraryZVertical,0.1292160578893322,0.04384112400835612,0.06927371340601921,0.9882218312479466,0.06874696165323257,-0.2614623308181763,-0.9627623558044434,0,0,0,-1,-1,2910.61828025,walking,2,2022-05-12T10:33:33.034+02:00,2022-05-11T22:15:20.957+02:00,375,0.8798808,0,0,297.2407,0,0,2022-05-12T10:33:33.034+02:00,674037215.5928795,0,0.75,100.8989,1,0.96
2022-05-12T10:33:38.111+02:00,1652344417.999543,53.22900320086749,10.39840600634724,36.69705,0.02896463,0.6489165,344.7301112603523,117.3044311117507,2.400000095367432,7.999579855010838,-9999,2915.694776625,-0.678619384765625,-0.08770751953125,-0.984039306640625,2915.689778625,0.08017838816358513,0.07439328517932355,0.2318392342058946,-2.951719045639038,-0.8771765232086182,-5.254257202148438,-0.7675266861915588,-0.123579278588295,0.2118406295776367,XArbitraryZVertical,0.114006869102542,0.04154108377187207,0.04407966619503943,0.9916319298700869,0.07233615964651108,-0.2297679334878922,-0.9705535173416138,0,0,0,-1,-1,2910.61828025,walking,2,2022-05-12T10:33:33.034+02:00,2022-05-11T22:15:20.957+02:00,375,0.8798808,0,0,297.2407,0,0,2022-05-12T10:33:33.034+02:00,674037215.5928795,0,0.75,100.8989,1,0.96
2022-05-12T10:33:38.121+02:00,1652344417.999543,53.22900320086749,10.39840600634724,36.69705,0.02896463,0.6489165,344.7301112603523,117.3044311117507,2.400000095367432,7.999579855010838,-9999,2915.704771625,-0.76177978515625,-0.0250091552734375,-1.072601318359375,2915.699774625,0.02735612796158205,0.0771565242408259,0.1973893851170055,-3.158541202545166,-0.7959983348846436,-5.582759857177734,-0.7379063963890076,0.02208416163921356,0.05955839157104492,XArbitraryZVertical,0.09792705223232848,0.03972412777061386,0.01740094112888052,0.9942482769279155,0.07558324187994003,-0.1961100846529007,-0.977664589881897,0,0,0,-1,-1,2910.61828025,walking,2,2022-05-12T10:33:33.034+02:00,2022-05-11T22:15:20.957+02:00,375,0.8798808,0,0,297.2407,0,0,2022-05-12T10:33:33.034+02:00,674037215.5928795,0,0.75,100.8989,1,0.96
2022-05-12T10:33:38.131+02:00,1652344417.999543,53.22900320086749,10.39840600634724,36.69705,0.02896463,0.6489165,344.7301112603523,117.3044311117507,2.400000095367432,7.999579855010838,-9999,2915.714766625,-0.805145263671875,0.125244140625,-1.11383056640625,2915.709769625,-0.02856215634734686,0.08007906240065753,0.1596384152515019,-3.54926323890686,-0.5800700187683105,-5.985383987426758,-0.7964906096458435,0.1088366806507111,-0.04618304967880249,XArbitraryZVertical,0.08023225617895086,0.03875957182577426,-0.01103236301444171,0.9959613304094216,0.07897637039422989,-0.1589612364768982,-0.9841209650039673,0,0,0,-1,-1,2910.61828025,walking,2,2022-05-12T10:33:33.034+02:00,2022-05-11T22:15:20.957+02:00,375,0.8798808,0,0,297.2407,0,0,2022-05-12T10:33:33.034+02:00,674037215.5928795,0,0.75,100.8989,1,0.96
2022-05-12T10:33:38.141+02:00,1652344417.999543,53.22900320086749,10.39840600634724,36.69705,0.02896463,0.6489165,344.7301112603523,117.3044311117507,2.400000095367432,7.999579855010838,-9999,2915.724761625,-0.8159332275390625,0.2463226318359375,-1.168319702148438,2915.719764625,-0.08727660526057908,0.08455331825023808,0.1170176249696928,-3.957085371017456,-0.1379807889461517,-6.296098232269287,-0.8721290826797485,0.1548372507095337,-0.1116289496421814,XArbitraryZVertical,0.06020815301171972,0.03960289647081165,-0.04104183207579402,0.9965552541485018,0.08387505263090134,-0.1167507544159889,-0.9896131753921509,0,0,0,-1,-1,2910.61828025,walking,2,2022-05-12T10:33:33.034+02:00,2022-05-11T22:15:20.957+02:00,375,0.8798808,0,0,297.2407,0,0,2022-05-12T10:33:33.034+02:00,674037215.5928795,0,0.75,100.8989,1,0.96
2022-05-12T10:33:38.151+02:00,1652344417.999543,53.22900320086749,10.39840600634724,36.69705,0.02896463,0.6489165,344.7301112603523,117.3044311117507,2.400000095367432,7.999579855010838,-9999,2915.734757625,-0.7606964111328125,0.373565673828125,-1.21063232421875,2915.729759625,-0.1473536291764227,0.0904101615994779,0.07076833577129664,-4.21006441116333,0.2206769734621048,-6.445442676544189,-0.9142953157424927,0.2636572122573853,-0.1466527581214905,XArbitraryZVertical,0.03856910780293699,0.04243745025381006,-0.07189462061879739,0.9957623326263317,0.09006105363368988,-0.07070928066968918,-0.9934229850769043,0,0,0,-1,-1,2910.61828025,walking,2,2022-05-12T10:33:33.034+02:00,2022-05-11T22:15:20.957+02:00,375,0.8798808,0,0,297.2407,0,0,2022-05-12T10:33:33.034+02:00,674037215.5928795,0,0.75,100.8989,1,0.96
2022-05-12T10:33:38.161+02:00,1652344417.999543,53.22900320086749,10.39840600634724,36.69705,0.02896463,0.6489165,344.7301112603523,117.3044311117507,2.400000095367432,7.999579855010838,-9999,2915.744752625,-0.7815399169921875,0.4779205322265625,-1.203201293945312,2915.739754625,-0.2082253652566617,0.09826793930700581,0.02195002397070351,-4.40283727645874,0.8176069259643555,-6.548886775970459,-0.869921863079071,0.3244848251342773,-0.1932049989700317,XArbitraryZVertical,0.01600606111642411,0.04770613649047799,-0.103256918676921,0.9933811477387126,0.09808622300624847,-0.02194826118648052,-0.9949358701705933,0,0,0,-1,-1,2910.61828025,walking,2,2022-05-12T10:33:33.034+02:00,2022-05-11T22:15:20.957+02:00,375,0.8798808,0,0,297.2407,0,0,2022-05-12T10:33:35.593+02:00,674037215.5928795,0,0.75,100.8989,1,0.96
2022-05-12T10:33:38.171+02:00,1652344417.999543,53.22900320086749,10.39840600634724,36.69705,0.02896463,0.6489165,344.7301112603523,117.3044311117507,2.400000095367432,7.999579855010838,-9999,2915.754747625,-0.6960296630859375,0.566009521484375,-1.1881103515625,2915.749749625,-0.2684562396828337,0.1075487429733861,-0.02971447526067665,-4.667003154754639,1.133783578872681,-6.528840065002441,-0.9043983817100525,0.4113762378692627,-0.2287508845329285,XArbitraryZVertical,-0.007509656434585114,0.05524443417098212,-0.1344085553992487,0.9893564152208885,0.1072941496968269,0.02971010282635689,-0.9937832951545715,0,0,0,-1,-1,2910.61828025,walking,2,2022-05-12T10:33:33.034+02:00,2022-05-11T22:15:20.957+02:00,375,0.8798808,0,0,297.2407,0,0,2022-05-12T10:33:35.593+02:00,674037218.1522663,0,0.6899986,100.899,1,0.96
2022-05-12T10:33:38.181+02:00,1652344417.999543,53.22900320086749,10.39840600634724,36.69705,0.02896463,0.6489165,344.7301112603523,117.3044311117507,2.400000095367432,7.999579855010838,-9999,2915.764742625,-0.7203826904296875,0.7603912353515625,-1.166305541992188,2915.759744625,-0.3283331779467686,0.118508979856144,-0.08457365641103042,-4.862008094787598,1.76348090171814,-6.577406406402588,-0.8285791873931885,0.4296420216560364,-0.2025949954986572,XArbitraryZVertical,-0.03196299544575748,0.06526813137080835,-0.1654673162107885,0.9835340025033902,0.1178091913461685,0.08447287231683731,-0.9894368648529053,0,0,0,-1,-1,2910.61828025,walking,2,2022-05-12T10:33:33.034+02:00,2022-05-11T22:15:20.957+02:00,375,0.8798808,0,0,297.2407,0,0,2022-05-12T10:33:35.593+02:00,674037218.1522663,0,0.6899986,100.899,1,0.96
2022-05-12T10:33:38.191+02:00,1652344417.999543,53.22900320086749,10.39840600634724,36.69705,0.02896463,0.6489165,344.7301112603523,117.3044311117507,2.400000095367432,7.999579855010838,-9999,2915.774737625,-0.6220550537109375,0.88433837890625,-1.103591918945312,2915.769740625,-0.3869892304169439,0.1327387771737071,-0.1422743776431931,-5.103487968444824,2.395372867584229,-6.443275451660156,-0.8625035285949707,0.5106409192085266,-0.2028328776359558,XArbitraryZVertical,-0.05687670212657979,0.0785557151035379,-0.1960067649254871,0.9757947419127276,0.1310120671987534,0.1417948752641678,-0.9811880588531494,0,0,0,-1,-1,2910.61828025,walking,2,2022-05-12T10:33:33.034+02:00,2022-05-11T22:15:20.957+02:00,375,0.8798808,0,0,297.2407,0,0,2022-05-12T10:33:35.593+02:00,674037218.1522663,0,0.6899986,100.899,1,0.96
