loggingTime(txt),locationTimestamp_since1970(s),locationLatitude(WGS84),locationLongitude(WGS84),locationAltitude(m),locationSpeed(m/s),locationSpeedAccuracy(m/s),locationCourse(°),locationCourseAccuracy(°),locationVerticalAccuracy(m),locationHorizontalAccuracy(m),locationFloor(Z),accelerometerTimestamp_sinceReboot(s),accelerometerAccelerationX(G),accelerometerAccelerationY(G),accelerometerAccelerationZ(G),motionTimestamp_sinceReboot(s),motionYaw(rad),motionRoll(rad),motionPitch(rad),motionRotationRateX(rad/s),motionRotationRateY(rad/s),motionRotationRateZ(rad/s),motionUserAccelerationX(G),motionUserAccelerationY(G),motionUserAccelerationZ(G),motionAttitudeReferenceFrame(txt),motionQuaternionX(R),motionQuaternionY(R),motionQuaternionZ(R),motionQuaternionW(R),motionGravityX(G),motionGravityY(G),motionGravityZ(G),motionMagneticFieldX(µT),motionMagneticFieldY(µT),motionMagneticFieldZ(µT),motionHeading(°),motionMagneticFieldCalibrationAccuracy(Z),activityTimestamp_sinceReboot(s),activity(txt),activityActivityConfidence(Z),activityActivityStartDate(txt),pedometerStartDate(txt),pedometerNumberofSteps(N),pedometerAverageActivePace(s/m),pedometerCurrentPace(s/m),pedometerCurrentCadence(steps/s),pedometerDistance(m),pedometerFloorAscended(N),pedometerFloorDescended(N),pedometerEndDate(txt),altimeterTimestamp_sinceReboot(s),altimeterReset(bool),altimeterRelativeAltitude(m),altimeterPressure(kPa),batteryState(N),batteryLevel(R)
2022-05-12T10:34:39.988+02:00,1652344477.999615,53.22900590026121,10.39846317843571,37.46743,0,0.79,350.15625,17.59944064192565,3,5,-9999,2977.534541125,-0.0644989013671875,-0.5891265869140625,-0.797454833984375,2977.529543125,0.3753091605083076,-0.01415597695248809,0.605850548715849,-0.147325798869133,-0.1381611526012421,-0.2156500220298767,-0.009344719350337982,0.0388527512550354,0.01917052268981934,XArbitraryZVertical,-0.2943294499585242,-0.04901347057878276,-0.1759820731117697,-0.9380822481388248,-0.01163608022034168,-0.569461464881897,-0.8219357132911682,0,0,0,-1,-1,2969.470917125,walking,2,2022-05-12T10:34:31.887+02:00,2022-05-11T22:15:20.957+02:00,464,0.8430042,0.7690485,2.39026,367.4152,0,0,2022-05-12T10:34:39.561+02:00,674037279.5612237,0,-0.2700005,100.9112,1,0.95
2022-05-12T10:34:39.993+02:00,1652344477.999615,53.22900590026121,10.39846317843571,37.46743,0,0.79,350.15625,17.59944064192565,3,5,-9999,2977.544536125,0.025787353515625,-0.5346832275390625,-0.8070220947265625,2977.539538125,0.3731293897330742,-0.01355318779548509,0.6041947056179513,-0.1748218685388565,-0.0883999764919281,-0.129849910736084,-0.03506544977426529,0.0196533203125,0.0225757360458374,XArbitraryZVertical,-0.2935536735656235,-0.04882721735002044,-0.1750993013787003,-0.9385001141461411,-0.01115338783711195,-0.5680995583534241,-0.8228842616081238,0,0,0,-1,-1,2969.470917125,walking,2,2022-05-12T10:34:31.887+02:00,2022-05-11T22:15:20.957+02:00,464,0.8430042,0.7690485,2.39026,367.4152,0,0,2022-05-12T10:34:39.561+02:00,674037279.5612237,0,-0.2700005,100.9112,1,0.95
2022-05-12T10:34:39.996+02:00,1652344477.999615,53.22900590026121,10.39846317843571,37.46743,0,0.79,350.15625,17.59944064192565,3,5,-9999,2977.554531125,-0.02337646484375,-0.569061279296875,-0.8191680908203125,2977.549533125,0.3714084685927582,-0.01374845942519776,0.6025992364137823,-0.1620378941297531,-0.1272445768117905,-0.1517845094203949,-0.008342026732861996,0.003904819488525391,0.01587992906570435,XArbitraryZVertical,-0.2928643069226008,-0.04834072432481627,-0.1743119405686679,-0.9388871604758674,-0.01132652070373297,-0.5667858123779297,-0.8237873315811157,0,0,0,-1,-1,2969.470917125,walking,2,2022-05-12T10:34:31.887+02:00,2022-05-11T22:15:20.957+02:00,464,0.8430042,0.7690485,2.39026,367.4152,0,0,2022-05-12T10:34:39.561+02:00,674037279.5612237,0,-0.2700005,100.9112,1,0.95
2022-05-12T10:34:40.005+02:00,1652344477.999615,53.22900590026121,10.39846317843571,37.46743,0,0.79,350.15625,17.59944064192565,3,5,-9999,2977.564526125,-0.1125946044921875,-0.6082000732421875,-0.8329620361328125,2977.559528125,0.3703636823756895,-0.0142390787518376,0.6010178062096975,-0.1458394974470139,-0.08182836323976517,0.0832141637802124,0.0191439762711525,0.01856189966201782,0.01153570413589478,XArbitraryZVertical,-0.2921902006613996,-0.04781669973515749,-0.173798028651203,-0.9392192396519808,-0.01174343284219503,-0.5654821991920471,-0.8246768712997437,0,0,0,-1,-1,2969.470917125,walking,2,2022-05-12T10:34:31.887+02:00,2022-05-11T22:15:20.957+02:00,464,0.8430042,0.7690485,2.39026,367.4152,0,0,2022-05-12T10:34:39.561+02:00,674037279.5612237,0,-0.2700005,100.9112,1,0.95
2022-05-12T10:34:40.008+02:00,1652344477.999615,53.22900590026121,10.39846317843571,37.46743,0,0.79,350.15625,17.59944064192565,3,5,-9999,2977.574521125,-0.0021514892578125,-0.5751190185546875,-0.8260498046875,2977.569524125,0.3711320675881889,-0.01474586217780764,0.5991974168334857,-0.2414427101612091,0.03089925460517406,0.02712319791316986,-0.05021663010120392,-0.01090973615646362,0.002700388431549072,XArbitraryZVertical,-0.2913617380502436,-0.04752861382524178,-0.1741407642798536,-0.9394276622086865,-0.01217652205377817,-0.5639798641204834,-0.8256987333297729,0,0,0,-1,-1,2969.470917125,walking,2,2022-05-12T10:34:31.887+02:00,2022-05-11T22:15:20.957+02:00,464,0.8430042,0.7690485,2.39026,367.4152,0,0,2022-05-12T10:34:39.561+02:00,674037279.5612237,0,-0.2700005,100.9112,1,0.95
2022-05-12T10:34:40.010+02:00,1652344477.999615,53.22900590026121,10.39846317843571,37.46743,0,0.79,350.15625,17.59944064192565,3,5,-9999,2977.584516125,0.0114898681640625,-0.5449066162109375,-0.8345489501953125,2977.579519125,0.3712585250671601,-0.01538744099112649,0.5968854221017209,-0.2190764099359512,-0.09733940660953522,-0.003079445566982031,-0.07980296760797501,-0.0497315526008606,-0.007892608642578125,XArbitraryZVertical,-0.2903293765185271,-0.04703921186218382,-0.1741778826163999,-0.9397650225816286,-0.01272630039602518,-0.5620691776275635,-0.8269923329353333,0,0,0,-1,-1,2969.470917125,walking,2,2022-05-12T10:34:31.887+02:00,2022-05-11T22:15:20.957+02:00,464,0.8430042,0.7690485,2.39026,367.4152,0,0,2022-05-12T10:34:39.561+02:00,674037279.5612237,0,-0.2700005,100.9112,1,0.95
2022-05-12T10:34:40.011+02:00,1652344477.999615,53.22900590026121,10.39846317843571,37.46743,0,0.79,350.15625,17.59944064192565,3,5,-9999,2977.594511125,-0.0484466552734375,-0.573944091796875,-0.84765625,2977.589514125,0.3710453554477969,-0.01624502566739349,0.5947316795889838,-0.2038205415010452,-0.09151673316955566,-0.01834328658878803,0.05590512603521347,0.0142664909362793,0.001391768455505371,XArbitraryZVertical,-0.2893977527007693,-0.04641289108576301,-0.1740197366154757,-0.9401127029080216,-0.01345514412969351,-0.5602865219116211,-0.8281895518302917,0,0,0,-1,-1,2969.470917125,walking,2,2022-05-12T10:34:31.887+02:00,2022-05-11T22:15:20.957+02:00,464,0.8430042,0.7690485,2.39026,367.4152,0,0,2022-05-12T10:34:39.561+02:00,674037279.5612237,0,-0.2700005,100.9112,1,0.95
2022-05-12T10:34:40.022+02:00,1652344477.999615,53.22900590026121,10.39846317843571,37.46743,0,0.79,350.15625,17.59944064192565,3,5,-9999,2977.604506125,-0.017822265625,-0.5696563720703125,-0.847747802734375,2977.599509125,0.3705469835482693,-0.01674634099221033,0.5929651415264883,-0.1686060875654221,-0.06781353801488876,-0.05051480606198311,-0.02355816215276718,-0.001311957836151123,-0.01454877853393555,XArbitraryZVertical,-0.2886231206845881,-0.04594740150165409,-0.1737674731329557,-0.9404203329888389,-0.01388687919825315,-0.5588224530220032,-0.8291710615158081,0,0,0,-1,-1,2969.470917125,walking,2,2022-05-12T10:34:31.887+02:00,2022-05-11T22:15:20.957+02:00,464,0.8430042,0.7690485,2.39026,367.4152,0,0,2022-05-12T10:34:39.561+02:00,674037279.5612237,0,-0.2700005,100.9112,1,0.95
2022-05-12T10:34:40.047+02:00,1652344477.999615,53.22900590026121,10.39846317843571,37.46743,0,0.79,350.15625,17.59944064192565,3,5,-9999,2977.614501125,-0.008148193359375,-0.547637939453125,-0.8501434326171875,2977.609504125,0.3698514256872231,-0.0170399926065394,0.5913935104489799,-0.1441890597343445,-0.06961496919393539,-0.06236740574240685,-0.02152970433235168,-0.02152168750762939,-0.01985549926757812,XArbitraryZVertical,-0.2879260902243578,-0.04556879643573013,-0.1734464549784484,-0.9407117535705358,-0.01414531469345093,-0.5575184226036072,-0.8300440907478333,0,0,0,-1,-1,2969.470917125,walking,2,2022-05-12T10:34:31.887+02:00,2022-05-11T22:15:20.957+02:00,464,0.8430042,0.7690485,2.39026,367.4152,0,0,2022-05-12T10:34:39.561+02:00,674037279.5612237,0,-0.2700005,100.9112,1,0.95
2022-05-12T10:34:40.049+02:00,1652344477.999615,53.22900590026121,10.39846317843571,37.46743,0,0.79,350.15625,17.59944064192565,3,5,-9999,2977.624496125,-0.01312255859375,-0.5522308349609375,-0.8551177978515625,2977.619499125,0.3690561436250185,-0.01738763372826934,0.5900942573882115,-0.123501367866993,-0.07627340406179428,-0.07178354263305664,0.002956613898277283,0.0005010366439819336,-0.01727533340454102,XArbitraryZVertical,-0.2873636477177649,-0.04517512829696152,-0.1730623291506809,-0.9409734341641601,-0.01444645319133997,-0.5564393401145935,-0.8307626843452454,0,0,0,-1,-1,2969.470917125,walking,2,2022-05-12T10:34:31.887+02:00,2022-05-11T22:15:20.957+02:00,464,0.8430042,0.7690485,2.39026,367.4152,0,0,2022-05-12T10:34:39.561+02:00,674037279.5612237,0,-0.2700005,100.9112,1,0.95
2022-05-12T10:34:40.051+02:00,1652344477.999615,53.22900590026121,10.39846317843571,37.46743,0,0.79,350.15625,17.59944064192565,3,5,-9999,2977.634491125,-0.0143585205078125,-0.5615081787109375,-0.8558502197265625,2977.629494125,0.3681750276375058,-0.01764317850920842,0.589030169421486,-0.1062383875250816,-0.07199990004301071,-0.07164978235960007,0.002523221075534821,0.006742477416992188,-0.02234858274459839,XArbitraryZVertical,-0.2869053621142104,-0.04483376022370891,-0.1726437506072038,-0.9412064464279875,-0.01466918736696243,-0.5555548667907715,-0.8313505053520203,0,0,0,-1,-1,2969.470917125,walking,2,2022-05-12T10:34:31.887+02:00,2022-05-11T22:15:20.957+02:00,464,0.8430042,0.7690485,2.39026,367.4152,0,0,2022-05-12T10:34:39.561+02:00,674037279.5612237,0,-0.2700005,100.9112,1,0.95
2022-05-12T10:34:40.061+02:00,1652344477.999615,53.22900590026121,10.39846317843571,37.46743,0,0.79,350.15625,17.59944064192565,3,5,-9999,2977.644487125,-0.00823974609375,-0.56439208984375,-0.8594512939453125,2977.639489125,0.3672350067279282,-0.01779472750704815,0.588048034870823,-0.0945817306637764,-0.07501406222581863,-0.07404635846614838,-0.0007285401225090027,-0.002939760684967041,-0.02255332469940186,XArbitraryZVertical,-0.2864776516451217,-0.04454053538091838,-0.1722097340491275,-0.9414301014344564,-0.01480487920343876,-0.5547379851341248,-0.8318933844566345,0,0,0,-1,-1,2969.470917125,walking,2,2022-05-12T10:34:31.887+02:00,2022-05-11T22:15:20.957+02:00,464,0.8430042,0.7690485,2.39026,367.4152,0,0,2022-05-12T10:34:39.561+02:00,674037279.5612237,0,-0.2700005,100.9112,1,0.95
2022-05-12T10:34:40.071+02:00,1652344477.999615,53.22900590026121,10.39846317843571,37.46743,0,0.79,350.15625,17.59944064192565,3,5,-9999,2977.654482125,-0.0091094970703125,-0.5511016845703125,-0.8629150390625,2977.649484125,0.3663541122551678,-0.01812451666968886,0.587245436316738,-0.07834812998771667,-0.06981097906827927,-0.08021537959575653,0.002514071762561798,-0.009955406188964844,-0.0256686806678772,XArbitraryZVertical,-0.2861481125663627,-0.04418811241195184,-0.1717724232089502,-0.9416267556992788,-0.01508729159832001,-0.5540700554847717,-0.8323333263397217,0,0,0,-1,-1,2969.470917125,walking,2,2022-05-12T10:34:31.887+02:00,2022-05-11T22:15:20.957+02:00,464,0.8430042,0.7690485,2.39026,367.4152,0,0,2022-05-12T10:34:39.561+02:00,674037279.5612237,0,-0.2700005,100.9112,1,0.95
2022-05-12T10:34:40.081+02:00,1652344477.999615,53.22900590026121,10.39846317843571,37.46743,0,0.79,350.15625,17.59944064192565,3,5,-9999,2977.664477125,-0.01141357421875,-0.5478057861328125,-0.8647613525390625,2977.659479125,0.3654969808439327,-0.0184875126495235,0.586687651603953,-0.06154358386993408,-0.06394083797931671,-0.07975651323795319,0.007765769958496094,-0.005659103393554688,-0.02911901473999023,XArbitraryZVertical,-0.2859357260247879,-0.04384529824426749,-0.1713339932460299,-0.9417872300259699,-0.01539513561874628,-0.5536056160926819,-0.8326367139816284,0,0,0,-1,-1,2969.470917125,walking,2,2022-05-12T10:34:31.887+02:00,2022-05-11T22:15:20.957+02:00,464,0.8430042,0.7690485,2.39026,367.4152,0,0,2022-05-12T10:34:39.561+02:00,674037279.5612237,0,-0.2700005,100.9112,1,0.95
2022-05-12T10:34:40.091+02:00,1652344477.999615,53.22900590026121,10.39846317843571,37.46743,0,0.79,350.15625,17.59944064192565,3,5,-9999,2977.674472125,-0.0069580078125,-0.55120849609375,-0.861907958984375,2977.669474125,0.3644104247684499,-0.01836856681300974,0.5861190720267933,-0.05259406566619873,-0.06085749715566635,-0.07732364535331726,0.004285059869289398,0.005097806453704834,-0.03148818016052246,XArbitraryZVertical,-0.2856818463944609,-0.04369591427858539,-0.1708566716237111,-0.941957898413248,-0.01530187577009201,-0.5531319975852966,-0.8329530954360962,0,0,0,-1,-1,2969.470917125,walking,2,2022-05-12T10:34:31.887+02:00,2022-05-11T22:15:20.957+02:00,464,0.8430042,0.7690485,2.39026,367.4152,0,0,2022-05-12T10:34:39.561+02:00,674037279.5612237,0,-0.2700005,100.9112,1,0.95
2022-05-12T10:34:40.101+02:00,1652344477.999615,53.22900590026121,10.39846317843571,37.46743,0,0.79,350.15625,17.59944064192565,3,5,-9999,2977.684467125,-0.0109710693359375,-0.56060791015625,-0.8626861572265625,2977.679469125,0.3635208653867674,-0.01851872840719133,0.5855814993974862,-0.06034946069121361,-0.05725956708192825,-0.0768623873591423,0.007314808666706085,0.002208471298217773,-0.03052186965942383,XArbitraryZVertical,-0.2854610812271259,-0.04345088863437163,-0.170432606122297,-0.942113007715443,-0.01543245743960142,-0.5526840686798096,-0.8332479596138,0,0,0,-1,-1,2969.470917125,walking,2,2022-05-12T10:34:31.887+02:00,2022-05-11T22:15:20.957+02:00,464,0.8430042,0.7690485,2.39026,367.4152,0,0,2022-05-12T10:34:39.561+02:00,674037279.5612237,0,-0.2700005,100.9112,1,0.95
2022-05-12T10:34:40.111+02:00,1652344477.999615,53.22900590026121,10.39846317843571,37.46743,0,0.79,350.15625,17.59944064192565,3,5,-9999,2977.694462125,-0.0110931396484375,-0.556884765625,-0.8694915771484375,2977.689464125,0.3626614527264202,-0.01852141047627692,0.5849986119193593,-0.0619279146194458,-0.02776372618973255,-0.06901565194129944,0.006346442736685276,-0.001023948192596436,-0.02783483266830444,XArbitraryZVertical,-0.285205652965317,-0.04327588208249212,-0.1700450931575285,-0.9422683538728238,-0.01544065494090319,-0.5521982312202454,-0.8335698843002319,0,0,0,-1,-1,2969.470917125,walking,2,2022-05-12T10:34:31.887+02:00,2022-05-11T22:15:20.957+02:00,464,0.8430042,0.7690485,2.39026,367.4152,0,0,2022-05-12T10:34:39.561+02:00,674037279.5612237,0,-0.2700005,100.9112,1,0.95
2022-05-12T10:34:40.121+02:00,1652344477.999615,53.22900590026121,10.39846317843571,37.46743,0,0.79,350.15625,17.59944064192565,3,5,-9999,2977.704457125,-0.0091705322265625,-0.5506744384765625,-0.8685455322265625,2977.699459125,0.3618241423333093,-0.01827318683509104,0.584356424562421,-0.06314630806446075,-0.01936464942991734,-0.06782308965921402,0.003689341247081757,-0.01109623908996582,-0.03322923183441162,XArbitraryZVertical,-0.2849003902456177,-0.04321727384583458,-0.1697053980232437,-0.9424246516603667,-0.01524021942168474,-0.5516626834869385,-0.8339280486106873,0,0,0,-1,-1,2969.470917125,walking,2,2022-05-12T10:34:31.887+02:00,2022-05-11T22:15:20.957+02:00,464,0.8430042,0.7690485,2.39026,367.4152,0,0,2022-05-12T10:34:39.561+02:00,674037279.5612237,0,-0.2700005,100.9112,1,0.95
2022-05-12T10:34:40.131+02:00,1652344477.999615,53.22900590026121,10.39846317843571,37.46743,0,0.79,350.15625,17.59944064192565,3,5,-9999,2977.714452125,-0.00946044921875,-0.554229736328125,-0.8687286376953125,2977.709454125,0.3609718144556723,-0.01794535432119379,0.583656742229108,-0.07231630384922028,-0.01121764071285725,-0.07057027518749237,0.00468935165554285,-9.846687316894531e-05,-0.03344887495040894,XArbitraryZVertical,-0.2845616284024039,-0.04318932704700196,-0.1693714997415634,-0.9425882805652732,-0.01497375220060349,-0.5510789752006531,-0.8343186974525452,0,0,0,-1,-1,2969.470917125,walking,2,2022-05-12T10:34:31.887+02:00,2022-05-11T22:15:20.957+02:00,464,0.8430042,0.7690485,2.39026,367.4152,0,0,2022-05-12T10:34:39.561+02:00,674037279.5612237,0,-0.2700005,100.9112,1,0.95
2022-05-12T10:34:40.141+02:00,1652344477.999615,53.22900590026121,10.39846317843571,37.46743,0,0.79,350.15625,17.59944064192565,3,5,-9999,2977.724447125,-0.013671875,-0.556488037109375,-0.863922119140625,2977.719450125,0.3600995199481263,-0.01752195292421518,0.5828415123251987,-0.09299547970294952,-0.0007474224548786879,-0.07139984518289566,0.006724335253238678,-0.00227433443069458,-0.03508418798446655,XArbitraryZVertical,-0.2841607571247671,-0.04319384723068655,-0.1690449632898752,-0.9427676447678653,-0.01462836656719446,-0.5503985285758972,-0.8347738981246948,0,0,0,-1,-1,2969.470917125,walking,2,2022-05-12T10:34:31.887+02:00,2022-05-11T22:15:20.957+02:00,464,0.8430042,0.7690485,2.39026,367.4152,0,0,2022-05-12T10:34:39.561+02:00,674037279.5612237,0,-0.2700005,100.9112,1,0.95
2022-05-12T10:34:40.151+02:00,1652344477.999615,53.22900590026121,10.39846317843571,37.46743,0,0.79,350.15625,17.59944064192565,3,5,-9999,2977.734441875,-0.0133209228515625,-0.549468994140625,-0.8603515625,2977.729445125,0.3591959486686667,-0.01696024828896878,0.5819112834775096,-0.09038062393665314,0.01096069999039173,-0.07555417716503143,0.001884840428829193,-0.005446910858154297,-0.0308566689491272,XArbitraryZVertical,-0.2836947357762274,-0.04324956875338761,-0.1687263995972584,-0.942962446219713,-0.01416814420372248,-0.5496216416358948,-0.8352935314178467,0,0,0,-1,-1,2969.470917125,walking,2,2022-05-12T10:34:31.887+02:00,2022-05-11T22:15:20.957+02:00,464,0.8430042,0.7690485,2.39026,367.4152,0,0,2022-05-12T10:34:39.561+02:00,674037279.5612237,0,-0.2700005,100.9112,1,0.95
2022-05-12T10:34:40.161+02:00,1652344477.999615,53.22900590026121,10.39846317843571,37.46743,0,0.79,350.15625,17.59944064192565,3,5,-9999,2977.744436875,-0.008819580078125,-0.5338897705078125,-0.854644775390625,2977.739439875,0.3581926455197362,-0.0162298205510769,0.5811205197957929,-0.06789768487215042,0.02175262570381165,-0.0862310528755188,0.0001373514533042908,-0.003101706504821777,-0.02623128890991211,XArbitraryZVertical,-0.2832823552908644,-0.04338326661423973,-0.1683801488865385,-0.9431422285049881,-0.01356506906449795,-0.5489608645439148,-0.8357380032539368,0,0,0,-1,-1,2969.470917125,walking,2,2022-05-12T10:34:31.887+02:00,2022-05-11T22:15:20.957+02:00,464,0.8430042,0.7690485,2.39026,367.4152,0,0,2022-05-12T10:34:39.561+02:00,674037279.5612237,0,-0.2700005,100.9112,1,0.95
2022-05-12T10:34:40.171+02:00,1652344477.999615,53.22900590026121,10.39846317843571,37.46743,0,0.79,350.15625,17.59944064192565,3,5,-9999,2977.754431875,-0.0016326904296875,-0.5288848876953125,-0.851165771484375,2977.749434875,0.3571457644888761,-0.01542414960918152,0.5805588885217559,-0.03967833518981934,0.0244093295186758,-0.09007152915000916,-0.0002565681934356689,0.005660355091094971,-0.02164006233215332,XArbitraryZVertical,-0.2829727311139384,-0.04356655247469886,-0.168016894640168,-0.943291434366443,-0.01289648748934269,-0.548491358757019,-0.8360567688941956,0,0,0,-1,-1,2969.470917125,walking,2,2022-05-12T10:34:31.887+02:00,2022-05-11T22:15:20.957+02:00,464,0.8430042,0.7690485,2.39026,367.4152,0,0,2022-05-12T10:34:39.561+02:00,674037279.5612237,0,-0.2700005,100.9112,1,0.95
2022-05-12T10:34:40.181+02:00,1652344477.999615,53.22900590026121,10.39846317843571,37.46743,0,0.79,350.15625,17.59944064192565,3,5,-9999,2977.764426875,-0.0024871826171875,-0.5402069091796875,-0.8522491455078125,2977.759429875,0.3560255679390899,-0.01455098140054818,0.5802189163124722,-0.0258080568164587,0.02442264556884766,-0.09205452352762222,0.008125626482069492,0.01962780952453613,-0.01657509803771973,XArbitraryZVertical,-0.2827636880475197,-0.04379072023322034,-0.1676218401770047,-0.9434140579454569,-0.01216917764395475,-0.5482070446014404,-0.8362541198730469,0,0,0,-1,-1,2969.470917125,walking,2,2022-05-12T10:34:31.887+02:00,2022-05-11T22:15:20.957+02:00,464,0.8430042,0.7690485,2.39026,367.4152,0,0,2022-05-12T10:34:39.561+02:00,674037279.5612237,0,-0.2700005,100.9112,1,0.95
2022-05-12T10:34:40.191+02:00,1652344477.999615,53.22900590026121,10.39846317843571,37.46743,0,0.79,350.15625,17.59944064192565,3,5,-9999,2977.774421875,0.0012969970703125,-0.5478057861328125,-0.8543853759765625,2977.769424875,0.3548895486524079,-0.01366665244800661,0.5798803594715242,-0.03784507885575294,0.0266390610486269,-0.09598281979560852,0.01030305866152048,0.01287496089935303,-0.01483803987503052,XArbitraryZVertical,-0.2825550322645741,-0.04401833762542259,-0.1672206166495639,-0.9435370990207025,-0.01143218390643597,-0.5479238629341125,-0.8364500999450684,0,0,0,-1,-1,2969.470917125,walking,2,2022-05-12T10:34:31.887+02:00,2022-05-11T22:15:20.957+02:00,464,0.8430042,0.7690485,2.39026,367.4152,0,0,2022-05-12T10:34:39.561+02:00,674037279.5612237,0,-0.2700005,100.9112,1,0.95
2022-05-12T10:34:40.201+02:00,1652344477.999615,53.22900590026121,10.39846317843571,37.46743,0,0.79,350.15625,17.59944064192565,3,5,-9999,2977.784416875,0.0050811767578125,-0.5515899658203125,-0.8570404052734375,2977.779419875,0.3536991629931777,-0.01276062341659136,0.5794641707029143,-0.04610993340611458,0.02331836707890034,-0.1036234274506569,0.008586809039115906,0.00405806303024292,-0.01661425828933716,XArbitraryZVertical,-0.2823093919567954,-0.04424216108609878,-0.166798696036401,-0.9436749229206076,-0.01067724078893661,-0.5475756525993347,-0.8366881012916565,0,0,0,-1,-1,2969.470917125,walking,2,2022-05-12T10:34:31.887+02:00,2022-05-11T22:15:20.957+02:00,464,0.8430042,0.7690485,2.39026,367.4152,0,0,2022-05-12T10:34:39.561+02:00,674037279.5612237,0,-0.2700005,100.9112,1,0.95
2022-05-12T10:34:40.211+02:00,1652344477.999615,53.22900590026121,10.39846317843571,37.46743,0,0.79,350.15625,17.59944064192565,3,5,-9999,2977.794412875,-0.000823974609375,-0.5510101318359375,-0.856536865234375,2977.789414875,0.3524034950534958,-0.01182988627808578,0.5789763503434185,-0.04881893470883369,0.02339846082031727,-0.1152643114328384,0.01527277380228043,-0.003476083278656006,-0.01871800422668457,XArbitraryZVertical,-0.2820305522389778,-0.04445707594552205,-0.1663322515109682,-0.9438305704996269,-0.00990165863186121,-0.5471674203872681,-0.8369646668434143,0,0,0,-1,-1,2969.470917125,walking,2,2022-05-12T10:34:31.887+02:00,2022-05-11T22:15:20.957+02:00,464,0.8430042,0.7690485,2.39026,367.4152,0,0,2022-05-12T10:34:39.561+02:00,674037279.5612237,0,-0.2700005,100.9112,1,0.95
2022-05-12T10:34:40.221+02:00,1652344477.999615,53.22900590026121,10.39846317843571,37.46743,0,0.79,350.15625,17.59944064192565,3,5,-9999,2977.804407875,-0.0005645751953125,-0.549774169921875,-0.85504150390625,2977.799409875,0.3510167193771654,-0.01083384656481125,0.5784497369760276,-0.05218517035245895,0.02411564998328686,-0.116740494966507,0.01097849011421204,-0.004954516887664795,-0.02029740810394287,XArbitraryZVertical,-0.2817303734099823,-0.04468715181591187,-0.1658326970648955,-0.9439971867419447,-0.009071123786270618,-0.5467265248298645,-0.8372620940208435,0,0,0,-1,-1,2969.470917125,walking,2,2022-05-12T10:34:31.887+02:00,2022-05-11T22:15:20.957+02:00,464,0.8430042,0.7690485,2.39026,367.4152,0,0,2022-05-12T10:34:39.561+02:00,674037279.5612237,0,-0.2700005,100.9112,1,0.95
2022-05-12T10:34:40.231+02:00,1652344477.999615,53.22900590026121,10.39846317843571,37.46743,0,0.79,350.15625,17.59944064192565,3,5,-9999,2977.814402875,-0.0048828125,-0.5504913330078125,-0.8521575927734375,2977.809404875,0.3496195600781004,-0.009822098879071067,0.5778283960017466,-0.06962401419878006,0.02791105210781097,-0.1173992305994034,0.00792219489812851,-0.003475964069366455,-0.01889628171920776,XArbitraryZVertical,-0.2813847758996625,-0.04491571327877933,-0.1653325620368228,-0.9441770948320041,-0.00822735670953989,-0.5462061762809753,-0.8376103639602661,0,0,0,-1,-1,2969.470917125,walking,2,2022-05-12T10:34:31.887+02:00,2022-05-11T22:15:20.957+02:00,464,0.8430042,0.7690485,2.39026,367.4152,0,0,2022-05-12T10:34:39.561+02:00,674037279.5612237,0,-0.2700005,100.9112,1,0.95
2022-05-12T10:34:40.241+02:00,1652344477.999615,53.22900590026121,10.39846317843571,37.46743,0,0.79,350.15625,17.59944064192565,3,5,-9999,2977.824397875,-0.0068511962890625,-0.5589752197265625,-0.84478759765625,2977.819399875,0.3482690329269821,-0.00882097722653139,0.5769509978830689,-0.1022432148456573,0.0243754405528307,-0.106827549636364,0.00453965412452817,-0.004043281078338623,-0.01540356874465942,XArbitraryZVertical,-0.2809184797887341,-0.04512495768999814,-0.1648592653490003,-0.9443887114120854,-0.007393027190119028,-0.5454710125923157,-0.838097095489502,0,0,0,-1,-1,2969.470917125,walking,2,2022-05-12T10:34:31.887+02:00,2022-05-11T22:15:20.957+02:00,464,0.8430042,0.7690485,2.39026,367.4152,0,0,2022-05-12T10:34:39.561+02:00,674037279.5612237,0,-0.2700005,100.9112,1,0.95
2022-05-12T10:34:40.251+02:00,1652344477.999615,53.22900590026121,10.39846317843571,37.46743,0,0.79,350.15625,17.59944064192565,3,5,-9999,2977.834392875,-0.010009765625,-0.555816650390625,-0.8363037109375,2977.829394875,0.3469442278707384,-0.007871011219702561,0.5757684312926553,-0.1288891732692719,0.02623492665588856,-0.1144157573580742,-0.0001882086507976055,-0.01019221544265747,-0.01051050424575806,XArbitraryZVertical,-0.2803119954611231,-0.04528898226769081,-0.1643982936747319,-0.9446413950230544,-0.006601932924240828,-0.5444794893264771,-0.8387481570243835,0,0,0,-1,-1,2969.470917125,walking,2,2022-05-12T10:34:31.887+02:00,2022-05-11T22:15:20.957+02:00,464,0.8430042,0.7690485,2.39026,367.4152,0,0,2022-05-12T10:34:39.561+02:00,674037279.5612237,0,-0.2700005,100.9112,1,0.95
2022-05-12T10:34:40.261+02:00,1652344477.999615,53.22900590026121,10.39846317843571,37.46743,0,0.79,350.15625,17.59944064192565,3,5,-9999,2977.844387875,-0.0118255615234375,-0.5490264892578125,-0.826202392578125,2977.839389875,0.3455116895027491,-0.006863338231533407,0.5743314497384119,-0.1459168940782547,0.01735488325357437,-0.1242334991693497,-0.00290486216545105,-0.01579266786575317,-0.0007659196853637695,XArbitraryZVertical,-0.2795832325270367,-0.04544507046888423,-0.1639002199009586,-0.9449363398759252,-0.005762109532952309,-0.5432736277580261,-0.8395359516143799,0,0,0,-1,-1,2969.470917125,walking,2,2022-05-12T10:34:31.887+02:00,2022-05-11T22:15:20.957+02:00,464,0.8430042,0.7690485,2.39026,367.4152,0,0,2022-05-12T10:34:39.561+02:00,674037279.5612237,0,-0.2700005,100.9112,1,0.95
2022-05-12T10:34:40.271+02:00,1652344477.999615,53.22900590026121,10.39846317843571,37.46743,0,0.79,350.15625,17.59944064192565,3,5,-9999,2977.854382875,-0.0153045654296875,-0.5471343994140625,-0.817474365234375,2977.849384875,0.3439647700808472,-0.005901776153424891,0.5727632614818146,-0.1666731387376785,0.006402167025953531,-0.1342507898807526,-0.00599592924118042,-0.008626043796539307,0.009977877140045166,XArbitraryZVertical,-0.2787989200786657,-0.04555380411183393,-0.163343839081675,-0.9452592417760028,-0.004959863144904375,-0.54195636510849,-0.8403920531272888,0,0,0,-1,-1,2969.470917125,walking,2,2022-05-12T10:34:31.887+02:00,2022-05-11T22:15:20.957+02:00,464,0.8430042,0.7690485,2.39026,367.4152,0,0,2022-05-12T10:34:39.561+02:00,674037279.5612237,0,-0.2700005,100.9112,1,0.95
2022-05-12T10:34:40.281+02:00,1652344477.999615,53.22900590026121,10.39846317843571,37.46743,0,0.79,350.15625,17.59944064192565,3,5,-9999,2977.864377875,-0.0247955322265625,-0.550018310546875,-0.8140869140625,2977.859379875,0.3422962212884051,-0.0049709269645838,0.5709856351151326,-0.1844627857208252,0.0001985994167625904,-0.1444315016269684,-0.008314564824104309,-0.005833148956298828,0.0197637677192688,XArbitraryZVertical,-0.2779210005371368,-0.04561536411093439,-0.1627297328061767,-0.9456205911053085,-0.004182365257292986,-0.5404615998268127,-0.8413583040237427,0,0,0,-1,-1,2969.470917125,walking,2,2022-05-12T10:34:31.887+02:00,2022-05-11T22:15:20.957+02:00,464,0.8430042,0.7690485,2.39026,367.4152,0,0,2022-05-12T10:34:39.561+02:00,674037279.5612237,0,-0.2700005,100.9112,1,0.95
2022-05-12T10:34:40.291+02:00,1652344477.999615,53.22900590026121,10.39846317843571,37.46743,0,0.79,350.15625,17.59944064192565,3,5,-9999,2977.874372875,-0.033905029296875,-0.551422119140625,-0.7987213134765625,2977.869375875,0.3404373258090228,-0.003932758050721842,0.5690752893116003,-0.202741265296936,3.028754144906998e-05,-0.1596357673406601,-0.01489077508449554,-0.01064574718475342,0.02691733837127686,XArbitraryZVertical,-0.2769759357067184,-0.0456921688342556,-0.1620422991882372,-0.9460121034972861,-0.003312945365905762,-0.5388532876968384,-0.8423931002616882,0,0,0,-1,-1,2969.470917125,walking,2,2022-05-12T10:34:31.887+02:00,2022-05-11T22:15:20.957+02:00,464,0.8430042,0.7690485,2.39026,367.4152,0,0,2022-05-12T10:34:39.561+02:00,674037279.5612237,0,-0.2700005,100.9112,1,0.95
2022-05-12T10:34:40.301+02:00,1652344477.999615,53.22900590026121,10.39846317843571,37.46743,0,0.79,350.15625,17.59944064192565,3,5,-9999,2977.884367875,-0.044036865234375,-0.5643768310546875,-0.789276123046875,2977.879370875,0.3383590920599221,-0.002769789503630586,0.5668750164331431,-0.2543472051620483,0.003156838472932577,-0.1854812204837799,-0.02778428792953491,-0.01254630088806152,0.03623718023300171,XArbitraryZVertical,-0.2758886240635198,-0.04577626902775639,-0.1612735819970214,-0.9464570846859222,-0.002336544916033745,-0.5369985103607178,-0.8435800075531006,0,0,0,-1,-1,2969.470917125,walking,2,2022-05-12T10:34:31.887+02:00,2022-05-11T22:15:20.957+02:00,464,0.8430042,0.7690485,2.39026,367.4152,0,0,2022-05-12T10:34:39.561+02:00,674037279.5612237,0,-0.2700005,100.9112,1,0.95
2022-05-12T10:34:40.311+02:00,1652344477.999615,53.22900590026121,10.39846317843571,37.46743,0,0.79,350.15625,17.59944064192565,3,5,-9999,2977.894362875,-0.0605316162109375,-0.566741943359375,-0.7848663330078125,2977.889365875,0.335902361597314,-0.00135327916406485,0.5641786783653563,-0.2938084602355957,0.01796314865350723,-0.220819965004921,-0.03674399852752686,-0.02159774303436279,0.05269908905029297,XArbitraryZVertical,-0.2745548160696615,-0.04589114445486363,-0.1603700131251414,-0.9469927302289942,-0.001143558532930911,-0.5347219705581665,-0.8450273275375366,0,0,0,-1,-1,2969.470917125,walking,2,2022-05-12T10:34:31.887+02:00,2022-05-11T22:15:20.957+02:00,464,0.8430042,0.7690485,2.39026,367.4152,0,0,2022-05-12T10:34:39.561+02:00,674037279.5612237,0,-0.2700005,100.9112,1,0.95
2022-05-12T10:34:40.321+02:00,1652344477.999615,53.22900590026121,10.39846317843571,37.46743,0,0.79,350.15625,17.59944064192565,3,5,-9999,2977.904357875,-0.0895538330078125,-0.613922119140625,-0.7764739990234375,2977.899360875,0.3329824753810699,0.0003069997898029226,0.5606326656140675,-0.445046454668045,0.008701207116246223,-0.2875731587409973,-0.05192624777555466,-0.03802531957626343,0.05486536026000977,XArbitraryZVertical,-0.2728096172635269,-0.04599436072977913,-0.1592964877360523,-0.9476730433829758,0.0002600039297249168,-0.5317221283912659,-0.8469188809394836,0,0,0,-1,-1,2969.470917125,walking,2,2022-05-12T10:34:31.887+02:00,2022-05-11T22:15:20.957+02:00,464,0.8430042,0.7690485,2.39026,367.4152,0,0,2022-05-12T10:34:39.561+02:00,674037279.5612237,0,-0.2700005,100.9112,1,0.95
2022-05-12T10:34:40.331+02:00,1652344477.999615,53.22900590026121,10.39846317843571,37.46743,0,0.79,350.15625,17.59944064192565,3,5,-9999,2977.914352875,-0.09039306640625,-0.6235504150390625,-0.7670135498046875,2977.909355875,0.3294512163964233,0.002513710716969794,0.5555737002309104,-0.5767363905906677,0.05709011107683182,-0.3136304020881653,-0.07733093947172165,-0.05069369077682495,0.07627964019775391,XArbitraryZVertical,-0.2703174800629808,-0.04616064029829781,-0.1580352475048659,-0.9485897563670618,0.002135641407221556,-0.5274307727813721,-0.849595308303833,0,0,0,-1,-1,2969.470917125,walking,2,2022-05-12T10:34:31.887+02:00,2022-05-11T22:15:20.957+02:00,464,0.8430042,0.7690485,2.39026,367.4152,0,0,2022-05-12T10:34:39.561+02:00,674037279.5612237,0,-0.2700005,100.9112,1,0.95
2022-05-12T10:34:40.341+02:00,1652344477.999615,53.22900590026121,10.39846317843571,37.46743,0,0.79,350.15625,17.59944064192565,3,5,-9999,2977.924347875,-0.1077880859375,-0.6232452392578125,-0.74420166015625,2977.919350875,0.3252566562561502,0.005223773529440865,0.54868872525736,-0.8128504157066345,0.05531538277864456,-0.412397712469101,-0.09520096331834793,-0.1108006238937378,0.06920063495635986,XArbitraryZVertical,-0.2669331796303119,-0.04634552305833588,-0.1565551060461121,-0.9497838188581649,0.004456951282918453,-0.5215688943862915,-0.8531975150108337,0,0,0,-1,-1,2969.470917125,walking,2,2022-05-12T10:34:31.887+02:00,2022-05-11T22:15:20.957+02:00,464,0.8430042,0.7690485,2.39026,367.4152,0,0,2022-05-12T10:34:39.561+02:00,674037279.5612237,0,-0.2700005,100.9112,1,0.95
2022-05-12T10:34:40.351+02:00,1652344477.999615,53.22900590026121,10.39846317843571,37.46743,0,0.79,350.15625,17.59944064192565,3,5,-9999,2977.934342875,-0.109893798828125,-0.626739501953125,-0.7457122802734375,2977.929345875,0.3200741819218625,0.00857255752867896,0.5396031281145011,-1.004097938537598,0.06170151010155678,-0.488864928483963,-0.1055294498801231,-0.1045358777046204,0.112839937210083,XArbitraryZVertical,-0.2624734017165168,-0.04655247683616816,-0.1547164122752973,-0.9513167487586163,0.007354415953159332,-0.5137955546379089,-0.8578811883926392,0,0,0,-1,-1,2969.470917125,walking,2,2022-05-12T10:34:31.887+02:00,2022-05-11T22:15:20.957+02:00,464,0.8430042,0.7690485,2.39026,367.4152,0,0,2022-05-12T10:34:39.561+02:00,674037279.5612237,0,-0.2700005,100.9112,1,0.95
2022-05-12T10:34:40.361+02:00,1652344477.999615,53.22900590026121,10.39846317843571,37.46743,0,0.79,350.15625,17.59944064192565,3,5,-9999,2977.944338875,-0.129791259765625,-0.648834228515625,-0.7375030517578125,2977.939340875,0.3140960615054907,0.01208035866970734,0.5284978057726765,-1.217311501502991,0.04184098169207573,-0.5664476156234741,-0.1223246157169342,-0.120030403137207,0.1156689524650574,XArbitraryZVertical,-0.2570533695201992,-0.04660805330386553,-0.1525297442358983,-0.9531453322646241,0.01043192762881517,-0.50423663854599,-0.8635025024414062,0,0,0,-1,-1,2969.470917125,walking,2,2022-05-12T10:34:31.887+02:00,2022-05-11T22:15:20.957+02:00,464,0.8430042,0.7690485,2.39026,367.4152,0,0,2022-05-12T10:34:39.561+02:00,674037279.5612237,0,-0.2700005,100.9112,1,0.95
2022-05-12T10:34:40.371+02:00,1652344477.999615,53.22900590026121,10.39846317843571,37.46743,0,0.79,350.15625,17.59944064192565,3,5,-9999,2977.954333875,-0.1529083251953125,-0.6626129150390625,-0.7239532470703125,2977.949335875,0.3071288425190707,0.01606113355185821,0.5147982467343595,-1.519418716430664,0.05722273513674736,-0.6887158155441284,-0.1291674673557281,-0.1430772542953491,0.1275274753570557,XArbitraryZVertical,-0.2503745190829975,-0.04661212218751876,-0.1499377648485296,-0.9553316797874379,0.01397888269275427,-0.4923592507839203,-0.870279848575592,0,0,0,-1,-1,2969.470917125,walking,2,2022-05-12T10:34:31.887+02:00,2022-05-11T22:15:20.957+02:00,464,0.8430042,0.7690485,2.39026,367.4152,0,0,2022-05-12T10:34:39.561+02:00,674037279.5612237,0,-0.2700005,100.9112,1,0.95
2022-05-12T10:34:40.381+02:00,1652344477.999615,53.22900590026121,10.39846317843571,37.46743,0,0.79,350.15625,17.59944064192565,3,5,-9999,2977.964328875,-0.1690826416015625,-0.6557159423828125,-0.7196197509765625,2977.959330875,0.29896569492095,0.02063494242508075,0.4975453664680404,-1.929811835289001,0.07037502527236938,-0.7943269610404968,-0.1624952107667923,-0.1817108690738678,0.147017240524292,XArbitraryZVertical,-0.241966704267794,-0.04655415434260478,-0.1468463626736583,-0.9579775403373098,0.0181318074464798,-0.4772699475288391,-0.8785696625709534,0,0,0,-1,-1,2969.470917125,walking,2,2022-05-12T10:34:31.887+02:00,2022-05-11T22:15:20.957+02:00,464,0.8430042,0.7690485,2.39026,367.4152,0,0,2022-05-12T10:34:39.561+02:00,674037279.5612237,0,-0.2700005,100.9112,1,0.95
2022-05-12T10:34:40.391+02:00,1652344477.999615,53.22900590026121,10.39846317843571,37.46743,0,0.79,350.15625,17.59944064192565,3,5,-9999,2977.974323875,-0.2033233642578125,-0.66131591796875,-0.730865478515625,2977.969325875,0.2899357740781958,0.02554133444844612,0.4756039245701391,-2.419523239135742,0.07280076295137405,-0.9071838855743408,-0.1804800778627396,-0.1970160007476807,0.1697472929954529,XArbitraryZVertical,-0.231284145557416,-0.04630814462907105,-0.1433605192830161,-0.9611508585596165,0.02270419523119926,-0.4578754305839539,-0.8887264132499695,0,0,0,-1,-1,2969.470917125,walking,2,2022-05-12T10:34:31.887+02:00,2022-05-11T22:15:20.957+02:00,464,0.8430042,0.7690485,2.39026,367.4152,0,0,2022-05-12T10:34:39.561+02:00,674037279.5612237,0,-0.2700005,100.9112,1,0.95
2022-05-12T10:34:40.401+02:00,1652344477.999615,53.22900590026121,10.39846317843571,37.46743,0,0.79,350.15625,17.59944064192565,3,5,-9999,2977.984318875,-0.25885009765625,-0.673736572265625,-0.717132568359375,2977.979320875,0.2803025481218248,0.03088458730899221,0.44886601677468,-2.86421275138855,0.1508292555809021,-0.9742447137832642,-0.2128182947635651,-0.2252197265625,0.1744509339332581,XArbitraryZVertical,-0.2182421844241152,-0.04599225196102652,-0.1395761348626396,-0.9647660976777699,0.02782073058187962,-0.4339441657066345,-0.9005101323127747,0,0,0,-1,-1,2969.470917125,walking,2,2022-05-12T10:34:31.887+02:00,2022-05-11T22:15:20.957+02:00,464,0.8430042,0.7690485,2.39026,367.4152,0,0,2022-05-12T10:34:39.561+02:00,674037279.5612237,0,-0.2700005,100.9112,1,0.95
2022-05-12T10:34:40.411+02:00,1652344477.999615,53.22900590026121,10.39846317843571,37.46743,0,0.79,350.15625,17.59944064192565,3,5,-9999,2977.994313875,-0.2973175048828125,-0.6692657470703125,-0.70281982421875,2977.989315875,0.2701472147145341,0.03778768187682608,0.4168205014874949,-3.498448848724365,0.3327988982200623,-1.096604228019714,-0.2631207704544067,-0.269475907087326,0.1854563355445862,XArbitraryZVertical,-0.2024945085969937,-0.04617303730921898,-0.135599153355426,-0.9687501778231645,0.03454410657286644,-0.4048552215099335,-0.9137280583381653,0,0,0,-1,-1,2969.470917125,walking,2,2022-05-12T10:34:31.887+02:00,2022-05-11T22:15:20.957+02:00,464,0.8430042,0.7690485,2.39026,367.4152,0,0,2022-05-12T10:34:39.561+02:00,674037279.5612237,0,-0.2700005,100.9112,1,0.95
2022-05-12T10:34:40.421+02:00,1652344477.999615,53.22900590026121,10.39846317843571,37.46743,0,0.79,350.15625,17.59944064192565,3,5,-9999,2978.004308875,-0.326171875,-0.6830596923828125,-0.7353515625,2977.999310875,0.2594742148730575,0.045972449837854,0.3783854285128778,-4.126436233520508,0.5006843209266663,-1.183366537094116,-0.3251914083957672,-0.2950228452682495,0.2268185019493103,XArbitraryZVertical,-0.1835157985746828,-0.04670869366802823,-0.1313176215852079,-0.9730858182557354,0.04270541667938232,-0.36942058801651,-0.9282804727554321,0,0,0,-1,-1,2969.470917125,walking,2,2022-05-12T10:34:31.887+02:00,2022-05-11T22:15:20.957+02:00,464,0.8430042,0.7690485,2.39026,367.4152,0,0,2022-05-12T10:34:39.561+02:00,674037279.5612237,0,-0.2700005,100.9112,1,0.95
2022-05-12T10:34:40.431+02:00,1652344477.999615,53.22900590026121,10.39846317843571,37.46743,0,0.79,350.15625,17.59944064192565,3,5,-9999,2978.014303875,-0.355010986328125,-0.6600189208984375,-0.771575927734375,2978.009305875,0.2490054638735541,0.05543548863093335,0.3331639060407709,-4.789834022521973,0.6560742259025574,-1.247917413711548,-0.3642958402633667,-0.3516299724578857,0.2211942076683044,XArbitraryZVertical,-0.1610719676545072,-0.04770191367367371,-0.1269750608507819,-0.977577564882115,0.05236039683222771,-0.327034592628479,-0.9435607194900513,0,0,0,-1,-1,2969.470917125,walking,2,2022-05-12T10:34:31.887+02:00,2022-05-11T22:15:20.957+02:00,464,0.8430042,0.7690485,2.39026,367.4152,0,0,2022-05-12T10:34:39.561+02:00,674037279.5612237,0,-0.2700005,100.9112,1,0.95
2022-05-12T10:34:40.441+02:00,1652344477.999615,53.22900590026121,10.39846317843571,37.46743,0,0.79,350.15625,17.59944064192565,3,5,-9999,2978.024298875,-0.39801025390625,-0.60162353515625,-0.858489990234375,2978.019300875,0.2388020237595723,0.06627602486188809,0.2821394049341209,-5.225185394287109,0.89646315574646,-1.285689353942871,-0.4004773199558258,-0.4059755206108093,0.2071477770805359,XArbitraryZVertical,-0.1356171669135538,-0.04930826249252888,-0.1224947172386216,-0.981922510304126,0.06360901147127151,-0.2784110903739929,-0.9583533406257629,0,0,0,-1,-1,2969.470917125,walking,2,2022-05-12T10:34:31.887+02:00,2022-05-11T22:15:20.957+02:00,464,0.8430042,0.7690485,2.39026,367.4152,0,0,2022-05-12T10:34:39.561+02:00,674037279.5612237,0,-0.2700005,100.9112,1,0.95
2022-05-12T10:34:40.451+02:00,1652344477.999615,53.22900590026121,10.39846317843571,37.46743,0,0.79,350.15625,17.59944064192565,3,5,-9999,2978.034293875,-0.38836669921875,-0.528045654296875,-0.8626251220703125,2978.029296875,0.2299434106464574,0.07870994346676878,0.2273131715692071,-5.644923686981201,1.070685982704163,-1.247933149337769,-0.4637367725372314,-0.3996082544326782,0.1595523357391357,XArbitraryZVertical,-0.1080916020169554,-0.05183327659151044,-0.1183228780399632,-0.985712582362844,0.07660600543022156,-0.225360631942749,-0.9712590575218201,0,0,0,-1,-1,2969.470917125,walking,2,2022-05-12T10:34:31.887+02:00,2022-05-11T22:15:20.957+02:00,464,0.8430042,0.7690485,2.39026,367.4152,0,0,2022-05-12T10:34:39.561+02:00,674037279.5612237,0,-0.2700005,100.9112,1,0.95
2022-05-12T10:34:40.461+02:00,1652344477.999615,53.22900590026121,10.39846317843571,37.46743,0,0.79,350.15625,17.59944064192565,3,5,-9999,2978.044288875,-0.3933868408203125,-0.404937744140625,-0.8791046142578125,2978.039291875,0.2217437440007891,0.09128170479479218,0.1675362297603805,-6.140392780303955,1.170804381370544,-1.376286625862122,-0.4846541285514832,-0.4042907357215881,0.1120510101318359,XArbitraryZVertical,-0.07803937814107884,-0.05443390311820768,-0.1139360794100031,-0.9889213387163951,0.08987869322299957,-0.1667535901069641,-0.9818935990333557,0,0,0,-1,-1,2969.470917125,walking,2,2022-05-12T10:34:31.887+02:00,2022-05-11T22:15:20.957+02:00,464,0.8430042,0.7690485,2.39026,367.4152,0,0,2022-05-12T10:34:39.561+02:00,674037279.5612237,0,-0.2700005,100.9112,1,0.95
2022-05-12T10:34:40.471+02:00,1652344477.999615,53.22900590026121,10.39846317843571,37.46743,0,0.79,350.15625,17.59944064192565,3,5,-9999,2978.054283875,-0.4389801025390625,-0.2683868408203125,-0.8848876953125,2978.049286875,0.2136273226271104,0.1053995160013927,0.1028875718065837,-6.517022609710693,1.377816915512085,-1.466078162193298,-0.4779697060585022,-0.3722688555717468,0.1153208017349243,XArbitraryZVertical,-0.04544873212230369,-0.05778029891126641,-0.1090150017541763,-0.9913181230620938,0.1046481281518936,-0.102706141769886,-0.9891917109489441,0,0,0,-1,-1,2969.470917125,walking,2,2022-05-12T10:34:31.887+02:00,2022-05-11T22:15:20.957+02:00,464,0.8430042,0.7690485,2.39026,367.4152,0,0,2022-05-12T10:34:39.561+02:00,674037279.5612237,0,-0.2700005,100.9112,1,0.95
2022-05-12T10:34:40.481+02:00,1652344477.999615,53.22900590026121,10.39846317843571,37.46743,0,0.79,350.15625,17.59944064192565,3,5,-9999,2978.064278875,-0.4025115966796875,-0.12939453125,-0.871124267578125,2978.059281875,0.2067275354859569,0.1217203770742332,0.03557582876311982,-6.751116752624512,1.71699070930481,-1.441524386405945,-0.5542808771133423,-0.2985985279083252,0.1214439272880554,XArbitraryZVertical,-0.01138461326827889,-0.06232027833825438,-0.1040485521215299,-0.992552618377154,0.1213432028889656,-0.03556832671165466,-0.9919731616973877,0,0,0,-1,-1,2969.470917125,walking,2,2022-05-12T10:34:31.887+02:00,2022-05-11T22:15:20.957+02:00,464,0.8430042,0.7690485,2.39026,367.4152,0,0,2022-05-12T10:34:39.561+02:00,674037279.5612237,0,-0.2700005,100.9112,1,0.95
2022-05-12T10:34:40.491+02:00,1652344477.999615,53.22900590026121,10.39846317843571,37.46743,0,0.79,350.15625,17.59944064192565,3,5,-9999,2978.074273875,-0.371063232421875,-0.1092529296875,-0.9081268310546875,2978.069276875,0.2015159515021317,0.1399892625043245,-0.03461214870083072,-7.017761707305908,1.944031119346619,-1.429201483726501,-0.549773097038269,-0.2269874215126038,0.1014408469200134,XArbitraryZVertical,0.02420906730152999,-0.06783592817707929,-0.09912209251994619,-0.9924652593378749,0.1394489109516144,0.0346052385866642,-0.9896244406700134,0,0,0,-1,-1,2969.470917125,walking,2,2022-05-12T10:34:31.887+02:00,2022-05-11T22:15:20.957+02:00,464,0.8430042,0.7690485,2.39026,367.4152,0,0,2022-05-12T10:34:39.561+02:00,674037279.5612237,0,-0.2700005,100.9112,1,0.95
2022-05-12T10:34:40.501+02:00,1652344477.999615,53.22900590026121,10.39846317843571,37.46743,0,0.79,350.15625,17.59944064192565,3,5,-9999,2978.084268875,-0.3133392333984375,-0.0076141357421875,-0.9091949462890625,2978.079271875,0.1977775462988412,0.1602532587271635,-0.1064887975296532,-7.152656555175781,2.214752912521362,-1.452416181564331,-0.5595738291740417,-0.221063643693924,0.09832471609115601,XArbitraryZVertical,0.06068037599350043,-0.0742996419934368,-0.09403254488847372,-0.9909366666902325,0.158664345741272,0.1062876507639885,-0.9815949201583862,0,0,0,-1,-1,2969.470917125,walking,2,2022-05-12T10:34:31.887+02:00,2022-05-11T22:15:20.957+02:00,464,0.8430042,0.7690485,2.39026,367.4152,0,0,2022-05-12T10:34:39.561+02:00,674037279.5612237,0,-0.2700005,100.9112,1,0.95
2022-05-12T10:34:40.511+02:00,1652344477.999615,53.22900590026121,10.39846317843571,37.46743,0,0.79,350.15625,17.59944064192565,3,5,-9999,2978.094263875,-0.232757568359375,0.052001953125,-0.9263458251953125,2978.089266875,0.1958866732421804,0.1828036902538504,-0.1806092581315745,-7.340832233428955,2.266156196594238,-1.45797061920166,-0.5035222172737122,-0.2485217601060867,0.04467499256134033,XArbitraryZVertical,0.09826418097154065,-0.08168525824240662,-0.08878996867525102,-0.9878198548699018,0.1788303852081299,0.1796289533376694,-0.9673433303833008,0,0,0,-1,-1,2969.470917125,walking,2,2022-05-12T10:34:31.887+02:00,2022-05-11T22:15:20.957+02:00,464,0.8430042,0.7690485,2.39026,367.4152,0,0,2022-05-12T10:34:39.561+02:00,674037279.5612237,0,-0.2700005,100.9112,1,0.95
2022-05-12T10:34:40.523+02:00,1652344477.999615,53.22900590026121,10.39846317843571,37.46743,0,0.79,350.15625,17.59944064192565,3,5,-9999,2978.104259875,-0.3093109130859375,0.1619110107421875,-0.9599151611328125,2978.099261875,0.1962638388674094,0.2074305596305112,-0.255947631701288,-7.406510829925537,2.619011878967285,-1.467229843139648,-0.5018649101257324,-0.2243683040142059,0.03831464052200317,XArbitraryZVertical,0.136388565349585,-0.089752028390925,-0.08350178334739358,-0.983041326908339,0.1992372870445251,0.253162294626236,-0.9466854929924011,0,0,0,-1,-1,2969.470917125,walking,2,2022-05-12T10:34:31.887+02:00,2022-05-11T22:15:20.957+02:00,464,0.8430042,0.7690485,2.39026,367.4152,0,0,2022-05-12T10:34:39.561+02:00,674037279.5612237,0,-0.2700005,100.9112,1,0.95
2022-05-12T10:34:40.545+02:00,1652344477.999615,53.22900590026121,10.39846317843571,37.46743,0,0.79,350.15625,17.59944064192565,3,5,-9999,2978.114254875,-0.162353515625,0.3607025146484375,-0.920562744140625,2978.109256875,0.1981767492060227,0.2357250189687161,-0.3310217293380188,-7.30384349822998,2.816224336624146,-1.44563901424408,-0.4641550779342651,-0.2510494887828827,-0.02564811706542969,XArbitraryZVertical,0.174284380795452,-0.09922829429583314,-0.07761883633309473,-0.9766033715135002,0.2208688706159592,0.3250094652175903,-0.9195573925971985,0,0,0,-1,-1,2969.470917125,walking,2,2022-05-12T10:34:31.887+02:00,2022-05-11T22:15:20.957+02:00,464,0.8430042,0.7690485,2.39026,367.4152,0,0,2022-05-12T10:34:39.561+02:00,674037279.5612237,0,-0.2700005,100.9112,1,0.95
2022-05-12T10:34:40.548+02:00,1652344477.999615,53.22900590026121,10.39846317843571,37.46743,0,0.79,350.15625,17.59944064192565,3,5,-9999,2978.124249875,-0.1742706298828125,0.4290313720703125,-0.959075927734375,2978.119251875,0.2024123931837541,0.2654573175046097,-0.4039289450331641,-6.995286464691162,3.024770021438599,-1.370920777320862,-0.5161706209182739,-0.120603084564209,-0.05741703510284424,XArbitraryZVertical,0.2109114595127425,-0.1088975174566403,-0.07169870362720397,-0.9687708481423244,0.2412376403808594,0.3930341303348541,-0.8873153924942017,0,0,0,-1,-1,2969.470917125,walking,2,2022-05-12T10:34:31.887+02:00,2022-05-11T22:15:20.957+02:00,464,0.8430042,0.7690485,2.39026,367.4152,0,0,2022-05-12T10:34:39.561+02:00,674037279.5612237,0,-0.2700005,100.9112,1,0.95
2022-05-12T10:34:40.551+02:00,1652344477.999615,53.22900590026121,10.39846317843571,37.46743,0,0.79,350.15625,17.59944064192565,3,5,-9999,2978.134244875,-0.1653594970703125,0.506591796875,-0.9545440673828125,2978.129246875,0.2092978953221227,0.2993693334221377,-0.472769884866771,-6.601843357086182,3.178286552429199,-1.252349853515625,-0.3778333067893982,-0.0334937572479248,-0.0936238169670105,XArbitraryZVertical,0.2454483532640639,-0.1199966783594738,-0.06568482718282173,-0.9597090432597423,0.2625682651996613,0.4553540945053101,-0.8507118225097656,0,0,0,-1,-1,2969.470917125,walking,2,2022-05-12T10:34:31.887+02:00,2022-05-11T22:15:20.957+02:00,464,0.8430042,0.7690485,2.39026,367.4152,0,0,2022-05-12T10:34:39.561+02:00,674037279.5612237,0,-0.2700005,100.9112,1,0.95
2022-05-12T10:34:40.561+02:00,1652344477.999615,53.22900590026121,10.39846317843571,37.46743,0,0.79,350.15625,17.59944064192565,3,5,-9999,2978.144239875,-0.1532135009765625,0.53485107421875,-0.9213409423828125,2978.139241875,0.2187269541144062,0.3363123065578018,-0.5372296683036797,-6.162047863006592,3.331643342971802,-1.208345651626587,-0.4884760677814484,-0.05902904272079468,-0.1386765837669373,XArbitraryZVertical,0.2777016754254329,-0.1318407266585676,-0.05959467637824499,-0.9497096016569186,0.2835198938846588,0.5117579102516174,-0.8109996318817139,0,0,0,-1,-1,2969.470917125,walking,2,2022-05-12T10:34:31.887+02:00,2022-05-11T22:15:20.957+02:00,464,0.8430042,0.7690485,2.39026,367.4152,0,0,2022-05-12T10:34:39.561+02:00,674037279.5612237,0,-0.2700005,100.9112,1,0.95
2022-05-12T10:34:40.572+02:00,1652344477.999615,53.22900590026121,10.39846317843571,37.46743,0,0.79,350.15625,17.59944064192565,3,5,-9999,2978.154234875,-0.1380462646484375,0.6451416015625,-0.844390869140625,2978.149236875,0.2298109580216145,0.3769800811920971,-0.5971144839160853,-5.709663867950439,3.630829572677612,-1.187859654426575,-0.4468878209590912,-0.03257972002029419,-0.1818057894706726,XArbitraryZVertical,0.3075592649571109,-0.144778920399028,-0.05288831559117908,-0.9389618508040611,0.3044163584709167,0.5622586011886597,-0.7688927054405212,0,0,0,-1,-1,2969.470917125,walking,2,2022-05-12T10:34:31.887+02:00,2022-05-11T22:15:20.957+02:00,464,0.8430042,0.7690485,2.39026,367.4152,0,0,2022-05-12T10:34:39.561+02:00,674037279.5612237,0,-0.2700005,100.9112,1,0.95
2022-05-12T10:34:40.581+02:00,1652344477.999615,53.22900590026121,10.39846317843571,37.46743,0,0.79,350.15625,17.59944064192565,3,5,-9999,2978.164229875,-0.0556488037109375,0.6478424072265625,-0.775848388671875,2978.159231875,0.2436028339109857,0.4225282297423651,-0.6520330070328249,-5.308650493621826,3.843582630157471,-1.028372764587402,-0.4900056719779968,-0.01816475391387939,-0.1569632291793823,XArbitraryZVertical,0.3349672827499415,-0.1591307279763667,-0.04587924316928439,-0.9275610255978832,0.3259430229663849,0.6068035960197449,-0.7249486446380615,0,0,0,-1,-1,2969.470917125,walking,2,2022-05-12T10:34:31.887+02:00,2022-05-11T22:15:20.957+02:00,464,0.8430042,0.7690485,2.39026,367.4152,0,0,2022-05-12T10:34:39.561+02:00,674037279.5612237,0,-0.2700005,100.9112,1,0.95
2022-05-12T10:34:40.593+02:00,1652344477.999615,53.22900590026121,10.39846317843571,37.46743,0,0.79,350.15625,17.59944064192565,3,5,-9999,2978.174224875,-0.020416259765625,0.7104644775390625,-0.7319793701171875,2978.169226875,0.2610382833797246,0.4728756349463454,-0.7029385138654326,-5.053391456604004,4.056867599487305,-0.9415034055709839,-0.4368685185909271,0.008018076419830322,-0.1273877620697021,XArbitraryZVertical,0.3604750279334172,-0.1744900991678747,-0.03883501209581493,-0.9154795770720183,0.3474823534488678,0.6464623808860779,-0.6792219281196594,0,0,0,-1,-1,2969.470917125,walking,2,2022-05-12T10:34:31.887+02:00,2022-05-11T22:15:20.957+02:00,464,0.8430042,0.7690485,2.39026,367.4152,0,0,2022-05-12T10:34:39.561+02:00,674037279.5612237,0,-0.2700005,100.9112,1,0.95
2022-05-12T10:34:40.601+02:00,1652344477.999615,53.22900590026121,10.39846317843571,37.46743,0,0.79,350.15625,17.59944064192565,3,5,-9999,2978.184219875,0.0314788818359375,0.81085205078125,-0.6856689453125,2978.179222875,0.2818439888039996,0.5283491579261275,-0.7505421961270069,-4.800980091094971,4.280704975128174,-0.8919912576675415,-0.4104733765125275,-0.02433526515960693,-0.1227056980133057,XArbitraryZVertical,0.3844246303424884,-0.1908383332134886,-0.03139240821397082,-0.9026699561130559,0.3686640858650208,0.6820353865623474,-0.6315968632698059,0,0,0,-1,-1,2969.470917125,walking,2,2022-05-12T10:34:31.887+02:00,2022-05-11T22:15:20.957+02:00,464,0.8430042,0.7690485,2.39026,367.4152,0,0,2022-05-12T10:34:39.561+02:00,674037279.5612237,0,-0.2700005,100.9112,1,0.95
2022-05-12T10:34:40.611+02:00,1652344477.999615,53.22900590026121,10.39846317843571,37.46743,0,0.79,350.15625,17.59944064192565,3,5,-9999,2978.194214875,0.0570068359375,0.8005828857421875,-0.6474761962890625,2978.189217875,0.3061435994943668,0.5894383325297452,-0.7950267366242106,-4.57472038269043,4.411834239959717,-0.8270356059074402,-0.3690864741802216,0.06413328647613525,-0.1230865120887756,XArbitraryZVertical,0.4069400690327734,-0.2082085053575111,-0.02338988111906283,-0.889101771210462,0.3892736732959747,0.7138823270797729,-0.5820980072021484,0,0,0,-1,-1,2969.470917125,walking,2,2022-05-12T10:34:31.887+02:00,2022-05-11T22:15:20.957+02:00,464,0.8430042,0.7690485,2.39026,367.4152,0,0,2022-05-12T10:34:39.561+02:00,674037279.5612237,0,-0.2700005,100.9112,1,0.95
2022-05-12T10:34:40.622+02:00,1652344477.999615,53.22900590026121,10.39846317843571,37.46743,0,0.79,350.15625,17.59944064192565,3,5,-9999,2978.204209875,0.12969970703125,0.8817138671875,-0.6016387939453125,2978.199212875,0.3364538719613704,0.6565003941247405,-0.8353272354755035,-4.372422695159912,4.588413715362549,-0.5652838945388794,-0.3186688423156738,0.0730443000793457,-0.1241082549095154,XArbitraryZVertical,0.4278870686521045,-0.2262249484511897,-0.01594796342596499,-0.8749174892665528,0.4095041751861572,0.74151611328125,-0.5314698815345764,0,0,0,-1,-1,2969.470917125,walking,2,2022-05-12T10:34:31.887+02:00,2022-05-11T22:15:20.957+02:00,464,0.8430042,0.7690485,2.39026,367.4152,0,0,2022-05-12T10:34:39.561+02:00,674037279.5612237,0,-0.2700005,100.9112,1,0.95
2022-05-12T10:34:40.631+02:00,1652344477.999615,53.22900590026121,10.39846317843571,37.46743,0,0.79,350.15625,17.59944064192565,3,5,-9999,2978.214204875,0.16448974609375,0.9042816162109375,-0.5513763427734375,2978.209207875,0.3717258278411113,0.7296281068877412,-0.8710081787768892,-4.069425106048584,4.678559303283691,-0.3963487148284912,-0.3343979716300964,0.06238389015197754,-0.1410913467407227,XArbitraryZVertical,0.4470929624596526,-0.2450737405256325,-0.00859954051160124,-0.8602167296506897,0.4293226599693298,0.7649786472320557,-0.4800934791564941,0,0,0,-1,-1,2969.470917125,walking,2,2022-05-12T10:34:31.887+02:00,2022-05-11T22:15:20.957+02:00,464,0.8430042,0.7690485,2.39026,367.4152,0,0,2022-05-12T10:34:39.561+02:00,674037279.5612237,0,-0.2700005,100.9112,1,0.95
2022-05-12T10:34:40.641+02:00,1652344478.999611,53.22900590026121,10.39846317843571,37.53085,0,0.73,350.15625,18.39234534984138,3,5,-9999,2978.224199875,0.161712646484375,0.88201904296875,-0.425872802734375,2978.219202875,0.4120837523981714,0.8084571006382776,-0.9019491794832095,-3.968331336975098,4.826873779296875,-0.2472830563783646,-0.3047807514667511,0.1250702738761902,-0.1534265577793121,XArbitraryZVertical,0.4646620783457692,-0.2645187235522541,-0.001497710595741566,-0.8450543220528379,0.4484572410583496,0.7845370769500732,-0.4282380044460297,0,0,0,-1,-1,2969.470917125,walking,2,2022-05-12T10:34:31.887+02:00,2022-05-11T22:15:20.957+02:00,464,0.8430042,0.7690485,2.39026,367.4152,0,0,2022-05-12T10:34:39.561+02:00,674037279.5612237,0,-0.2700005,100.9112,1,0.95
2022-05-12T10:34:40.651+02:00,1652344478.999611,53.22900590026121,10.39846317843571,37.53085,0,0.73,350.15625,18.39234534984138,3,5,-9999,2978.234194875,0.2709197998046875,0.944671630859375,-0.292572021484375,2978.229197875,0.4591393426622525,0.8943794488325224,-0.9293706020006007,-3.970836162567139,4.872543811798096,-0.09303995966911316,-0.3089584410190582,0.08582651615142822,-0.1211502850055695,XArbitraryZVertical,0.4814421997819819,-0.2844866371060487,0.005282276920984669,-0.8290071296046032,0.4665966928005219,0.8012434840202332,-0.3745615184307098,0,0,0,-1,-1,2969.470917125,walking,2,2022-05-12T10:34:31.887+02:00,2022-05-11T22:15:20.957+02:00,464,0.8430042,0.7690485,2.39026,367.4152,0,0,2022-05-12T10:34:39.561+02:00,674037279.5612237,0,-0.2700005,100.9112,1,0.95
2022-05-12T10:34:40.661+02:00,1652344478.999611,53.22900590026121,10.39846317843571,37.53085,0,0.73,350.15625,18.39234534984138,3,5,-9999,2978.244189875,0.3361663818359375,1.02001953125,-0.17877197265625,2978.239192875,0.513650824751009,0.9870995254135989,-0.9529066984125236,-3.991055011749268,4.876955986022949,0.0649760365486145,-0.2773147821426392,0.08553236722946167,-0.04254740476608276,XArbitraryZVertical,0.4975852126956775,-0.3045893740468906,0.01136884913938198,-0.8120992762505822,0.4833996891975403,0.8151028156280518,-0.319268524646759,0,0,0,-1,-1,2969.470917125,walking,2,2022-05-12T10:34:31.887+02:00,2022-05-11T22:15:20.957+02:00,464,0.8430042,0.7690485,2.39026,367.4152,0,0,2022-05-12T10:34:39.561+02:00,674037279.5612237,0,-0.2700005,100.9112,1,0.95
2022-05-12T10:34:40.671+02:00,1652344478.999611,53.22900590026121,10.39846317843571,37.53085,0,0.73,350.15625,18.39234534984138,3,5,-9999,2978.254184875,0.3626861572265625,1.029434204101562,-0.108489990234375,2978.249187875,0.5745717250923217,1.085786350618818,-0.9718119153393787,-3.90704345703125,4.895573616027832,0.2371761053800583,-0.1794908940792084,0.1719555854797363,0.0319749116897583,XArbitraryZVertical,0.5129137025240207,-0.3247952322360195,0.01684837047907976,-0.7944456238832004,0.4987807869911194,0.8259086608886719,-0.2628551721572876,0,0,0,-1,-1,2969.470917125,walking,2,2022-05-12T10:34:31.887+02:00,2022-05-11T22:15:20.957+02:00,464,0.8430042,0.7690485,2.39026,367.4152,0,0,2022-05-12T10:34:39.561+02:00,674037279.5612237,0,-0.2700005,100.9112,1,0.95
2022-05-12T10:34:40.681+02:00,1652344478.999611,53.22900590026121,10.39846317843571,37.53085,0,0.73,350.15625,18.39234534984138,3,5,-9999,2978.264180875,0.3709564208984375,1.104507446289062,-0.029296875,2978.259182875,0.6387820560274139,1.188305047987733,-0.9849783248345275,-3.715898990631104,4.927081108093262,0.3806909024715424,-0.1636707186698914,0.1827925443649292,0.06925368309020996,XArbitraryZVertical,0.5268598546025192,-0.3453142825613883,0.02204383380456218,-0.776331692739572,0.51292884349823,0.8332601189613342,-0.206353485584259,0,0,0,-1,-1,2969.470917125,walking,2,2022-05-12T10:34:31.887+02:00,2022-05-11T22:15:20.957+02:00,464,0.8430042,0.7690485,2.39026,367.4152,0,0,2022-05-12T10:34:39.561+02:00,674037279.5612237,0,-0.2700005,100.9112,1,0.95
