loggingTime(txt),locationTimestamp_since1970(s),locationLatitude(WGS84),locationLongitude(WGS84),locationAltitude(m),locationSpeed(m/s),locationSpeedAccuracy(m/s),locationCourse(°),locationCourseAccuracy(°),locationVerticalAccuracy(m),locationHorizontalAccuracy(m),locationFloor(Z),accelerometerTimestamp_sinceReboot(s),accelerometerAccelerationX(G),accelerometerAccelerationY(G),accelerometerAccelerationZ(G),motionTimestamp_sinceReboot(s),motionYaw(rad),motionRoll(rad),motionPitch(rad),motionRotationRateX(rad/s),motionRotationRateY(rad/s),motionRotationRateZ(rad/s),motionUserAccelerationX(G),motionUserAccelerationY(G),motionUserAccelerationZ(G),motionAttitudeReferenceFrame(txt),motionQuaternionX(R),motionQuaternionY(R),motionQuaternionZ(R),motionQuaternionW(R),motionGravityX(G),motionGravityY(G),motionGravityZ(G),motionMagneticFieldX(µT),motionMagneticFieldY(µT),motionMagneticFieldZ(µT),motionHeading(°),motionMagneticFieldCalibrationAccuracy(Z),activityTimestamp_sinceReboot(s),activity(txt),activityActivityConfidence(Z),activityActivityStartDate(txt),pedometerStartDate(txt),pedometerNumberofSteps(N),pedometerAverageActivePace(s/m),pedometerCurrentPace(s/m),pedometerCurrentCadence(steps/s),pedometerDistance(m),pedometerFloorAscended(N),pedometerFloorDescended(N),pedometerEndDate(txt),altimeterTimestamp_sinceReboot(s),altimeterReset(bool),altimeterRelativeAltitude(m),altimeterPressure(kPa),batteryState(N),batteryLevel(R)
2022-05-12T10:35:43.320+02:00,1652344541.999942,53.22897886862348,10.39839704521969,38.22744,0.17,0.76,288.984375,92.35725105121131,4,5,-9999,3040.2490165,0.01580810546875,-0.5218353271484375,-0.8424835205078125,3040.2390215,-2.510980504399511,0.01552726909827299,0.5433058438807818,-0.1093681007623672,-0.04082992672920227,-0.1291102170944214,-0.01451177895069122,0.01101714372634888,0.01587462425231934,XArbitraryZVertical,-0.09031696742159594,0.2527691800300326,0.9151644849622561,-0.3007069254551818,0.01329087559133768,-0.5169686079025269,-0.8559011816978455,0,0,0,-1,-1,3037.912131,walking,2,2022-05-12T10:35:40.947+02:00,2022-05-11T22:15:20.957+02:00,532,0.870363,0.786095,1.803134,416.0347,0,0,2022-05-12T10:35:40.946+02:00,674037340.946386,0,-0.04000092,100.9078,1,0.95
2022-05-12T10:35:43.325+02:00,1652344541.999942,53.22897886862348,10.39839704521969,38.22744,0.17,0.76,288.984375,92.35725105121131,4,5,-9999,3040.2590115,0.022186279296875,-0.52459716796875,-0.854949951171875,3040.2490165,-2.512545693979491,0.01587674702034386,0.5421296927236374,-0.1333214938640594,-0.05467277020215988,-0.1419972479343414,-0.004902318120002747,0.001571893692016602,0.01548546552658081,XArbitraryZVertical,-0.090104998734426,0.2522482444986769,0.9155350144160361,-0.300079244701336,0.01359963696449995,-0.5159614682197571,-0.8565038442611694,0,0,0,-1,-1,3037.912131,walking,2,2022-05-12T10:35:40.947+02:00,2022-05-11T22:15:20.957+02:00,532,0.870363,0.786095,1.803134,416.0347,0,0,2022-05-12T10:35:40.946+02:00,674037340.946386,0,-0.04000092,100.9078,1,0.95
2022-05-12T10:35:43.328+02:00,1652344541.999942,53.22897886862348,10.39839704521969,38.22744,0.17,0.76,288.984375,92.35725105121131,4,5,-9999,3040.2690065,0.0059356689453125,-0.512237548828125,-0.8758697509765625,3040.2590115,-2.514214217232886,0.01611284668335005,0.5407922541315126,-0.1426084786653519,-0.07028155773878098,-0.146419957280159,0.00793062150478363,-0.01043850183486938,0.01089191436767578,XArbitraryZVertical,-0.08980518546895958,0.2516746222134325,0.9159461966586199,-0.2993954478847604,0.01381296385079622,-0.5148153305053711,-0.8571898341178894,0,0,0,-1,-1,3037.912131,walking,2,2022-05-12T10:35:40.947+02:00,2022-05-11T22:15:20.957+02:00,532,0.870363,0.786095,1.803134,416.0347,0,0,2022-05-12T10:35:40.946+02:00,674037340.946386,0,-0.04000092,100.9078,1,0.95
2022-05-12T10:35:43.331+02:00,1652344541.999942,53.22897886862348,10.39839704521969,38.22744,0.17,0.76,288.984375,92.35725105121131,4,5,-9999,3040.2790015,0.001007080078125,-0.503662109375,-0.8777923583984375,3040.2690065,-2.515834291719224,0.0161911833885942,0.5394292665170176,-0.144003301858902,-0.06905064731836319,-0.1411077529191971,0.003488093614578247,-0.006877243518829346,-0.008519470691680908,XArbitraryZVertical,-0.0894364174710187,0.2511102713943374,0.9163594649634262,-0.2987140949264437,0.01389146037399769,-0.5136463642120361,-0.8578895330429077,0,0,0,-1,-1,3037.912131,walking,2,2022-05-12T10:35:40.947+02:00,2022-05-11T22:15:20.957+02:00,532,0.870363,0.786095,1.803134,416.0347,0,0,2022-05-12T10:35:40.946+02:00,674037340.946386,0,-0.04000092,100.9078,1,0.95
2022-05-12T10:35:43.336+02:00,1652344541.999942,53.22897886862348,10.39839704521969,38.22744,0.17,0.76,288.984375,92.35725105121131,4,5,-9999,3040.2889965,0.0127410888671875,-0.509796142578125,-0.87420654296875,3040.2790015,-2.517288909260416,0.01619360200911308,0.5379032657044643,-0.1540170609951019,-0.06953214854001999,-0.1214682757854462,-0.01462356839329004,0.00696486234664917,-0.01942497491836548,XArbitraryZVertical,-0.08903056486021378,0.2504744561907868,0.91677141892708,-0.2981045357068069,0.01390621159225702,-0.5123364925384521,-0.8586722016334534,0,0,0,-1,-1,3037.912131,walking,2,2022-05-12T10:35:40.947+02:00,2022-05-11T22:15:20.957+02:00,532,0.870363,0.786095,1.803134,416.0347,0,0,2022-05-12T10:35:40.946+02:00,674037340.946386,0,-0.04000092,100.9078,1,0.95
2022-05-12T10:35:43.338+02:00,1652344541.999942,53.22897886862348,10.39839704521969,38.22744,0.17,0.76,288.984375,92.35725105121131,4,5,-9999,3040.2989925,0.013092041015625,-0.506103515625,-0.8758544921875,3040.2889965,-2.518610570015638,0.01615201197960598,0.5364443902566084,-0.1569020301103592,-0.07527545839548111,-0.112159788608551,-0.006466984748840332,0.00502479076385498,-0.01731997728347778,XArbitraryZVertical,-0.08863191081006663,0.2498695158848004,0.917156071716261,-0.2975473678072734,0.01388255693018436,-0.5110830664634705,-0.8594192266464233,0,0,0,-1,-1,3037.912131,walking,2,2022-05-12T10:35:40.947+02:00,2022-05-11T22:15:20.957+02:00,532,0.870363,0.786095,1.803134,416.0347,0,0,2022-05-12T10:35:40.946+02:00,674037340.946386,0,-0.04000092,100.9078,1,0.95
2022-05-12T10:35:43.344+02:00,1652344541.999942,53.22897886862348,10.39839704521969,38.22744,0.17,0.76,288.984375,92.35725105121131,4,5,-9999,3040.3089875,0.0119171142578125,-0.5018768310546875,-0.8697967529296875,3040.2989925,-2.51986610260836,0.01605943830394287,0.5350539089985964,-0.1424660980701447,-0.06814298033714294,-0.1076151058077812,-0.000463142991065979,0.0009757280349731445,-0.01474738121032715,XArbitraryZVertical,-0.08822891457860044,0.2493000852303162,0.9175236766693385,-0.2970112098141463,0.01381439622491598,-0.5098873972892761,-0.860130250453949,0,0,0,-1,-1,3037.912131,walking,2,2022-05-12T10:35:40.947+02:00,2022-05-11T22:15:20.957+02:00,532,0.870363,0.786095,1.803134,416.0347,0,0,2022-05-12T10:35:40.946+02:00,674037340.946386,0,-0.04000092,100.9078,1,0.95
2022-05-12T10:35:43.355+02:00,1652344541.999942,53.22897886862348,10.39839704521969,38.22744,0.17,0.76,288.984375,92.35725105121131,4,5,-9999,3040.3189825,0.0141754150390625,-0.4989013671875,-0.8644561767578125,3040.3089875,-2.520984689991736,0.0159166121794214,0.5337958349409224,-0.1199911832809448,-0.06081268936395645,-0.09942209720611572,-0.002685099840164185,0.006133913993835449,-0.01225841045379639,XArbitraryZVertical,-0.08783993550905288,0.2487924639923091,0.9178555166289318,-0.2965262506860595,0.01370174530893564,-0.5088047385215759,-0.8607729077339172,0,0,0,-1,-1,3037.912131,walking,2,2022-05-12T10:35:40.947+02:00,2022-05-11T22:15:20.957+02:00,532,0.870363,0.786095,1.803134,416.0347,0,0,2022-05-12T10:35:40.946+02:00,674037340.946386,0,-0.04000092,100.9078,1,0.95
2022-05-12T10:35:43.364+02:00,1652344541.999942,53.22897886862348,10.39839704521969,38.22744,0.17,0.76,288.984375,92.35725105121131,4,5,-9999,3040.3289775,0.0094146728515625,-0.4977569580078125,-0.8685760498046875,3040.3189825,-2.522014065399982,0.01574391619784617,0.5327131281026345,-0.1076567471027374,-0.05843635275959969,-0.0934307724237442,-2.740323543548584e-05,0.006559550762176514,-0.005892157554626465,XArbitraryZVertical,-0.08747447390347463,0.2483655166349414,0.918152665352253,-0.2960718672615188,0.01356175821274519,-0.5078724026679993,-0.8613255620002747,0,0,0,-1,-1,3037.912131,walking,2,2022-05-12T10:35:40.947+02:00,2022-05-11T22:15:20.957+02:00,532,0.870363,0.786095,1.803134,416.0347,0,0,2022-05-12T10:35:40.946+02:00,674037340.946386,0,-0.04000092,100.9078,1,0.95
2022-05-12T10:35:43.374+02:00,1652344541.999942,53.22897886862348,10.39839704521969,38.22744,0.17,0.76,288.984375,92.35725105121131,4,5,-9999,3040.3389725,0.0165863037109375,-0.5118255615234375,-0.867218017578125,3040.3289775,-2.523006191235831,0.01569708435202557,0.5318351774448927,-0.09169130027294159,-0.04459337517619133,-0.08316682279109955,-0.0009858915582299232,0.01009082794189453,-0.004377841949462891,XArbitraryZVertical,-0.08720170810419939,0.2480121174493913,0.9184124408622002,-0.2956425162149827,0.01352841407060623,-0.50711590051651,-0.8617717027664185,0,0,0,-1,-1,3037.912131,walking,2,2022-05-12T10:35:40.947+02:00,2022-05-11T22:15:20.957+02:00,532,0.870363,0.786095,1.803134,416.0347,0,0,2022-05-12T10:35:40.946+02:00,674037340.946386,0,-0.04000092,100.9078,1,0.95
2022-05-12T10:35:43.384+02:00,1652344541.999942,53.22897886862348,10.39839704521969,38.22744,0.17,0.76,288.984375,92.35725105121131,4,5,-9999,3040.3489675,0.0171051025390625,-0.5182342529296875,-0.8729400634765625,3040.3389725,-2.523895310246791,0.01576992651862604,0.5310487597035869,-0.09552118927240372,-0.04064071178436279,-0.06842249631881714,-0.001314342953264713,0.001325726509094238,-0.005735099315643311,XArbitraryZVertical,-0.08701034817408973,0.2476784290234651,0.9186398485355666,-0.2952717253765295,0.01359747163951397,-0.5064379572868347,-0.8621692061424255,0,0,0,-1,-1,3037.912131,walking,2,2022-05-12T10:35:40.947+02:00,2022-05-11T22:15:20.957+02:00,532,0.870363,0.786095,1.803134,416.0347,0,0,2022-05-12T10:35:40.946+02:00,674037340.946386,0,-0.04000092,100.9078,1,0.95
2022-05-12T10:35:43.394+02:00,1652344541.999942,53.22897886862348,10.39839704521969,38.22744,0.17,0.76,288.984375,92.35725105121131,4,5,-9999,3040.3589625,0.018463134765625,-0.520263671875,-0.882659912109375,3040.3489675,-2.524617043809271,0.01577638172349538,0.5301767705589603,-0.09074970334768295,-0.03658171743154526,-0.05829083546996117,0.003418624401092529,-0.01010757684707642,-0.005126118659973145,XArbitraryZVertical,-0.08679705213031093,0.2473076972481457,0.9188560474896001,-0.2949726086464577,0.01360999885946512,-0.5056858658790588,-0.8626103401184082,0,0,0,-1,-1,3037.912131,walking,2,2022-05-12T10:35:40.947+02:00,2022-05-11T22:15:20.957+02:00,532,0.870363,0.786095,1.803134,416.0347,0,0,2022-05-12T10:35:40.946+02:00,674037340.946386,0,-0.04000092,100.9078,1,0.95
2022-05-12T10:35:43.404+02:00,1652344541.999942,53.22897886862348,10.39839704521969,38.22744,0.17,0.76,288.984375,92.35725105121131,4,5,-9999,3040.3689575,0.0198211669921875,-0.516326904296875,-0.8885955810546875,3040.3589625,-2.525147475278169,0.01562378644275193,0.529267368968753,-0.08066751062870026,-0.02913418971002102,-0.04969947785139084,0.00526732113212347,-0.01566827297210693,-0.01501005887985229,XArbitraryZVertical,-0.08652910595834958,0.2469347624344813,0.9190553157687703,-0.2947428709886104,0.01348554808646441,-0.504901111125946,-0.8630718588829041,0,0,0,-1,-1,3037.912131,walking,2,2022-05-12T10:35:40.947+02:00,2022-05-11T22:15:20.957+02:00,532,0.870363,0.786095,1.803134,416.0347,0,0,2022-05-12T10:35:40.946+02:00,674037340.946386,0,-0.04000092,100.9078,1,0.95
2022-05-12T10:35:43.414+02:00,1652344541.999942,53.22897886862348,10.39839704521969,38.22744,0.17,0.76,288.984375,92.35725105121131,4,5,-9999,3040.3789525,0.01776123046875,-0.514617919921875,-0.891143798828125,3040.3689575,-2.525645007677057,0.01559709667219097,0.5284359611199495,-0.07445711642503738,-0.02077632397413254,-0.04019419103860855,0.00610777735710144,-0.01467716693878174,-0.02246379852294922,XArbitraryZVertical,-0.0863345933743398,0.2465775601110244,0.9192343172680627,-0.294540967857007,0.01346905529499054,-0.5041832327842712,-0.8634917140007019,0,0,0,-1,-1,3037.912131,walking,2,2022-05-12T10:35:40.947+02:00,2022-05-11T22:15:20.957+02:00,532,0.870363,0.786095,1.803134,416.0347,0,0,2022-05-12T10:35:40.946+02:00,674037340.946386,0,-0.04000092,100.9078,1,0.95
2022-05-12T10:35:43.424+02:00,1652344541.999942,53.22897886862348,10.39839704521969,38.22744,0.17,0.76,288.984375,92.35725105121131,4,5,-9999,3040.3889475,0.0200347900390625,-0.512847900390625,-0.893096923828125,3040.3789525,-2.526074112385162,0.01561292110590032,0.5276790573092962,-0.07300063967704773,-0.01858188025653362,-0.03486733511090279,0.005142122507095337,-0.011363685131073,-0.02685868740081787,XArbitraryZVertical,-0.08617902603294322,0.2462453751736408,0.9193917404326687,-0.2943728298470762,0.01348867360502481,-0.50352942943573,-0.863872766494751,0,0,0,-1,-1,3037.912131,walking,2,2022-05-12T10:35:40.947+02:00,2022-05-11T22:15:20.957+02:00,532,0.870363,0.786095,1.803134,416.0347,0,0,2022-05-12T10:35:40.946+02:00,674037340.946386,0,-0.04000092,100.9078,1,0.95
2022-05-12T10:35:43.437+02:00,1652344541.999942,53.22897886862348,10.39839704521969,38.22744,0.17,0.76,288.984375,92.35725105121131,4,5,-9999,3040.3989435,0.0150146484375,-0.508819580078125,-0.8943634033203125,3040.3889475,-2.526438022435711,0.01560355712610858,0.5269370311657894,-0.07043544948101044,-0.01848993450403214,-0.031629528850317,0.004167824983596802,-0.01096731424331665,-0.02698880434036255,XArbitraryZVertical,-0.08602219241017484,0.2459208345858367,0.9195386720553563,-0.2942309770382726,0.0134864104911685,-0.5028882026672363,-0.8642462491989136,0,0,0,-1,-1,3037.912131,walking,2,2022-05-12T10:35:40.947+02:00,2022-05-11T22:15:20.957+02:00,532,0.870363,0.786095,1.803134,416.0347,0,0,2022-05-12T10:35:40.946+02:00,674037340.946386,0,-0.04000092,100.9078,1,0.95
2022-05-12T10:35:43.447+02:00,1652344541.999942,53.22897886862348,10.39839704521969,38.22744,0.17,0.76,288.984375,92.35725105121131,4,5,-9999,3040.4089385,0.0142974853515625,-0.5116424560546875,-0.89447021484375,3040.3989435,-2.52677454938118,0.01560483710636383,0.5262256688891108,-0.06978803128004074,-0.01331700943410397,-0.02897435799241066,0.00460363831371069,-0.008683085441589355,-0.03014081716537476,XArbitraryZVertical,-0.08587817426419155,0.24560758853073,0.9196771392703852,-0.2941018494634253,0.01349309552460909,-0.5022732019424438,-0.8646036982536316,0,0,0,-1,-1,3037.912131,walking,2,2022-05-12T10:35:40.947+02:00,2022-05-11T22:15:20.957+02:00,532,0.870363,0.786095,1.803134,416.0347,0,0,2022-05-12T10:35:40.946+02:00,674037340.946386,0,-0.04000092,100.9078,1,0.95
2022-05-12T10:35:43.454+02:00,1652344541.999942,53.22897886862348,10.39839704521969,38.22744,0.17,0.76,288.984375,92.35725105121131,4,5,-9999,3040.4189335,0.011993408203125,-0.51580810546875,-0.9001312255859375,3040.4089385,-2.527087799229637,0.01565237026339983,0.5255300617722661,-0.06456796824932098,-0.008743030950427055,-0.02892882004380226,0.0004372149705886841,-0.006339848041534424,-0.02852588891983032,XArbitraryZVertical,-0.08576066525406872,0.2452937303960344,0.9198080956259103,-0.2939884572031641,0.01353965792804956,-0.5016716122627258,-0.8649522066116333,0,0,0,-1,-1,3037.912131,walking,2,2022-05-12T10:35:40.947+02:00,2022-05-11T22:15:20.957+02:00,532,0.870363,0.786095,1.803134,416.0347,0,0,2022-05-12T10:35:40.946+02:00,674037340.946386,0,-0.04000092,100.9078,1,0.95
2022-05-12T10:35:43.464+02:00,1652344541.999942,53.22897886862348,10.39839704521969,38.22744,0.17,0.76,288.984375,92.35725105121131,4,5,-9999,3040.4289285,0.0065460205078125,-0.5107269287109375,-0.8975372314453125,3040.4189335,-2.527357442902458,0.01574223296459732,0.5249674001640898,-0.05021433159708977,0.00217805989086628,-0.01947752758860588,1.934170722961426e-05,-0.01509690284729004,-0.03053385019302368,XArbitraryZVertical,-0.08568734044600491,0.2450329483098146,0.9199141363460908,-0.2938955082821356,0.01362182572484016,-0.5011848211288452,-0.8652330636978149,0,0,0,-1,-1,3037.912131,walking,2,2022-05-12T10:35:40.947+02:00,2022-05-11T22:15:20.957+02:00,532,0.870363,0.786095,1.803134,416.0347,0,0,2022-05-12T10:35:40.946+02:00,674037340.946386,0,-0.04000092,100.9078,1,0.95
2022-05-12T10:35:43.474+02:00,1652344541.999942,53.22897886862348,10.39839704521969,38.22744,0.17,0.76,288.984375,92.35725105121131,4,5,-9999,3040.4389235,0.0135345458984375,-0.5135650634765625,-0.898590087890625,3040.4289285,-2.52752145347601,0.01590921228584074,0.5245203952387109,-0.047530397772789,0.01470983028411865,-0.009531951509416103,-0.004294350743293762,-0.0107230544090271,-0.0346914529800415,XArbitraryZVertical,-0.08567925450171442,0.2448095504506176,0.9199868557525493,-0.2938564107548017,0.01376986410468817,-0.5007979273796082,-0.8654546737670898,0,0,0,-1,-1,3037.912131,walking,2,2022-05-12T10:35:40.947+02:00,2022-05-11T22:15:20.957+02:00,532,0.870363,0.786095,1.803134,416.0347,0,0,2022-05-12T10:35:40.946+02:00,674037340.946386,0,-0.04000092,100.9078,1,0.95
2022-05-12T10:35:43.484+02:00,1652344541.999942,53.22897886862348,10.39839704521969,38.22744,0.17,0.76,288.984375,92.35725105121131,4,5,-9999,3040.4489185,0.0141143798828125,-0.5156707763671875,-0.8965606689453125,3040.4389235,-2.527566710814765,0.01612094634368224,0.5240988095940446,-0.04393859207630157,0.02085400931537151,-0.001214632764458656,-0.004206345416605473,-0.01207977533340454,-0.03124845027923584,XArbitraryZVertical,-0.08571000841727786,0.2445861658341363,0.9200370420725822,-0.2938764996932791,0.013956512324512,-0.5004329681396484,-0.8656628131866455,0,0,0,-1,-1,3037.912131,walking,2,2022-05-12T10:35:40.947+02:00,2022-05-11T22:15:20.957+02:00,532,0.870363,0.786095,1.803134,416.0347,0,0,2022-05-12T10:35:40.946+02:00,674037340.946386,0,-0.04000092,100.9078,1,0.95
2022-05-12T10:35:43.494+02:00,1652344541.999942,53.22897886862348,10.39839704521969,38.22744,0.17,0.76,288.984375,92.35725105121131,4,5,-9999,3040.4589135,0.015350341796875,-0.509307861328125,-0.892852783203125,3040.4489185,-2.527614152516215,0.01637250436241685,0.5236895055916742,-0.04417268186807632,0.02548631094396114,-0.008940995670855045,0.0004706084728240967,-0.01505869626998901,-0.03319883346557617,XArbitraryZVertical,-0.08576061067498778,0.2443626760619742,0.9200842480159077,-0.293899926370784,0.01417762879282236,-0.500078558921814,-0.8658639788627625,0,0,0,-1,-1,3037.912131,walking,2,2022-05-12T10:35:40.947+02:00,2022-05-11T22:15:20.957+02:00,532,0.870363,0.786095,1.803134,416.0347,0,0,2022-05-12T10:35:40.946+02:00,674037340.946386,0,-0.04000092,100.9078,1,0.95
2022-05-12T10:35:43.504+02:00,1652344541.999942,53.22897886862348,10.39839704521969,38.22744,0.17,0.76,288.984375,92.35725105121131,4,5,-9999,3040.4689085,0.018890380859375,-0.50335693359375,-0.89599609375,3040.4589135,-2.527695460948597,0.01666035065306606,0.5232898373206801,-0.03778189420700073,0.02155015990138054,-0.003504152409732342,-0.0002244412899017334,-0.01334491372108459,-0.02863913774490356,XArbitraryZVertical,-0.08582519024923886,0.2441397221347555,0.9201336598218928,-0.2939118196470549,0.01443019323050976,-0.4997324347496033,-0.8660596609115601,0,0,0,-1,-1,3037.912131,walking,2,2022-05-12T10:35:40.947+02:00,2022-05-11T22:15:20.957+02:00,532,0.870363,0.786095,1.803134,416.0347,0,0,2022-05-12T10:35:40.946+02:00,674037340.946386,0,-0.04000092,100.9078,1,0.95
2022-05-12T10:35:43.514+02:00,1652344541.999942,53.22897886862348,10.39839704521969,38.22744,0.17,0.76,288.984375,92.35725105121131,4,5,-9999,3040.4789035,0.0141448974609375,-0.4966583251953125,-0.89215087890625,3040.4689085,-2.527814095635426,0.01695581595789127,0.5229878496876145,-0.02146524004638195,0.0247920248657465,-0.01645244099199772,0.002889305353164673,-0.006556987762451172,-0.02776014804840088,XArbitraryZVertical,-0.08590289224449134,0.2439622906937487,0.9201759199035819,-0.2939038344674698,0.014688640832901,-0.4994708299636841,-0.866206169128418,0,0,0,-1,-1,3040.4714845,walking,2,2022-05-12T10:35:43.506+02:00,2022-05-11T22:15:20.957+02:00,532,0.870363,0.7433342,1.803134,416.0347,0,0,2022-05-12T10:35:43.506+02:00,674037343.5057715,0,0.1800003,100.9076,1,0.95
2022-05-12T10:35:43.524+02:00,1652344542.999938,53.22897886862348,10.39839704521969,38.28061,0,0.94,277.03125,98.86286963186505,4,5,-9999,3040.4888995,0.0086822509765625,-0.497222900390625,-0.89276123046875,3040.4789035,-2.52804130110677,0.01728322037221165,0.5228833636433182,0.003517007455229759,0.01681759022176266,-0.02097728475928307,0.00152142345905304,-0.001200109720230103,-0.02824687957763672,XArbitraryZVertical,-0.08601069103137322,0.2438757848515533,0.9202082878411572,-0.2938429497406027,0.01497314125299454,-0.4993803203105927,-0.8662535548210144,0,0,0,-1,-1,3040.4714845,walking,2,2022-05-12T10:35:43.506+02:00,2022-05-11T22:15:20.957+02:00,532,0.870363,0.7433342,1.803134,416.0347,0,0,2022-05-12T10:35:43.506+02:00,674037343.5057715,0,0.1800003,100.9076,1,0.95
2022-05-12T10:35:43.534+02:00,1652344542.999938,53.22897886862348,10.39839704521969,38.28061,0,0.94,277.03125,98.86286963186505,4,5,-9999,3040.4988945,0.0091400146484375,-0.5019073486328125,-0.885406494140625,3040.4888995,-2.528311490157167,0.01752858044782866,0.5230085946299858,0.02389035746455193,0.008208721876144409,-0.02729010954499245,-0.003649130463600159,0.004752516746520996,-0.02652788162231445,XArbitraryZVertical,-0.08610875703134907,0.2439090996598494,0.9202217626908081,-0.2937440960322084,0.01518458873033524,-0.4994888007640839,-0.8661872744560242,0,0,0,-1,-1,3040.4714845,walking,2,2022-05-12T10:35:43.506+02:00,2022-05-11T22:15:20.957+02:00,532,0.870363,0.7433342,1.803134,416.0347,0,0,2022-05-12T10:35:43.506+02:00,674037343.5057715,0,0.1800003,100.9076,1,0.95
2022-05-12T10:35:43.544+02:00,1652344542.999938,53.22897886862348,10.39839704521969,38.28061,0,0.94,277.03125,98.86286963186505,4,5,-9999,3040.5088895,0.0128173828125,-0.50689697265625,-0.8827056884765625,3040.4988945,-2.528638131316539,0.01774407102357703,0.5232370140795742,0.02421073615550995,0.004576170351356268,-0.03025846928358078,-0.008197784423828125,-0.0003596842288970947,-0.0244937539100647,XArbitraryZVertical,-0.08620111076484717,0.2439967741471104,0.9202320202867738,-0.2936121317974836,0.01536921877413988,-0.4996866583824158,-0.8660699129104614,0,0,0,-1,-1,3040.4714845,walking,2,2022-05-12T10:35:43.506+02:00,2022-05-11T22:15:20.957+02:00,532,0.870363,0.7433342,1.803134,416.0347,0,0,2022-05-12T10:35:43.506+02:00,674037343.5057715,0,0.1800003,100.9076,1,0.95
2022-05-12T10:35:43.554+02:00,1652344542.999938,53.22897886862348,10.39839704521969,38.28061,0,0.94,277.03125,98.86286963186505,4,5,-9999,3040.5188845,0.01318359375,-0.50457763671875,-0.8809661865234375,3040.5088895,-2.52899406772345,0.01793450710390674,0.5235096133178061,0.03344354778528214,0.0002142451703548431,-0.03073710575699806,-0.00489652156829834,-0.005158960819244385,-0.01653051376342773,XArbitraryZVertical,-0.08628471115195363,0.2441097809816846,0.9202420998327877,-0.293462107341695,0.01553170569241047,-0.4999227821826935,-0.8659307360649109,0,0,0,-1,-1,3040.4714845,walking,2,2022-05-12T10:35:43.506+02:00,2022-05-11T22:15:20.957+02:00,532,0.870363,0.7433342,1.803134,416.0347,0,0,2022-05-12T10:35:43.506+02:00,674037343.5057715,0,0.1800003,100.9076,1,0.95
2022-05-12T10:35:43.564+02:00,1652344542.999938,53.22897886862348,10.39839704521969,38.28061,0,0.94,277.03125,98.86286963186505,4,5,-9999,3040.5288795,0.007537841796875,-0.4983673095703125,-0.87762451171875,3040.5188845,-2.52933169426666,0.01808173992201977,0.5238807240397945,0.04213583841919899,-0.00403296435251832,-0.02974587678909302,-0.002289339900016785,-0.006653368473052979,-0.01615381240844727,XArbitraryZVertical,-0.08636484919301937,0.2442737648355922,0.9202390067481859,-0.293311814096997,0.01565584354102612,-0.500244140625,-0.8657428622245789,0,0,0,-1,-1,3040.4714845,walking,2,2022-05-12T10:35:43.506+02:00,2022-05-11T22:15:20.957+02:00,532,0.870363,0.7433342,1.803134,416.0347,0,0,2022-05-12T10:35:43.506+02:00,674037343.5057715,0,0.1800003,100.9076,1,0.95
2022-05-12T10:35:43.574+02:00,1652344542.999938,53.22897886862348,10.39839704521969,38.28061,0,0.94,277.03125,98.86286963186505,4,5,-9999,3040.5388745,0.0076141357421875,-0.5010223388671875,-0.8726654052734375,3040.5288795,-2.529722086788452,0.01823432393550216,0.5242708132233993,0.03586003556847572,-0.003867448773235083,-0.03693734109401703,-0.004554107785224915,-5.954504013061523e-05,-0.01481020450592041,XArbitraryZVertical,-0.08644367637761857,0.2444480156453129,0.9202409810909631,-0.2931372619752852,0.01578438282012939,-0.5005818605422974,-0.8655453324317932,0,0,0,-1,-1,3040.4714845,walking,2,2022-05-12T10:35:43.506+02:00,2022-05-11T22:15:20.957+02:00,532,0.870363,0.7433342,1.803134,416.0347,0,0,2022-05-12T10:35:43.506+02:00,674037343.5057715,0,0.1800003,100.9076,1,0.95
2022-05-12T10:35:43.584+02:00,1652344542.999938,53.22897886862348,10.39839704521969,38.28061,0,0.94,277.03125,98.86286963186505,4,5,-9999,3040.5488695,0.0068206787109375,-0.497711181640625,-0.86749267578125,3040.5388745,-2.530164714192664,0.01834931149674291,0.5245325587792509,0.01849009841680527,-0.01859179884195328,-0.04146125540137291,-0.008862659335136414,0.001921772956848145,-0.01033490896224976,XArbitraryZVertical,-0.08648022678508165,0.2445709486620004,0.9202681096484857,-0.2929384816297483,0.0158815048635006,-0.5008084774017334,-0.8654124140739441,0,0,0,-1,-1,3040.4714845,walking,2,2022-05-12T10:35:43.506+02:00,2022-05-11T22:15:20.957+02:00,532,0.870363,0.7433342,1.803134,416.0347,0,0,2022-05-12T10:35:43.506+02:00,674037343.5057715,0,0.1800003,100.9076,1,0.95
2022-05-12T10:35:43.594+02:00,1652344542.999938,53.22897886862348,10.39839704521969,38.28061,0,0.94,277.03125,98.86286963186505,4,5,-9999,3040.5588645,0.003936767578125,-0.4925689697265625,-0.86566162109375,3040.5488695,-2.530681198184602,0.01835505510648413,0.5245751139462045,0.0001612585037946701,-0.0310882180929184,-0.04461224004626274,-0.006731003522872925,9.703636169433594e-05,-0.005381941795349121,XArbitraryZVertical,-0.08642583937469074,0.2446120483859802,0.920338155278387,-0.2927000362029128,0.01588608510792255,-0.5008453130722046,-0.8653910160064697,0,0,0,-1,-1,3040.4714845,walking,2,2022-05-12T10:35:43.506+02:00,2022-05-11T22:15:20.957+02:00,532,0.870363,0.7433342,1.803134,416.0347,0,0,2022-05-12T10:35:43.506+02:00,674037343.5057715,0,0.1800003,100.9076,1,0.95
2022-05-12T10:35:43.604+02:00,1652344542.999938,53.22897886862348,10.39839704521969,38.28061,0,0.94,277.03125,98.86286963186505,4,5,-9999,3040.5688595,0.0023040771484375,-0.489776611328125,-0.8688507080078125,3040.5588645,-2.531203999213225,0.0182727239559275,0.5245331332371842,0.001531188376247883,-0.03669523447751999,-0.04401356354355812,-0.01073423027992249,0.005416512489318848,-0.000278472900390625,XArbitraryZVertical,-0.08631796314510061,0.2446273117809021,0.9204234601688306,-0.2924508625771123,0.01581522077322006,-0.5008089542388916,-0.8654133677482605,0,0,0,-1,-1,3040.4714845,walking,2,2022-05-12T10:35:43.506+02:00,2022-05-11T22:15:20.957+02:00,532,0.870363,0.7433342,1.803134,416.0347,0,0,2022-05-12T10:35:43.506+02:00,674037343.5057715,0,0.1800003,100.9076,1,0.95
2022-05-12T10:35:43.614+02:00,1652344542.999938,53.22897886862348,10.39839704521969,38.28061,0,0.94,277.03125,98.86286963186505,4,5,-9999,3040.5788545,-0.0003662109375,-0.48895263671875,-0.87310791015625,3040.5688595,-2.531692408346539,0.01813659195490371,0.5244725121435476,0.0009138011373579502,-0.03791589662432671,-0.04430238157510757,-0.01286001689732075,0.01006382703781128,-3.230571746826172e-05,XArbitraryZVertical,-0.08618684100499159,0.2446403558954066,0.9205082282031808,-0.29221146408405,0.01569795981049538,-0.5007565021514893,-0.8654458522796631,0,0,0,-1,-1,3040.4714845,walking,2,2022-05-12T10:35:43.506+02:00,2022-05-11T22:15:20.957+02:00,532,0.870363,0.7433342,1.803134,416.0347,0,0,2022-05-12T10:35:43.506+02:00,674037343.5057715,0,0.1800003,100.9076,1,0.95
2022-05-12T10:35:43.624+02:00,1652344542.999938,53.22897886862348,10.39839704521969,38.28061,0,0.94,277.03125,98.86286963186505,4,5,-9999,3040.5888505,0.00213623046875,-0.4870758056640625,-0.8634490966796875,3040.5788545,-2.532181211053457,0.01799602900226308,0.5244418779088508,0.001783057115972042,-0.03386842459440231,-0.04296121746301651,-0.01463073492050171,0.01078492403030396,-0.006881237030029297,XArbitraryZVertical,-0.08605794720302867,0.2446677944362193,0.9205895392346662,-0.2919703965126044,0.01557658612728119,-0.5007299780845642,-0.8654633760452271,0,0,0,-1,-1,3040.4714845,walking,2,2022-05-12T10:35:43.506+02:00,2022-05-11T22:15:20.957+02:00,532,0.870363,0.7433342,1.803134,416.0347,0,0,2022-05-12T10:35:43.506+02:00,674037343.5057715,0,0.1800003,100.9076,1,0.95
2022-05-12T10:35:43.634+02:00,1652344542.999938,53.22897886862348,10.39839704521969,38.28061,0,0.94,277.03125,98.86286963186505,4,5,-9999,3040.5988455,0.00689697265625,-0.4882354736328125,-0.8558349609375,3040.5888505,-2.532662709696158,0.01788761187807274,0.5243519644295559,-0.01763907633721828,-0.03182810917496681,-0.04168535768985748,-0.01514805853366852,0.01278227567672729,-0.003569185733795166,XArbitraryZVertical,-0.0859362194759697,0.2446628524483474,0.9206757374581789,-0.2917386572823877,0.01548356004059315,-0.5006521344184875,-0.865510106086731,0,0,0,-1,-1,3040.4714845,walking,2,2022-05-12T10:35:43.506+02:00,2022-05-11T22:15:20.957+02:00,532,0.870363,0.7433342,1.803134,416.0347,0,0,2022-05-12T10:35:43.506+02:00,674037343.5057715,0,0.1800003,100.9076,1,0.95
2022-05-12T10:35:43.644+02:00,1652344542.999938,53.22897886862348,10.39839704521969,38.28061,0,0.94,277.03125,98.86286963186505,4,5,-9999,3040.6088405,0.0063323974609375,-0.4914398193359375,-0.848358154296875,3040.5988455,-2.533171169382154,0.0177971266601668,0.5240642776177341,-0.03484948724508286,-0.03608384355902672,-0.04965859651565552,-0.0102657824754715,0.01459318399429321,0.005197405815124512,XArbitraryZVertical,-0.08579106317067914,0.2445652262399326,0.9207897116224915,-0.2915035217743593,0.0154078071936965,-0.500403106212616,-0.8656554818153381,0,0,0,-1,-1,3040.4714845,walking,2,2022-05-12T10:35:43.506+02:00,2022-05-11T22:15:20.957+02:00,532,0.870363,0.7433342,1.803134,416.0347,0,0,2022-05-12T10:35:43.506+02:00,674037343.5057715,0,0.1800003,100.9076,1,0.95
2022-05-12T10:35:43.654+02:00,1652344542.999938,53.22897886862348,10.39839704521969,38.28061,0,0.94,277.03125,98.86286963186505,4,5,-9999,3040.6188355,0.001190185546875,-0.4929046630859375,-0.8372955322265625,3040.6088405,-2.533817228546533,0.01769040663344888,0.523564498260387,-0.05126062035560608,-0.04521648585796356,-0.06750217825174332,-0.007934778928756714,0.01007106900215149,0.01487892866134644,XArbitraryZVertical,-0.08559123815121514,0.2443780165862898,0.9209507163659663,-0.2912102737333942,0.01531984563916922,-0.4999703168869019,-0.8659070730209351,0,0,0,-1,-1,3040.4714845,walking,2,2022-05-12T10:35:43.506+02:00,2022-05-11T22:15:20.957+02:00,532,0.870363,0.7433342,1.803134,416.0347,0,0,2022-05-12T10:35:43.506+02:00,674037343.5057715,0,0.1800003,100.9076,1,0.95
2022-05-12T10:35:43.664+02:00,1652344542.999938,53.22897886862348,10.39839704521969,38.28061,0,0.94,277.03125,98.86286963186505,4,5,-9999,3040.6288305,0.0012969970703125,-0.4944610595703125,-0.82122802734375,3040.6188355,-2.534617324143789,0.01753018181009961,0.522877611415572,-0.07959265261888504,-0.0576220229268074,-0.08006137609481812,-0.01114373002201319,0.00708046555519104,0.02157223224639893,XArbitraryZVertical,-0.0853212777624187,0.2441187330118961,0.9211595867018929,-0.2908459789801715,0.01518712192773819,-0.4993753135204315,-0.8662526607513428,0,0,0,-1,-1,3040.4714845,walking,2,2022-05-12T10:35:43.506+02:00,2022-05-11T22:15:20.957+02:00,532,0.870363,0.7433342,1.803134,416.0347,0,0,2022-05-12T10:35:43.506+02:00,674037343.5057715,0,0.1800003,100.9076,1,0.95
2022-05-12T10:35:43.674+02:00,1652344542.999938,53.22897886862348,10.39839704521969,38.28061,0,0.94,277.03125,98.86286963186505,4,5,-9999,3040.6388255,0.00042724609375,-0.4910125732421875,-0.8044891357421875,3040.6288305,-2.535667573877196,0.01733247381691555,0.5219181508701294,-0.1055100113153458,-0.08024078607559204,-0.1122494041919708,-0.01322381198406219,0.005211353302001953,0.03648865222930908,XArbitraryZVertical,-0.0849647593225267,0.2437495272691415,0.9214401065776929,-0.2903712696580953,0.0150241544470191,-0.4985438287258148,-0.8667343258857727,0,0,0,-1,-1,3040.4714845,walking,2,2022-05-12T10:35:43.506+02:00,2022-05-11T22:15:20.957+02:00,532,0.870363,0.7433342,1.803134,416.0347,0,0,2022-05-12T10:35:43.506+02:00,674037343.5057715,0,0.1800003,100.9076,1,0.95
2022-05-12T10:35:43.684+02:00,1652344542.999938,53.22897886862348,10.39839704521969,38.28061,0,0.94,277.03125,98.86286963186505,4,5,-9999,3040.6488205,0,-0.4894256591796875,-0.7988433837890625,3040.6388255,-2.537132577339622,0.0170315297705091,0.5206965280465553,-0.1320662498474121,-0.1218521445989609,-0.1527177393436432,-0.01593352854251862,0.003831595182418823,0.05600708723068237,XArbitraryZVertical,-0.08447312087221891,0.2432915014750968,0.9218170155312347,-0.2897015380080833,0.01477367617189884,-0.4974844753742218,-0.8673470616340637,0,0,0,-1,-1,3040.4714845,walking,2,2022-05-12T10:35:43.506+02:00,2022-05-11T22:15:20.957+02:00,532,0.870363,0.7433342,1.803134,416.0347,0,0,2022-05-12T10:35:43.506+02:00,674037343.5057715,0,0.1800003,100.9076,1,0.95
2022-05-12T10:35:43.694+02:00,1652344542.999938,53.22897886862348,10.39839704521969,38.28061,0,0.94,277.03125,98.86286963186505,4,5,-9999,3040.6588155,-0.0007476806640625,-0.4867095947265625,-0.7919921875,3040.6488205,-2.53915772206853,0.01653326993992801,0.5191906018667016,-0.161409318447113,-0.1743520349264145,-0.2162512391805649,-0.01208050642162561,0.007224351167678833,0.0658414363861084,XArbitraryZVertical,-0.08378265289516761,0.2427534798370341,0.9223174966022786,-0.2887590607088856,0.01435387972742319,-0.4961775541305542,-0.8681024312973022,0,0,0,-1,-1,3040.4714845,walking,2,2022-05-12T10:35:43.506+02:00,2022-05-11T22:15:20.957+02:00,532,0.870363,0.7433342,1.803134,416.0347,0,0,2022-05-12T10:35:43.506+02:00,674037343.5057715,0,0.1800003,100.9076,1,0.95
2022-05-12T10:35:43.704+02:00,1652344542.999938,53.22897886862348,10.39839704521969,38.28061,0,0.94,277.03125,98.86286963186505,4,5,-9999,3040.6688105,-0.008758544921875,-0.5023193359375,-0.778656005859375,3040.6588155,-2.541940903147481,0.01578562493370307,0.5172438360483372,-0.2177178710699081,-0.2468866854906082,-0.2832787334918976,-0.01359817385673523,0.007074326276779175,0.07327055931091309,XArbitraryZVertical,-0.08282381668990994,0.2420777978306138,0.922990071955903,-0.2874510949830598,0.0137200653553009,-0.494486391544342,-0.8690770864486694,0,0,0,-1,-1,3040.4714845,walking,2,2022-05-12T10:35:43.506+02:00,2022-05-11T22:15:20.957+02:00,532,0.870363,0.7433342,1.803134,416.0347,0,0,2022-05-12T10:35:43.506+02:00,674037343.5057715,0,0.1800003,100.9076,1,0.95
2022-05-12T10:35:43.714+02:00,1652344542.999938,53.22897886862348,10.39839704521969,38.28061,0,0.94,277.03125,98.86286963186505,4,5,-9999,3040.6788055,-0.179443359375,-0.60736083984375,-0.7608795166015625,3040.6688105,-2.545723925250043,0.01458604800038362,0.5147060217055079,-0.2922018766403198,-0.3545032143592834,-0.3752525448799133,-0.01809757947921753,0.0004265904426574707,0.08396828174591064,XArbitraryZVertical,-0.08145394718296212,0.2412318280036102,0.9238934578175575,-0.2856458574194057,0.0126957930624485,-0.4922789931297302,-0.8703449368476868,0,0,0,-1,-1,3040.4714845,walking,2,2022-05-12T10:35:43.506+02:00,2022-05-11T22:15:20.957+02:00,532,0.870363,0.7433342,1.803134,416.0347,0,0,2022-05-12T10:35:43.506+02:00,674037343.5057715,0,0.1800003,100.9076,1,0.95
2022-05-12T10:35:43.724+02:00,1652344542.999938,53.22897886862348,10.39839704521969,38.28061,0,0.94,277.03125,98.86286963186505,4,5,-9999,3040.6888015,-0.0505828857421875,-0.5648345947265625,-0.723480224609375,3040.6788055,-2.552810053554189,0.01511663087474072,0.5098455098244621,-0.5269059538841248,-0.1675562411546707,-0.646421492099762,-0.0919138640165329,-0.05672746896743774,0.1308534741401672,XArbitraryZVertical,-0.08016642317800524,0.2391928826087322,0.9254726350204509,-0.2825963421921269,0.01319359429180622,-0.488042414188385,-0.8727202415466309,0,0,0,-1,-1,3040.4714845,walking,2,2022-05-12T10:35:43.506+02:00,2022-05-11T22:15:20.957+02:00,532,0.870363,0.7433342,1.803134,416.0347,0,0,2022-05-12T10:35:43.506+02:00,674037343.5057715,0,0.1800003,100.9076,1,0.95
2022-05-12T10:35:43.734+02:00,1652344542.999938,53.22897886862348,10.39839704521969,38.28061,0,0.94,277.03125,98.86286963186505,4,5,-9999,3040.6987965,-0.149566650390625,-0.5541229248046875,-0.6654052734375,3040.6888015,-2.557889502728337,0.01565247679767626,0.5046151990888362,-0.4927006959915161,-0.1654102057218552,-0.2931476235389709,-0.1263415515422821,-0.1028336584568024,0.1190738677978516,XArbitraryZVertical,-0.07908338391171164,0.2368947823920658,0.9268000620774186,-0.2804788839962876,0.0137010021135211,-0.4834706485271454,-0.8752533793449402,0,0,0,-1,-1,3040.4714845,walking,2,2022-05-12T10:35:43.506+02:00,2022-05-11T22:15:20.957+02:00,532,0.870363,0.7433342,1.803134,416.0347,0,0,2022-05-12T10:35:43.506+02:00,674037343.5057715,0,0.1800003,100.9076,1,0.95
2022-05-12T10:35:43.744+02:00,1652344542.999938,53.22897886862348,10.39839704521969,38.28061,0,0.94,277.03125,98.86286963186505,4,5,-9999,3040.7087915,-0.135101318359375,-0.5816192626953125,-0.6313629150390625,3040.6987965,-2.561152916525553,0.01572780229828415,0.4987887374414728,-0.6728033423423767,-0.154063805937767,-0.3297304213047028,-0.1299763172864914,-0.08332964777946472,0.1729456782341003,XArbitraryZVertical,-0.07792956642941572,0.2343074238614185,0.9279527538896873,-0.2791608358945553,0.01381099876016378,-0.4783622026443481,-0.8780540227890015,0,0,0,-1,-1,3040.4714845,walking,2,2022-05-12T10:35:43.506+02:00,2022-05-11T22:15:20.957+02:00,532,0.870363,0.7433342,1.803134,416.0347,0,0,2022-05-12T10:35:43.506+02:00,674037343.5057715,0,0.1800003,100.9076,1,0.95
2022-05-12T10:35:43.754+02:00,1652344542.999938,53.22897886862348,10.39839704521969,38.28061,0,0.94,277.03125,98.86286963186505,4,5,-9999,3040.7187865,-0.1646575927734375,-0.590911865234375,-0.601470947265625,3040.7087915,-2.564999079403312,0.01581909610203983,0.4913147463897566,-0.8336324095726013,-0.2015387862920761,-0.3824073374271393,-0.1586465835571289,-0.09463655948638916,0.2365990877151489,XArbitraryZVertical,-0.07649807107201988,0.2309686712375982,0.9293702789390939,-0.2776193412563557,0.01394732668995857,-0.4717855155467987,-0.8816030621528625,0,0,0,-1,-1,3040.4714845,walking,2,2022-05-12T10:35:43.506+02:00,2022-05-11T22:15:20.957+02:00,532,0.870363,0.7433342,1.803134,416.0347,0,0,2022-05-12T10:35:43.506+02:00,674037343.5057715,0,0.1800003,100.9076,1,0.95
2022-05-12T10:35:43.764+02:00,1652344542.999938,53.22897886862348,10.39839704521969,38.28061,0,0.94,277.03125,98.86286963186505,4,5,-9999,3040.7287815,-0.20947265625,-0.626617431640625,-0.5792694091796875,3040.7187865,-2.569433732832703,0.01563441227019663,0.4818730995661529,-1.04959774017334,-0.240325853228569,-0.4406589269638062,-0.1649767458438873,-0.1263587772846222,0.2721593379974365,XArbitraryZVertical,-0.07461549564432797,0.2267652085910359,0.9310917392565478,-0.2758231986761921,0.01385353319346905,-0.4634397923946381,-0.8860201239585876,0,0,0,-1,-1,3040.4714845,walking,2,2022-05-12T10:35:43.506+02:00,2022-05-11T22:15:20.957+02:00,532,0.870363,0.7433342,1.803134,416.0347,0,0,2022-05-12T10:35:43.506+02:00,674037343.5057715,0,0.1800003,100.9076,1,0.95
2022-05-12T10:35:43.774+02:00,1652344542.999938,53.22897886862348,10.39839704521969,38.28061,0,0.94,277.03125,98.86286963186505,4,5,-9999,3040.7387765,-0.2356719970703125,-0.642974853515625,-0.601776123046875,3040.7287815,-2.574747911117611,0.01532090996702525,0.4697334978035851,-1.369533896446228,-0.2886014878749847,-0.5398834943771362,-0.199360579252243,-0.1505013406276703,0.3007795214653015,XArbitraryZVertical,-0.07222762938786345,0.2213391421442392,0.9332188248873781,-0.27366920706278,0.01366095151752234,-0.4526486694812775,-0.8915843367576599,0,0,0,-1,-1,3040.4714845,walking,2,2022-05-12T10:35:43.506+02:00,2022-05-11T22:15:20.957+02:00,532,0.870363,0.7433342,1.803134,416.0347,0,0,2022-05-12T10:35:43.506+02:00,674037343.5057715,0,0.1800003,100.9076,1,0.95
2022-05-12T10:35:43.784+02:00,1652344542.999938,53.22897886862348,10.39839704521969,38.28061,0,0.94,277.03125,98.86286963186505,4,5,-9999,3040.7487715,-0.2763214111328125,-0.6036834716796875,-0.599884033203125,3040.7387765,-2.580893480206094,0.01517389691488604,0.4547831914441728,-1.62112295627594,-0.2959321141242981,-0.6202686429023743,-0.2419026792049408,-0.2069427371025085,0.3069445490837097,XArbitraryZVertical,-0.06947773497715522,0.2145842800982921,0.9357213142707087,-0.2712047508745621,0.01363104209303856,-0.4392675459384918,-0.8982528448104858,0,0,0,-1,-1,3040.4714845,walking,2,2022-05-12T10:35:43.506+02:00,2022-05-11T22:15:20.957+02:00,532,0.870363,0.7433342,1.803134,416.0347,0,0,2022-05-12T10:35:43.506+02:00,674037343.5057715,0,0.1800003,100.9076,1,0.95
2022-05-12T10:35:43.794+02:00,1652344542.999938,53.22897886862348,10.39839704521969,38.28061,0,0.94,277.03125,98.86286963186505,4,5,-9999,3040.7587665,-0.30364990234375,-0.5658416748046875,-0.648345947265625,3040.7487715,-2.588222777978799,0.01531474294048439,0.4371349579148198,-1.868331909179688,-0.289991557598114,-0.7544675469398499,-0.2655527591705322,-0.1980997323989868,0.3083739280700684,XArbitraryZVertical,-0.06642052360622734,0.206536397792419,0.938599214693056,-0.2682587051791999,0.01387412939220667,-0.4233455657958984,-0.905862033367157,0,0,0,-1,-1,3040.4714845,walking,2,2022-05-12T10:35:43.506+02:00,2022-05-11T22:15:20.957+02:00,532,0.870363,0.7433342,1.803134,416.0347,0,0,2022-05-12T10:35:43.506+02:00,674037343.5057715,0,0.1800003,100.9076,1,0.95
2022-05-12T10:35:43.804+02:00,1652344542.999938,53.22897886862348,10.39839704521969,38.28061,0,0.94,277.03125,98.86286963186505,4,5,-9999,3040.7687615,-0.3556060791015625,-0.587127685546875,-0.634552001953125,3040.7587665,-2.596443398088082,0.01614577108472046,0.417848641472004,-1.971352219581604,-0.2423491925001144,-0.8248732686042786,-0.3114480674266815,-0.1821265816688538,0.2849847674369812,XArbitraryZVertical,-0.06344050792684434,0.1976178671136082,0.9416570171657753,-0.2649618343062154,0.01475601363927126,-0.4057951271533966,-0.9138449430465698,0,0,0,-1,-1,3040.4714845,walking,2,2022-05-12T10:35:43.506+02:00,2022-05-11T22:15:20.957+02:00,532,0.870363,0.7433342,1.803134,416.0347,0,0,2022-05-12T10:35:43.506+02:00,674037343.5057715,0,0.1800003,100.9076,1,0.95
2022-05-12T10:35:43.814+02:00,1652344542.999938,53.22897886862348,10.39839704521969,38.28061,0,0.94,277.03125,98.86286963186505,4,5,-9999,3040.7787575,-0.4131927490234375,-0.6981048583984375,-0.7111663818359375,3040.7687615,-2.606345224648357,0.01748976477580048,0.3967347386496533,-2.255797147750854,-0.2440990209579468,-1.097648501396179,-0.3294393420219421,-0.1671043932437897,0.2788763046264648,XArbitraryZVertical,-0.06037911897157131,0.1877793123690612,0.9449979147456578,-0.260906834252126,0.01613047160208225,-0.3864087760448456,-0.9221866130828857,0,0,0,-1,-1,3040.4714845,walking,2,2022-05-12T10:35:43.506+02:00,2022-05-11T22:15:20.957+02:00,532,0.870363,0.7433342,1.803134,416.0347,0,0,2022-05-12T10:35:43.506+02:00,674037343.5057715,0,0.1800003,100.9076,1,0.95
2022-05-12T10:35:43.824+02:00,1652344542.999938,53.22897886862348,10.39839704521969,38.28061,0,0.94,277.03125,98.86286963186505,4,5,-9999,3040.7887525,-0.402252197265625,-0.6112060546875,-0.731964111328125,3040.7787575,-2.618392385623205,0.02047308991890075,0.3730013447494481,-2.465687274932861,-0.07846531271934509,-1.226874947547913,-0.4193632006645203,-0.3037251532077789,0.2544376850128174,XArbitraryZVertical,-0.0576690196925558,0.1765019758476078,0.9486859285587459,-0.2559619816537471,0.01906398311257362,-0.3644120395183563,-0.9310426712036133,0,0,0,-1,-1,3040.4714845,walking,2,2022-05-12T10:35:43.506+02:00,2022-05-11T22:15:20.957+02:00,532,0.870363,0.7433342,1.803134,416.0347,0,0,2022-05-12T10:35:43.506+02:00,674037343.5057715,0,0.1800003,100.9076,1,0.95
2022-05-12T10:35:43.834+02:00,1652344542.999938,53.22897886862348,10.39839704521969,38.28061,0,0.94,277.03125,98.86286963186505,4,5,-9999,3040.798745,-0.4040374755859375,-0.608245849609375,-0.7947998046875,3040.7887525,-2.631708811599371,0.02500477695417381,0.3467646535643456,-2.688150882720947,0.07657413184642792,-1.36797297000885,-0.4317477345466614,-0.3169430792331696,0.2264230847358704,XArbitraryZVertical,-0.05541959341729331,0.1638202298452964,0.9525511108579325,-0.2504758372718316,0.02351397275924683,-0.3398568332195282,-0.9401832222938538,0,0,0,-1,-1,3040.4714845,walking,2,2022-05-12T10:35:43.506+02:00,2022-05-11T22:15:20.957+02:00,532,0.870363,0.7433342,1.803134,416.0347,0,0,2022-05-12T10:35:43.506+02:00,674037343.5057715,0,0.1800003,100.9076,1,0.95
2022-05-12T10:35:43.844+02:00,1652344542.999938,53.22897886862348,10.39839704521969,38.28061,0,0.94,277.03125,98.86286963186505,4,5,-9999,3040.80874,-0.4621124267578125,-0.6105804443359375,-0.8548126220703125,3040.798745,-2.646122942860534,0.03078647856303553,0.3189862035581582,-2.801356077194214,0.1631692200899124,-1.535971879959106,-0.4245536327362061,-0.2807111442089081,0.1840589046478271,XArbitraryZVertical,-0.05367216707887721,0.1502243654922274,0.9564529141891276,-0.2444377109412113,0.02922880090773106,-0.3136040568351746,-0.9491038918495178,0,0,0,-1,-1,3040.4714845,walking,2,2022-05-12T10:35:43.506+02:00,2022-05-11T22:15:20.957+02:00,532,0.870363,0.7433342,1.803134,416.0347,0,0,2022-05-12T10:35:43.506+02:00,674037343.5057715,0,0.1800003,100.9076,1,0.95
2022-05-12T10:35:43.854+02:00,1652344542.999938,53.22897886862348,10.39839704521969,38.28061,0,0.94,277.03125,98.86286963186505,4,5,-9999,3040.818735,-0.443084716796875,-0.52294921875,-0.9241943359375,3040.80874,-2.66247163075747,0.03831323061252268,0.2895504817819389,-2.96917200088501,0.3801008462905884,-1.778225183486938,-0.4707914888858795,-0.3381669223308563,0.134243905544281,XArbitraryZVertical,-0.05263922763528928,0.1356267101618026,0.9604474441374801,-0.2374350366525813,0.03670935705304146,-0.2855214476585388,-0.9576690196990967,0,0,0,-1,-1,3040.4714845,walking,2,2022-05-12T10:35:43.506+02:00,2022-05-11T22:15:20.957+02:00,532,0.870363,0.7433342,1.803134,416.0347,0,0,2022-05-12T10:35:43.506+02:00,674037343.5057715,0,0.1800003,100.9076,1,0.95
2022-05-12T10:35:43.864+02:00,1652344542.999938,53.22897886862348,10.39839704521969,38.28061,0,0.94,277.03125,98.86286963186505,4,5,-9999,3040.82873,-0.4112396240234375,-0.46966552734375,-1.010482788085938,3040.818735,-2.680659749604327,0.04790024162869835,0.2588967606676238,-2.988674402236938,0.5430735349655151,-1.989381313323975,-0.5068880915641785,-0.3130476474761963,0.07411539554595947,XArbitraryZVertical,-0.05259871949437339,0.1202133674770556,0.9644314058809547,-0.2294651129524923,0.04628616571426392,-0.2560142278671265,-0.9655642509460449,0,0,0,-1,-1,3040.4714845,walking,2,2022-05-12T10:35:43.506+02:00,2022-05-11T22:15:20.957+02:00,532,0.870363,0.7433342,1.803134,416.0347,0,0,2022-05-12T10:35:43.506+02:00,674037343.5057715,0,0.1800003,100.9076,1,0.95
2022-05-12T10:35:43.874+02:00,1652344542.999938,53.22897886862348,10.39839704521969,38.28061,0,0.94,277.03125,98.86286963186505,4,5,-9999,3040.838725,-0.3892364501953125,-0.4892730712890625,-1.080490112304688,3040.82873,-2.700638362093946,0.0592085810967336,0.2285413515442576,-2.864298343658447,0.7230148911476135,-2.217587471008301,-0.4797545671463013,-0.2580016851425171,0.008317291736602783,XArbitraryZVertical,-0.05362025023089355,0.1047821351886734,0.9682663997785736,-0.2204671073360944,0.0576353445649147,-0.2265570461750031,-0.9722911715507507,0,0,0,-1,-1,3040.4714845,walking,2,2022-05-12T10:35:43.506+02:00,2022-05-11T22:15:20.957+02:00,532,0.870363,0.7433342,1.803134,416.0347,0,0,2022-05-12T10:35:43.506+02:00,674037343.5057715,0,0.1800003,100.9076,1,0.95
2022-05-12T10:35:43.884+02:00,1652344542.999938,53.22897886862348,10.39839704521969,38.28061,0,0.94,277.03125,98.86286963186505,4,5,-9999,3040.84872,-0.362060546875,-0.515838623046875,-1.123321533203125,3040.838725,-2.722847104547994,0.0716426748197718,0.1990530842038244,-2.742485523223877,0.8252437710762024,-2.498111963272095,-0.4699178040027618,-0.2748088836669922,-0.07220220565795898,XArbitraryZVertical,-0.05549704942205078,0.08972311961765826,0.9719569078172667,-0.2101660338508839,0.07016797363758087,-0.1977411955595016,-0.977739691734314,0,0,0,-1,-1,3040.4714845,walking,2,2022-05-12T10:35:43.506+02:00,2022-05-11T22:15:20.957+02:00,532,0.870363,0.7433342,1.803134,416.0347,0,0,2022-05-12T10:35:43.506+02:00,674037343.5057715,0,0.1800003,100.9076,1,0.95
2022-05-12T10:35:43.894+02:00,1652344542.999938,53.22897886862348,10.39839704521969,38.28061,0,0.94,277.03125,98.86286963186505,4,5,-9999,3040.858715,-0.33447265625,-0.5199432373046875,-1.16217041015625,3040.84872,-2.747108568666406,0.08481915500847464,0.1703721309369372,-2.615387201309204,0.9243605732917786,-2.684439182281494,-0.4639536142349243,-0.3376994729042053,-0.1209568977355957,XArbitraryZVertical,-0.05808242815380963,0.07508015133666102,0.9754696086564364,-0.1986168018095695,0.08349093049764633,-0.1695491075515747,-0.9819788336753845,0,0,0,-1,-1,3040.4714845,walking,2,2022-05-12T10:35:43.506+02:00,2022-05-11T22:15:20.957+02:00,532,0.870363,0.7433342,1.803134,416.0347,0,0,2022-05-12T10:35:43.506+02:00,674037343.5057715,0,0.1800003,100.9076,1,0.95
2022-05-12T10:35:43.904+02:00,1652344542.999938,53.22897886862348,10.39839704521969,38.28061,0,0.94,277.03125,98.86286963186505,4,5,-9999,3040.868711,-0.328033447265625,-0.504180908203125,-1.164093017578125,3040.858715,-2.772630985782853,0.09856333532844989,0.1419235026425465,-2.58755898475647,1.042862772941589,-2.864500045776367,-0.439058780670166,-0.3745748400688171,-0.1599240899085999,XArbitraryZVertical,-0.06129419190568233,0.06060084170666121,0.9787265238570769,-0.1861859615705825,0.09741444885730743,-0.1414475440979004,-0.9851410984992981,0,0,0,-1,-1,3040.4714845,walking,2,2022-05-12T10:35:43.506+02:00,2022-05-11T22:15:20.957+02:00,532,0.870363,0.7433342,1.803134,416.0347,0,0,2022-05-12T10:35:43.506+02:00,674037343.5057715,0,0.1800003,100.9076,1,0.95
2022-05-12T10:35:43.914+02:00,1652344542.999938,53.22897886862348,10.39839704521969,38.28061,0,0.94,277.03125,98.86286963186505,4,5,-9999,3040.878706,-0.29193115234375,-0.51275634765625,-1.160675048828125,3040.868711,-2.799385097616675,0.1130712533820406,0.1126771899591325,-2.707401752471924,1.175300359725952,-3.016829252243042,-0.4468470513820648,-0.402942568063736,-0.1826694011688232,XArbitraryZVertical,-0.06516442791105315,0.04579194971418975,0.9817204418190758,-0.1728636930168554,0.1121149733662605,-0.1124389171600342,-0.9873133897781372,0,0,0,-1,-1,3040.4714845,walking,2,2022-05-12T10:35:43.506+02:00,2022-05-11T22:15:20.957+02:00,532,0.870363,0.7433342,1.803134,416.0347,0,0,2022-05-12T10:35:43.506+02:00,674037343.5057715,0,0.1800003,100.9076,1,0.95
2022-05-12T10:35:43.924+02:00,1652344542.999938,53.22897886862348,10.39839704521969,38.28061,0,0.94,277.03125,98.86286963186505,4,5,-9999,3040.888701,-0.2811737060546875,-0.4769744873046875,-1.144485473632812,3040.878706,-2.826589839148642,0.1281569556969165,0.08078364818003897,-2.97856879234314,1.333958148956299,-3.125408887863159,-0.4371277689933777,-0.4224176108837128,-0.1715915203094482,XArbitraryZVertical,-0.0695112219599122,0.02976345907158741,0.9843859634982284,-0.1589552585950575,0.1273896247148514,-0.08069580793380737,-0.988564670085907,0,0,0,-1,-1,3040.4714845,walking,2,2022-05-12T10:35:43.506+02:00,2022-05-11T22:15:20.957+02:00,532,0.870363,0.7433342,1.803134,416.0347,0,0,2022-05-12T10:35:43.506+02:00,674037343.5057715,0,0.1800003,100.9076,1,0.95
2022-05-12T10:35:43.941+02:00,1652344542.999938,53.22897886862348,10.39839704521969,38.28061,0,0.94,277.03125,98.86286963186505,4,5,-9999,3040.898696,-0.2620849609375,-0.369171142578125,-1.13677978515625,3040.888701,-2.853572682668102,0.1439423435132103,0.04540103264722305,-3.330198526382446,1.465479135513306,-3.116547822952271,-0.4231288731098175,-0.4642587304115295,-0.1699767112731934,XArbitraryZVertical,-0.07439544561033555,0.01208823932729525,0.9865979678047819,-0.144719694826509,0.1432979851961136,-0.04538543522357941,-0.9886384010314941,0,0,0,-1,-1,3040.4714845,walking,2,2022-05-12T10:35:43.506+02:00,2022-05-11T22:15:20.957+02:00,532,0.870363,0.7433342,1.803134,416.0347,0,0,2022-05-12T10:35:43.506+02:00,674037343.5057715,0,0.1800003,100.9076,1,0.95
2022-05-12T10:35:43.956+02:00,1652344542.999938,53.22897886862348,10.39839704521969,38.28061,0,0.94,277.03125,98.86286963186505,4,5,-9999,3040.908691,-0.231475830078125,-0.180145263671875,-1.165054321289062,3040.898696,-2.880542384023079,0.1612171335612075,0.006070529289791729,-3.614069938659668,1.73437774181366,-3.32401967048645,-0.4305667281150818,-0.4277527630329132,-0.1426394581794739,XArbitraryZVertical,-0.08022976115636021,-0.007480518830271298,0.988237849334293,-0.1299739360196403,0.1605167239904404,-0.00607049185782671,-0.9870144724845886,0,0,0,-1,-1,3040.4714845,walking,2,2022-05-12T10:35:43.506+02:00,2022-05-11T22:15:20.957+02:00,532,0.870363,0.7433342,1.803134,416.0347,0,0,2022-05-12T10:35:43.506+02:00,674037343.5057715,0,0.1800003,100.9076,1,0.95
2022-05-12T10:35:43.961+02:00,1652344542.999938,53.22897886862348,10.39839704521969,38.28061,0,0.94,277.03125,98.86286963186505,4,5,-9999,3040.918686,-0.235321044921875,-0.0583343505859375,-1.182357788085938,3040.908691,-2.907530783951888,0.1791205606896898,-0.03573423829720277,-3.691391229629517,1.936933636665344,-3.425028324127197,-0.4174303412437439,-0.3277041912078857,-0.1625319719314575,XArbitraryZVertical,-0.08673685605880806,-0.02811461610205169,0.9892079766299525,-0.1146904106972493,0.1780505329370499,0.0357266329228878,-0.9833725690841675,0,0,0,-1,-1,3040.4714845,walking,2,2022-05-12T10:35:43.506+02:00,2022-05-11T22:15:20.957+02:00,532,0.870363,0.7433342,1.803134,416.0347,0,0,2022-05-12T10:35:43.506+02:00,674037343.5057715,0,0.1800003,100.9076,1,0.95
2022-05-12T10:35:43.964+02:00,1652344542.999938,53.22897886862348,10.39839704521969,38.28061,0,0.94,277.03125,98.86286963186505,4,5,-9999,3040.928681,-0.1943359375,-0.0190887451171875,-1.164764404296875,3040.918686,-2.933798921376599,0.1984210612268431,-0.07906802709070629,-3.827131986618042,2.151218414306641,-3.410874128341675,-0.4261809587478638,-0.1534491628408432,-0.2044923901557922,XArbitraryZVertical,-0.09435791990973723,-0.04938151434107554,0.989349487911991,-0.09922582363877189,0.1965057551860809,0.07898566871881485,-0.9773160815238953,0,0,0,-1,-1,3040.4714845,walking,2,2022-05-12T10:35:43.506+02:00,2022-05-11T22:15:20.957+02:00,532,0.870363,0.7433342,1.803134,416.0347,0,0,2022-05-12T10:35:43.506+02:00,674037343.5057715,0,0.1800003,100.9076,1,0.95
2022-05-12T10:35:43.974+02:00,1652344542.999938,53.22897886862348,10.39839704521969,38.28061,0,0.94,277.03125,98.86286963186505,4,5,-9999,3040.938676,-0.208282470703125,0.1370849609375,-1.1502685546875,3040.928681,-2.959458800560836,0.2186147594235682,-0.1252781516647956,-4.180559635162354,2.418024063110352,-3.451266765594482,-0.4346601963043213,-0.1796235591173172,-0.2018008828163147,XArbitraryZVertical,-0.1027659664124613,-0.0718679780564607,0.9885925931530213,-0.08342057292834816,0.2151778787374496,0.1249507069587708,-0.9685482978820801,0,0,0,-1,-1,3040.4714845,walking,2,2022-05-12T10:35:43.506+02:00,2022-05-11T22:15:20.957+02:00,532,0.870363,0.7433342,1.803134,416.0347,0,0,2022-05-12T10:35:43.506+02:00,674037343.5057715,0,0.1800003,100.9076,1,0.95
2022-05-12T10:35:43.984+02:00,1652344542.999938,53.22897886862348,10.39839704521969,38.28061,0,0.94,277.03125,98.86286963186505,4,5,-9999,3040.948671,-0.1421661376953125,0.3444061279296875,-1.121444702148438,3040.938676,-2.983995135236012,0.2405816414122942,-0.1750291040523592,-4.425063133239746,2.706963539123535,-3.552855730056763,-0.4373247921466827,-0.1378977596759796,-0.2069385647773743,XArbitraryZVertical,-0.1123403572240315,-0.09591203213404352,0.9867312936830079,-0.06739345688559875,0.2346271723508835,0.1741368025541306,-0.9563610553741455,0,0,0,-1,-1,3040.4714845,walking,2,2022-05-12T10:35:43.506+02:00,2022-05-11T22:15:20.957+02:00,532,0.870363,0.7433342,1.803134,416.0347,0,0,2022-05-12T10:35:43.506+02:00,674037343.5057715,0,0.1800003,100.9076,1,0.95
2022-05-12T10:35:43.994+02:00,1652344542.999938,53.22897886862348,10.39839704521969,38.28061,0,0.94,277.03125,98.86286963186505,4,5,-9999,3040.958666,-0.0987396240234375,0.4827880859375,-1.07623291015625,3040.948671,-3.007111530033356,0.2644703113713456,-0.2269014212035357,-4.464391708374023,2.947017908096313,-3.416189908981323,-0.4398784041404724,0.02372771501541138,-0.1902317404747009,XArbitraryZVertical,-0.1231664481860774,-0.1207675976705166,0.9836745074806376,-0.05128248241611404,0.2546979188919067,0.2249594479799271,-0.9404904246330261,0,0,0,-1,-1,3040.4714845,walking,2,2022-05-12T10:35:43.506+02:00,2022-05-11T22:15:20.957+02:00,532,0.870363,0.7433342,1.803134,416.0347,0,0,2022-05-12T10:35:43.506+02:00,674037343.5057715,0,0.1800003,100.9076,1,0.95
2022-05-12T10:35:44.004+02:00,1652344542.999938,53.22897886862348,10.39839704521969,38.28061,0,0.94,277.03125,98.86286963186505,4,5,-9999,3040.968662,-0.040313720703125,0.629638671875,-1.012100219726562,3040.958666,-3.028028860373801,0.2899075986941277,-0.2787165780562875,-4.404911041259766,3.209519863128662,-3.331145048141479,-0.3768520951271057,0.1498957574367523,-0.1824545860290527,XArbitraryZVertical,-0.1350152621437443,-0.1453474089895909,0.9794791356995246,-0.03557941247735092,0.274832010269165,0.2751219868659973,-0.9212900400161743,0,0,0,-1,-1,3040.4714845,walking,2,2022-05-12T10:35:43.506+02:00,2022-05-11T22:15:20.957+02:00,532,0.870363,0.7433342,1.803134,416.0347,0,0,2022-05-12T10:35:43.506+02:00,674037343.5057715,0,0.1800003,100.9076,1,0.95
2022-05-12T10:35:44.015+02:00,1652344542.999938,53.22897886862348,10.39839704521969,38.28061,0,0.94,277.03125,98.86286963186505,4,5,-9999,3040.978657,-0.0379638671875,0.6368560791015625,-0.932952880859375,3040.968662,-3.047143571614232,0.3167159006983152,-0.3292910860920403,-4.260232925415039,3.277962923049927,-3.157227039337158,-0.3950555622577667,0.2132330238819122,-0.1551597118377686,XArbitraryZVertical,-0.1477503093015195,-0.1690151135650762,0.9742675514760788,-0.02016779960843533,0.2947140038013458,0.3233722746372223,-0.8992074728012085,0,0,0,-1,-1,3040.4714845,walking,2,2022-05-12T10:35:43.506+02:00,2022-05-11T22:15:20.957+02:00,532,0.870363,0.7433342,1.803134,416.0347,0,0,2022-05-12T10:35:43.506+02:00,674037343.5057715,0,0.1800003,100.9076,1,0.95
2022-05-12T10:35:44.031+02:00,1652344542.999938,53.22897886862348,10.39839704521969,38.28061,0,0.94,277.03125,98.86286963186505,4,5,-9999,3040.988652,-0.0580596923828125,0.674774169921875,-0.8330230712890625,3040.978657,-3.063632131252316,0.3448922762388605,-0.380343999912492,-4.432487487792969,3.540099859237671,-3.051133394241333,-0.3244318068027496,0.2959653735160828,-0.08672952651977539,XArbitraryZVertical,-0.1611139631546385,-0.192649138817625,0.9679363307273335,-0.005289091780163325,0.3139339983463287,0.3712399005889893,-0.8738572001457214,0,0,0,-1,-1,3040.4714845,walking,2,2022-05-12T10:35:43.506+02:00,2022-05-11T22:15:20.957+02:00,532,0.870363,0.7433342,1.803134,416.0347,0,0,2022-05-12T10:35:43.506+02:00,674037343.5057715,0,0.1800003,100.9076,1,0.95
