loggingTime(txt),locationTimestamp_since1970(s),locationLatitude(WGS84),locationLongitude(WGS84),locationAltitude(m),locationSpeed(m/s),locationSpeedAccuracy(m/s),locationCourse(°),locationCourseAccuracy(°),locationVerticalAccuracy(m),locationHorizontalAccuracy(m),locationFloor(Z),accelerometerTimestamp_sinceReboot(s),accelerometerAccelerationX(G),accelerometerAccelerationY(G),accelerometerAccelerationZ(G),motionTimestamp_sinceReboot(s),motionYaw(rad),motionRoll(rad),motionPitch(rad),motionRotationRateX(rad/s),motionRotationRateY(rad/s),motionRotationRateZ(rad/s),motionUserAccelerationX(G),motionUserAccelerationY(G),motionUserAccelerationZ(G),motionAttitudeReferenceFrame(txt),motionQuaternionX(R),motionQuaternionY(R),motionQuaternionZ(R),motionQuaternionW(R),motionGravityX(G),motionGravityY(G),motionGravityZ(G),motionMagneticFieldX(µT),motionMagneticFieldY(µT),motionMagneticFieldZ(µT),motionHeading(°),motionMagneticFieldCalibrationAccuracy(Z),activityTimestamp_sinceReboot(s),activity(txt),activityActivityConfidence(Z),activityActivityStartDate(txt),pedometerStartDate(txt),pedometerNumberofSteps(N),pedometerAverageActivePace(s/m),pedometerCurrentPace(s/m),pedometerCurrentCadence(steps/s),pedometerDistance(m),pedometerFloorAscended(N),pedometerFloorDescended(N),pedometerEndDate(txt),altimeterTimestamp_sinceReboot(s),altimeterReset(bool),altimeterRelativeAltitude(m),altimeterPressure(kPa),batteryState(N),batteryLevel(R)
2022-05-05T12:56:45.703+02:00,1651748186.998522,53.22891516615937,10.39811926894858,34.26779,0,0.44,286.875,83.67142925730032,4,10,-9999,4858.677931625,0.0134429931640625,-0.620208740234375,-0.804840087890625,4858.632951625001,-0.1509607903586366,-0.006557792309287055,0.5652139782048252,0.0361500047147274,0.06770121306180954,0.06800820678472519,0.01873666793107986,0.04725426435470581,0.02602016925811768,XArbitraryZVertical,0.2778272026849425,-0.02416823247907248,-0.07332876037009949,0.9575233618361353,-0.00553784566000104,-0.5355965495109558,-0.844455897808075,0,0,0,-1,-1,4858.597514625,unknown,2,2022-05-05T12:56:45.596+02:00,2022-05-05T12:55:18.700+02:00,21,0.7124497,0,0,14.8155,0,0,2022-05-05T12:56:45.595+02:00,673441005.5953186,0,-0.6399994,101.4547,1,0.89
2022-05-05T12:56:45.712+02:00,1651748186.998522,53.22891516615937,10.39811926894858,34.26779,0,0.44,286.875,83.67142925730032,4,10,-9999,4858.712915625,-0.0271759033203125,-0.5890045166015625,-0.8358306884765625,4858.692924625,-0.1429903782295564,-0.0124730693593951,0.5575573841630511,-0.246537983417511,-0.1393056958913803,0.281335860490799,0.03234275057911873,-0.09307724237442017,0.03894424438476562,XArbitraryZVertical,0.2740450581113135,-0.02563742908444733,-0.07038682746306774,0.9587949252338818,-0.01058374904096127,-0.5291150808334351,-0.8484840393066406,0,0,0,-1,-1,4858.597514625,unknown,2,2022-05-05T12:56:45.596+02:00,2022-05-05T12:55:18.700+02:00,21,0.7124497,0,0,14.8155,0,0,2022-05-05T12:56:45.595+02:00,673441005.5953186,0,-0.6399994,101.4547,1,0.89
2022-05-05T12:56:45.747+02:00,1651748186.998522,53.22891516615937,10.39811926894858,34.26779,0,0.44,286.875,83.67142925730032,4,10,-9999,4858.747900625001,-0.0550994873046875,-0.405029296875,-0.898681640625,4858.692924625,-0.1429903782295564,-0.0124730693593951,0.5575573841630511,-0.246537983417511,-0.1393056958913803,0.281335860490799,0.03234275057911873,-0.09307724237442017,0.03894424438476562,XArbitraryZVertical,0.2740450581113135,-0.02563742908444733,-0.07038682746306774,0.9587949252338818,-0.01058374904096127,-0.5291150808334351,-0.8484840393066406,0,0,0,-1,-1,4858.597514625,unknown,2,2022-05-05T12:56:45.596+02:00,2022-05-05T12:55:18.700+02:00,21,0.7124497,0,0,14.8155,0,0,2022-05-05T12:56:45.595+02:00,673441005.5953186,0,-0.6399994,101.4547,1,0.89
2022-05-05T12:56:45.782+02:00,1651748186.998522,53.22891516615937,10.39811926894858,34.26779,0,0.44,286.875,83.67142925730032,4,10,-9999,4858.782884625,-0.021514892578125,-0.4729461669921875,-0.9159698486328125,4858.752897625001,-0.1366699233856445,-0.03279046803911996,0.5330816232202624,-0.03194156289100647,-0.08893659710884094,-0.01155825611203909,0.002875432372093201,0.1588855981826782,-0.01740694046020508,XArbitraryZVertical,0.2616659929372477,-0.03376139081363224,-0.07016992139234796,0.9620121227780905,-0.02823556959629059,-0.5081897974014282,-0.8607821464538574,0,0,0,-1,-1,4858.597514625,unknown,2,2022-05-05T12:56:45.596+02:00,2022-05-05T12:55:18.700+02:00,21,0.7124497,0,0,14.8155,0,0,2022-05-05T12:56:45.595+02:00,673441005.5953186,0,-0.6399994,101.4547,1,0.89
2022-05-05T12:56:45.816+02:00,1651748186.998522,53.22891516615937,10.39811926894858,34.26779,0,0.44,286.875,83.67142925730032,4,10,-9999,4858.817869625001,-0.0691680908203125,-0.519317626953125,-0.89251708984375,4858.812871625,-0.1405727898287959,-0.03121004322091778,0.5315915463611037,-0.08698567003011703,0.03950679674744606,-0.06893306225538254,-0.03322092443704605,-0.01969009637832642,-0.04382914304733276,XArbitraryZVertical,0.2609393066895897,-0.03346443106506686,-0.07184291936200317,0.9620963957874864,-0.02689873427152634,-0.5069059133529663,-0.8615816235542297,0,0,0,-1,-1,4858.597514625,unknown,2,2022-05-05T12:56:45.596+02:00,2022-05-05T12:55:18.700+02:00,21,0.7124497,0,0,14.8155,0,0,2022-05-05T12:56:45.595+02:00,673441005.5953186,0,-0.6399994,101.4547,1,0.89
2022-05-05T12:56:45.852+02:00,1651748186.998522,53.22891516615937,10.39811926894858,34.26779,0,0.44,286.875,83.67142925730032,4,10,-9999,4858.852851916667,-0.0305633544921875,-0.52838134765625,-0.8615875244140625,4858.812871625,-0.1405727898287959,-0.03121004322091778,0.5315915463611037,-0.08698567003011703,0.03950679674744606,-0.06893306225538254,-0.03322092443704605,-0.01969009637832642,-0.04382914304733276,XArbitraryZVertical,0.2609393066895897,-0.03346443106506686,-0.07184291936200317,0.9620963957874864,-0.02689873427152634,-0.5069059133529663,-0.8615816235542297,0,0,0,-1,-1,4858.597514625,unknown,2,2022-05-05T12:56:45.596+02:00,2022-05-05T12:55:18.700+02:00,21,0.7124497,0,0,14.8155,0,0,2022-05-05T12:56:45.595+02:00,673441005.5953186,0,-0.6399994,101.4547,1,0.89
2022-05-05T12:56:45.886+02:00,1651748186.998522,53.22891516615937,10.39811926894858,34.26779,0,0.44,286.875,83.67142925730032,4,10,-9999,4858.887836916667,-0.0043792724609375,-0.4949951171875,-0.8973541259765625,4858.872842916667,-0.1470231057451291,-0.02321962808368778,0.5206396911439557,-0.2918957471847534,0.09855160862207413,-0.1205481886863708,-0.00854530930519104,-0.04676949977874756,0.01028794050216675,XArbitraryZVertical,0.25585324566007,-0.03009090267375143,-0.07394614354099417,0.9634135355566668,-0.02014124393463135,-0.4974351823329926,-0.8672673106193542,0,0,0,-1,-1,4858.597514625,unknown,2,2022-05-05T12:56:45.596+02:00,2022-05-05T12:55:18.700+02:00,21,0.7124497,0,0,14.8155,0,0,2022-05-05T12:56:45.595+02:00,673441005.5953186,0,-0.6399994,101.4547,1,0.89
2022-05-05T12:56:45.922+02:00,1651748186.998522,53.22891516615937,10.39811926894858,34.26779,0,0.44,286.875,83.67142925730032,4,10,-9999,4858.922820916667,-0.00970458984375,-0.5144195556640625,-0.8900299072265625,4858.872842916667,-0.1470231057451291,-0.02321962808368778,0.5206396911439557,-0.2918957471847534,0.09855160862207413,-0.1205481886863708,-0.00854530930519104,-0.04676949977874756,0.01028794050216675,XArbitraryZVertical,0.25585324566007,-0.03009090267375143,-0.07394614354099417,0.9634135355566668,-0.02014124393463135,-0.4974351823329926,-0.8672673106193542,0,0,0,-1,-1,4858.597514625,unknown,2,2022-05-05T12:56:45.596+02:00,2022-05-05T12:55:18.700+02:00,21,0.7124497,0,0,14.8155,0,0,2022-05-05T12:56:45.595+02:00,673441005.5953186,0,-0.6399994,101.4547,1,0.89
2022-05-05T12:56:45.956+02:00,1651748186.998522,53.22891516615937,10.39811926894858,34.26779,0,0.44,286.875,83.67142925730032,4,10,-9999,4858.957805916667,0.00830078125,-0.4943084716796875,-0.879547119140625,4858.932816916667,-0.1562522166707024,-0.01392710343385101,0.5147998261395124,-0.01365753170102835,0.07221627235412598,-0.1455663293600082,0.002417017705738544,-0.0220588743686676,-0.01972299814224243,XArbitraryZVertical,0.2532587502028565,-0.02658116157834399,-0.07724085681491077,0.9639436456459773,-0.01212163828313351,-0.4923606216907501,-0.8703069090843201,0,0,0,-1,-1,4858.597514625,unknown,2,2022-05-05T12:56:45.596+02:00,2022-05-05T12:55:18.700+02:00,21,0.7124497,0,0,14.8155,0,0,2022-05-05T12:56:45.595+02:00,673441005.5953186,0,-0.6399994,101.4547,1,0.89
2022-05-05T12:56:45.992+02:00,1651748186.998522,53.22891516615937,10.39811926894858,34.26779,0,0.44,286.875,83.67142925730032,4,10,-9999,4858.992789916667,0.0094451904296875,-0.4792327880859375,-0.875274658203125,4858.932816916667,-0.1562522166707024,-0.01392710343385101,0.5147998261395124,-0.01365753170102835,0.07221627235412598,-0.1455663293600082,0.002417017705738544,-0.0220588743686676,-0.01972299814224243,XArbitraryZVertical,0.2532587502028565,-0.02658116157834399,-0.07724085681491077,0.9639436456459773,-0.01212163828313351,-0.4923606216907501,-0.8703069090843201,0,0,0,-1,-1,4858.597514625,unknown,2,2022-05-05T12:56:45.596+02:00,2022-05-05T12:55:18.700+02:00,21,0.7124497,0,0,14.8155,0,0,2022-05-05T12:56:45.595+02:00,673441005.5953186,0,-0.6399994,101.4547,1,0.89
2022-05-05T12:56:46.026+02:00,1651748186.998522,53.22891516615937,10.39811926894858,34.26779,0,0.44,286.875,83.67142925730032,4,10,-9999,4859.027774916667,-0.012725830078125,-0.4764862060546875,-0.8625946044921875,4858.992789916667,-0.1653124962799999,-0.006203891071750248,0.5146562386784781,0.03889173269271851,0.03535552695393562,-0.09638233482837677,0.01910257712006569,0.01243829727172852,-0.00627899169921875,XArbitraryZVertical,0.253379782783674,-0.02400132765992388,-0.08063002558382726,0.9637019699677728,-0.005400216672569513,-0.4922356605529785,-0.8704452514648438,0,0,0,-1,-1,4858.597514625,unknown,2,2022-05-05T12:56:45.596+02:00,2022-05-05T12:55:18.700+02:00,21,0.7124497,0,0,14.8155,0,0,2022-05-05T12:56:45.595+02:00,673441005.5953186,0,-0.6399994,101.4547,1,0.89
2022-05-05T12:56:46.062+02:00,1651748186.998522,53.22891516615937,10.39811926894858,34.26779,0,0.44,286.875,83.67142925730032,4,10,-9999,4859.062758916667,0.0061187744140625,-0.4467620849609375,-0.8394775390625,4859.052763916667,-0.1680835369818213,-0.002828685949731091,0.5163527864721988,0.01472900249063969,0.0004934174939990044,-0.007307051680982113,-0.0009581074118614197,0.02450394630432129,0.01151365041732788,XArbitraryZVertical,0.2543016189297403,-0.02279472418998535,-0.08152051328306595,0.9634135343918862,-0.002459894632920623,-0.4937117099761963,-0.8696221709251404,0,0,0,-1,-1,4858.597514625,unknown,2,2022-05-05T12:56:45.596+02:00,2022-05-05T12:55:18.700+02:00,21,0.7124497,0,0,14.8155,0,0,2022-05-05T12:56:45.595+02:00,673441005.5953186,0,-0.6399994,101.4547,1,0.89
2022-05-05T12:56:46.097+02:00,1651748186.998522,53.22891516615937,10.39811926894858,34.26779,0,0.44,286.875,83.67142925730032,4,10,-9999,4859.097743916667,0.0135955810546875,-0.5166778564453125,-0.8544464111328125,4859.052763916667,-0.1680835369818213,-0.002828685949731091,0.5163527864721988,0.01472900249063969,0.0004934174939990044,-0.007307051680982113,-0.0009581074118614197,0.02450394630432129,0.01151365041732788,XArbitraryZVertical,0.2543016189297403,-0.02279472418998535,-0.08152051328306595,0.9634135343918862,-0.002459894632920623,-0.4937117099761963,-0.8696221709251404,0,0,0,-1,-1,4858.597514625,unknown,2,2022-05-05T12:56:45.596+02:00,2022-05-05T12:55:18.700+02:00,21,0.7124497,0,0,14.8155,0,0,2022-05-05T12:56:45.595+02:00,673441005.5953186,0,-0.6399994,101.4547,1,0.89
2022-05-05T12:56:46.132+02:00,1651748186.998522,53.22891516615937,10.39811926894858,34.26779,0,0.44,286.875,83.67142925730032,4,10,-9999,4859.132727916667,-0.0116729736328125,-0.5347137451171875,-0.8574371337890625,4859.112736916667,-0.1675496692575566,-0.005621296239209512,0.518752711317363,-0.04543253779411316,-0.1022317633032799,0.01490703970193863,0.01707346737384796,-0.03099706768989563,0.01335251331329346,XArbitraryZVertical,0.2553500048881647,-0.02416827896247383,-0.0815959152588466,0.963096251180203,-0.0048817228525877,-0.495797336101532,-0.8684245347976685,0,0,0,-1,-1,4858.597514625,unknown,2,2022-05-05T12:56:45.596+02:00,2022-05-05T12:55:18.700+02:00,21,0.7124497,0,0,14.8155,0,0,2022-05-05T12:56:45.595+02:00,673441005.5953186,0,-0.6399994,101.4547,1,0.89
2022-05-05T12:56:46.176+02:00,1651748186.998522,53.22891516615937,10.39811926894858,34.26779,0,0.44,286.875,83.67142925730032,4,10,-9999,4859.167712916667,0.0122222900390625,-0.4896240234375,-0.8902130126953125,4859.112736916667,-0.1675496692575566,-0.005621296239209512,0.518752711317363,-0.04543253779411316,-0.1022317633032799,0.01490703970193863,0.01707346737384796,-0.03099706768989563,0.01335251331329346,XArbitraryZVertical,0.2553500048881647,-0.02416827896247383,-0.0815959152588466,0.963096251180203,-0.0048817228525877,-0.495797336101532,-0.8684245347976685,0,0,0,-1,-1,4858.597514625,unknown,2,2022-05-05T12:56:45.596+02:00,2022-05-05T12:55:18.700+02:00,21,0.7124497,0,0,14.8155,0,0,2022-05-05T12:56:45.595+02:00,673441005.5953186,0,-0.6399994,101.4547,1,0.89
2022-05-05T12:56:46.202+02:00,1651748186.998522,53.22891516615937,10.39811926894858,34.26779,0,0.44,286.875,83.67142925730032,4,10,-9999,4859.202696916667,-0.0088043212890625,-0.504638671875,-0.876708984375,4859.172710916667,-0.168945491784391,-0.01006803527575868,0.5149017132373546,0.05357976257801056,-0.07135380804538727,-0.0592866949737072,0.01965722069144249,0.005785524845123291,-0.01289695501327515,XArbitraryZVertical,0.2532944032421905,-0.02633301567748034,-0.08286771937726137,0.9634737053966375,-0.008762476965785027,-0.4924493134021759,-0.8702970147132874,0,0,0,-1,-1,4858.597514625,unknown,2,2022-05-05T12:56:45.596+02:00,2022-05-05T12:55:18.700+02:00,21,0.7124497,0,0,14.8155,0,0,2022-05-05T12:56:45.595+02:00,673441005.5953186,0,-0.6399994,101.4547,1,0.89
2022-05-05T12:56:46.236+02:00,1651748186.998522,53.22891516615937,10.39811926894858,34.26779,0,0.44,286.875,83.67142925730032,4,10,-9999,4859.237681916667,-0.00439453125,-0.469940185546875,-0.8828582763671875,4859.232683916667,-0.1725484088887191,-0.01093750813840683,0.5153785291625949,-0.07163501530885696,-0.02422145009040833,-0.02446187101304531,0.0001171603798866272,0.01192247867584229,-0.01339918375015259,XArbitraryZVertical,0.2534394717324292,-0.02722759797307084,-0.08470935597546755,0.9632504696322985,-0.009516604244709015,-0.4928642511367798,-0.8700541853904724,0,0,0,-1,-1,4858.597514625,unknown,2,2022-05-05T12:56:45.596+02:00,2022-05-05T12:55:18.700+02:00,21,0.7124497,0,0,14.8155,0,0,2022-05-05T12:56:45.595+02:00,673441005.5953186,0,-0.6399994,101.4547,1,0.89
2022-05-05T12:56:46.272+02:00,1651748186.998522,53.22891516615937,10.39811926894858,34.26779,0,0.44,286.875,83.67142925730032,4,10,-9999,4859.272665916667,-0.002655029296875,-0.481170654296875,-0.8756103515625,4859.232683916667,-0.1725484088887191,-0.01093750813840683,0.5153785291625949,-0.07163501530885696,-0.02422145009040833,-0.02446187101304531,0.0001171603798866272,0.01192247867584229,-0.01339918375015259,XArbitraryZVertical,0.2534394717324292,-0.02722759797307084,-0.08470935597546755,0.9632504696322985,-0.009516604244709015,-0.4928642511367798,-0.8700541853904724,0,0,0,-1,-1,4858.597514625,unknown,2,2022-05-05T12:56:45.596+02:00,2022-05-05T12:55:18.700+02:00,21,0.7124497,0,0,14.8155,0,0,2022-05-05T12:56:45.595+02:00,673441005.5953186,0,-0.6399994,101.4547,1,0.89
2022-05-05T12:56:46.306+02:00,1651748186.998522,53.22891516615937,10.39811926894858,34.26779,0,0.44,286.875,83.67142925730032,4,10,-9999,4859.307650916667,0.0123443603515625,-0.5185546875,-0.8906097412109375,4859.292657916667,-0.1735054666342967,-0.01141023477008684,0.5154930700231017,-0.008786543272435665,-0.02312156371772289,0.008606334216892719,0.01235337276011705,-0.005983203649520874,-0.01028639078140259,XArbitraryZVertical,0.2534614562838857,-0.02758125596989057,-0.08522923912948523,0.9631887479794679,-0.009927256964147091,-0.4929639101028442,-0.8699931502342224,0,0,0,-1,-1,4858.597514625,unknown,2,2022-05-05T12:56:45.596+02:00,2022-05-05T12:55:18.700+02:00,21,0.7124497,0,0,14.8155,0,0,2022-05-05T12:56:45.595+02:00,673441005.5953186,0,-0.6399994,101.4547,1,0.89
2022-05-05T12:56:46.342+02:00,1651748186.998522,53.22891516615937,10.39811926894858,34.26779,0,0.44,286.875,83.67142925730032,4,10,-9999,4859.342634916667,0.0067291259765625,-0.4873199462890625,-0.8846435546875,4859.292657916667,-0.1735054666342967,-0.01141023477008684,0.5154930700231017,-0.008786543272435665,-0.02312156371772289,0.008606334216892719,0.01235337276011705,-0.005983203649520874,-0.01028639078140259,XArbitraryZVertical,0.2534614562838857,-0.02758125596989057,-0.08522923912948523,0.9631887479794679,-0.009927256964147091,-0.4929639101028442,-0.8699931502342224,0,0,0,-1,-1,4858.597514625,unknown,2,2022-05-05T12:56:45.596+02:00,2022-05-05T12:55:18.700+02:00,21,0.7124497,0,0,14.8155,0,0,2022-05-05T12:56:45.595+02:00,673441005.5953186,0,-0.6399994,101.4547,1,0.89
2022-05-05T12:56:46.377+02:00,1651748186.998522,53.22891516615937,10.39811926894858,34.26779,0,0.44,286.875,83.67142925730032,4,10,-9999,4859.377619916667,-0.0067596435546875,-0.5064697265625,-0.8820343017578125,4859.352630916667,-0.1728314855917638,-0.01367005823471879,0.5103684167137765,-0.04157974570989609,-0.02192014455795288,0.02388535439968109,0.01865673437714577,0.001178860664367676,-0.01216048002243042,XArbitraryZVertical,0.2509050436125251,-0.02837468741699078,-0.08523021285398676,0.963834722388518,-0.01192763727158308,-0.4884987473487854,-0.8724830746650696,0,0,0,-1,-1,4858.597514625,unknown,2,2022-05-05T12:56:45.596+02:00,2022-05-05T12:55:18.700+02:00,21,0.7124497,0,0,14.8155,0,0,2022-05-05T12:56:45.595+02:00,673441005.5953186,0,-0.6399994,101.4547,1,0.89
2022-05-05T12:56:46.412+02:00,1651748186.998522,53.22891516615937,10.39811926894858,34.26779,0,0.44,286.875,83.67142925730032,4,10,-9999,4859.412603916667,-0.023681640625,-0.504058837890625,-0.8735198974609375,4859.352630916667,-0.1728314855917638,-0.01367005823471879,0.5103684167137765,-0.04157974570989609,-0.02192014455795288,0.02388535439968109,0.01865673437714577,0.001178860664367676,-0.01216048002243042,XArbitraryZVertical,0.2509050436125251,-0.02837468741699078,-0.08523021285398676,0.963834722388518,-0.01192763727158308,-0.4884987473487854,-0.8724830746650696,0,0,0,-1,-1,4858.597514625,unknown,2,2022-05-05T12:56:45.596+02:00,2022-05-05T12:55:18.700+02:00,21,0.7124497,0,0,14.8155,0,0,2022-05-05T12:56:45.595+02:00,673441005.5953186,0,-0.6399994,101.4547,1,0.89
2022-05-05T12:56:46.446+02:00,1651748186.998522,53.22891516615937,10.39811926894858,34.26779,0,0.44,286.875,83.67142925730032,4,10,-9999,4859.447588916667,0.0124969482421875,-0.503692626953125,-0.8716278076171875,4859.412603916667,-0.1728707687915482,-0.01398862909947193,0.5097975345130308,0.01582795567810535,0.02310258895158768,-0.02330545894801617,-0.0130285881459713,-0.01840811967849731,0.002503395080566406,XArbitraryZVertical,0.2506156920013256,-0.02850979814999982,-0.08529340081783633,0.9639004187981661,-0.01220948342233896,-0.4880005419254303,-0.8727579116821289,0,0,0,-1,-1,4858.597514625,unknown,2,2022-05-05T12:56:45.596+02:00,2022-05-05T12:55:18.700+02:00,21,0.7124497,0,0,14.8155,0,0,2022-05-05T12:56:45.595+02:00,673441005.5953186,0,-0.6399994,101.4547,1,0.89
2022-05-05T12:56:46.481+02:00,1651748186.998522,53.22891516615937,10.39811926894858,34.26779,0,0.44,286.875,83.67142925730032,4,10,-9999,4859.482572916667,-0.009307861328125,-0.489715576171875,-0.8702392578125,4859.472577916667,-0.1755925818727342,-0.01154960211594988,0.5090509545558908,-0.0893268883228302,0.01121517084538937,-0.03624588996171951,0.01089365873485804,-0.005876302719116211,-0.002064406871795654,XArbitraryZVertical,0.2503221819678192,-0.02764433082200105,-0.08630561849938577,0.9639118415877047,-0.01008497457951307,-0.4873487651348114,-0.8731492161750793,0,0,0,-1,-1,4858.597514625,unknown,2,2022-05-05T12:56:45.596+02:00,2022-05-05T12:55:18.700+02:00,21,0.7124497,0,0,14.8155,0,0,2022-05-05T12:56:45.595+02:00,673441005.5953186,0,-0.6399994,101.4547,1,0.89
2022-05-05T12:56:46.516+02:00,1651748186.998522,53.22891516615937,10.39811926894858,34.26779,0,0.44,286.875,83.67142925730032,4,10,-9999,4859.517557916667,-0.0378570556640625,-0.5187225341796875,-0.8716888427734375,4859.472577916667,-0.1755925818727342,-0.01154960211594988,0.5090509545558908,-0.0893268883228302,0.01121517084538937,-0.03624588996171951,0.01089365873485804,-0.005876302719116211,-0.002064406871795654,XArbitraryZVertical,0.2503221819678192,-0.02764433082200105,-0.08630561849938577,0.9639118415877047,-0.01008497457951307,-0.4873487651348114,-0.8731492161750793,0,0,0,-1,-1,4858.597514625,unknown,2,2022-05-05T12:56:45.596+02:00,2022-05-05T12:55:18.700+02:00,21,0.7124497,0,0,14.8155,0,0,2022-05-05T12:56:45.595+02:00,673441005.5953186,0,-0.6399994,101.4547,1,0.89
2022-05-05T12:56:46.551+02:00,1651748186.998522,53.22891516615937,10.39811926894858,34.26779,0,0.44,286.875,83.67142925730032,4,10,-9999,4859.552542916667,-0.1044464111328125,-0.556884765625,-0.85888671875,4859.532550916667,-0.1804456289563505,-0.006524026316416924,0.5002527194214702,-0.2796071171760559,0.08556310832500458,-0.1672395318746567,-0.03648130223155022,-0.04874929785728455,0.006608366966247559,XArbitraryZVertical,0.2462335267215444,-0.02544975979166929,-0.08810031433320406,0.964862600355914,-0.005724540445953608,-0.479647308588028,-0.8774427175521851,0,0,0,-1,-1,4858.597514625,unknown,2,2022-05-05T12:56:45.596+02:00,2022-05-05T12:55:18.700+02:00,21,0.7124497,0,0,14.8155,0,0,2022-05-05T12:56:45.595+02:00,673441005.5953186,0,-0.6399994,101.4547,1,0.89
2022-05-05T12:56:46.586+02:00,1651748186.998522,53.22891516615937,10.39811926894858,34.26779,0,0.44,286.875,83.67142925730032,4,10,-9999,4859.587526916667,-0.247161865234375,-0.6553192138671875,-0.8542327880859375,4859.532550916667,-0.1804456289563505,-0.006524026316416924,0.5002527194214702,-0.2796071171760559,0.08556310832500458,-0.1672395318746567,-0.03648130223155022,-0.04874929785728455,0.006608366966247559,XArbitraryZVertical,0.2462335267215444,-0.02544975979166929,-0.08810031433320406,0.964862600355914,-0.005724540445953608,-0.479647308588028,-0.8774427175521851,0,0,0,-1,-1,4858.597514625,unknown,2,2022-05-05T12:56:45.596+02:00,2022-05-05T12:55:18.700+02:00,21,0.7124497,0,0,14.8155,0,0,2022-05-05T12:56:45.595+02:00,673441005.5953186,0,-0.6399994,101.4547,1,0.89
2022-05-05T12:56:46.622+02:00,1651748186.998522,53.22891516615937,10.39811926894858,34.26779,0,0.44,286.875,83.67142925730032,4,10,-9999,4859.622511916667,-0.2702178955078125,-0.6168670654296875,-0.8629913330078125,4859.592524916667,-0.2062608437561662,0.01868085050277124,0.46636799549871,-1.14392626285553,0.4293674826622009,-0.688810408115387,-0.2642892897129059,-0.2226571142673492,0.03575164079666138,XArbitraryZVertical,0.2307742408226366,-0.01474853731593825,-0.09801025357981472,0.9679462231005929,0.01668490096926689,-0.4496451318264008,-0.8930514454841614,0,0,0,-1,-1,4858.597514625,unknown,2,2022-05-05T12:56:45.596+02:00,2022-05-05T12:55:18.700+02:00,21,0.7124497,0,0,14.8155,0,0,2022-05-05T12:56:45.595+02:00,673441005.5953186,0,-0.6399994,101.4547,1,0.89
2022-05-05T12:56:46.668+02:00,1651748186.998522,53.22891516615937,10.39811926894858,34.26779,0,0.44,286.875,83.67142925730032,4,10,-9999,4859.657495916667,-0.1832275390625,-0.545928955078125,-0.8823089599609375,4859.652497916667,-0.2720072347027068,0.09826255334553692,0.3559157067152963,-2.324110269546509,1.484830498695374,-1.511920690536499,-0.3040837943553925,-0.2182930707931519,0.03928208351135254,XArbitraryZVertical,0.1817273672891148,0.02391730926715879,-0.1246689996054586,0.97512094049929,0.09195607900619507,-0.3484488427639008,-0.9328062534332275,0,0,0,-1,-1,4858.597514625,unknown,2,2022-05-05T12:56:45.596+02:00,2022-05-05T12:55:18.700+02:00,21,0.7124497,0,0,14.8155,0,0,2022-05-05T12:56:45.595+02:00,673441005.5953186,0,-0.6399994,101.4547,1,0.89
2022-05-05T12:56:46.692+02:00,1651748186.998522,53.22891516615937,10.39811926894858,34.26779,0,0.44,286.875,83.67142925730032,4,10,-9999,4859.692480916667,-0.11834716796875,-0.4228973388671875,-0.9969024658203125,4859.652497916667,-0.2720072347027068,0.09826255334553692,0.3559157067152963,-2.324110269546509,1.484830498695374,-1.511920690536499,-0.3040837943553925,-0.2182930707931519,0.03928208351135254,XArbitraryZVertical,0.1817273672891148,0.02391730926715879,-0.1246689996054586,0.97512094049929,0.09195607900619507,-0.3484488427639008,-0.9328062534332275,0,0,0,-1,-1,4858.597514625,unknown,2,2022-05-05T12:56:45.596+02:00,2022-05-05T12:55:18.700+02:00,21,0.7124497,0,0,14.8155,0,0,2022-05-05T12:56:45.595+02:00,673441005.5953186,0,-0.6399994,101.4547,1,0.89
2022-05-05T12:56:46.726+02:00,1651748186.998522,53.22891516615937,10.39811926894858,34.26779,0,0.44,286.875,83.67142925730032,4,10,-9999,4859.727464916667,0.1019134521484375,-0.1497650146484375,-1.11151123046875,4859.712471916667,-0.3491163651777215,0.2488531056854714,0.1685636004300557,-3.239407777786255,2.969886541366577,-1.925910592079163,-0.3253213167190552,-0.1673012226819992,-0.0752723217010498,XArbitraryZVertical,0.1037391640263494,0.1072787926092003,-0.1614299697474926,0.9755356517322403,0.2428018003702164,-0.1677664816379547,-0.9554588794708252,0,0,0,-1,-1,4858.597514625,unknown,2,2022-05-05T12:56:45.596+02:00,2022-05-05T12:55:18.700+02:00,21,0.7124497,0,0,14.8155,0,0,2022-05-05T12:56:45.595+02:00,673441005.5953186,0,-0.6399994,101.4547,1,0.89
2022-05-05T12:56:46.762+02:00,1651748186.998522,53.22891516615937,10.39811926894858,34.26779,0,0.44,286.875,83.67142925730032,4,10,-9999,4859.762449916667,0.3221588134765625,0.0218658447265625,-1.0863037109375,4859.712471916667,-0.3491163651777215,0.2488531056854714,0.1685636004300557,-3.239407777786255,2.969886541366577,-1.925910592079163,-0.3253213167190552,-0.1673012226819992,-0.0752723217010498,XArbitraryZVertical,0.1037391640263494,0.1072787926092003,-0.1614299697474926,0.9755356517322403,0.2428018003702164,-0.1677664816379547,-0.9554588794708252,0,0,0,-1,-1,4858.597514625,unknown,2,2022-05-05T12:56:45.596+02:00,2022-05-05T12:55:18.700+02:00,21,0.7124497,0,0,14.8155,0,0,2022-05-05T12:56:45.595+02:00,673441005.5953186,0,-0.6399994,101.4547,1,0.89
2022-05-05T12:56:46.796+02:00,1651748186.998522,53.22891516615937,10.39811926894858,34.26779,0,0.44,286.875,83.67142925730032,4,10,-9999,4859.797433916667,0.43377685546875,0.175140380859375,-0.813934326171875,4859.772444916667,-0.4013025351702847,0.4572329135559441,-0.04528225727281623,-3.038671493530273,3.639256000518799,-1.977002620697021,-0.1188556551933289,-0.02340088039636612,-0.1899459362030029,XArbitraryZVertical,0.02354978919273289,0.2264211537489078,-0.1990998025511248,0.9531726561261337,0.4410144090652466,0.04526678472757339,-0.8963577151298523,0,0,0,-1,-1,4858.597514625,unknown,2,2022-05-05T12:56:45.596+02:00,2022-05-05T12:55:18.700+02:00,21,0.7124497,0,0,14.8155,0,0,2022-05-05T12:56:45.595+02:00,673441005.5953186,0,-0.6399994,101.4547,1,0.89
2022-05-05T12:56:46.831+02:00,1651748186.998522,53.22891516615937,10.39811926894858,34.26779,0,0.44,286.875,83.67142925730032,4,10,-9999,4859.832418916667,0.66998291015625,0.38177490234375,-0.6597747802734375,4859.772444916667,-0.4013025351702847,0.4572329135559441,-0.04528225727281623,-3.038671493530273,3.639256000518799,-1.977002620697021,-0.1188556551933289,-0.02340088039636612,-0.1899459362030029,XArbitraryZVertical,0.02354978919273289,0.2264211537489078,-0.1990998025511248,0.9531726561261337,0.4410144090652466,0.04526678472757339,-0.8963577151298523,0,0,0,-1,-1,4858.597514625,unknown,2,2022-05-05T12:56:45.596+02:00,2022-05-05T12:55:18.700+02:00,21,0.7124497,0,0,14.8155,0,0,2022-05-05T12:56:45.595+02:00,673441005.5953186,0,-0.6399994,101.4547,1,0.89
2022-05-05T12:56:46.866+02:00,1651748186.998522,53.22891516615937,10.39811926894858,34.26779,0,0.44,286.875,83.67142925730032,4,10,-9999,4859.867404875,0.662872314453125,0.5698394775390625,-0.481903076171875,4859.832418916667,-0.3809166821731197,0.6752111636335426,-0.2629381063199535,-3.318344831466675,3.417990922927856,-1.308966636657715,0.05796569585800171,0.1199335753917694,0.05834293365478516,XArbitraryZVertical,-0.05929056158347538,0.345848427962859,-0.2197169654178036,0.9102735547986183,0.603579044342041,0.2599188089370728,-0.7537469863891602,0,0,0,-1,-1,4858.597514625,unknown,2,2022-05-05T12:56:45.596+02:00,2022-05-05T12:55:18.700+02:00,21,0.7124497,0,0,14.8155,0,0,2022-05-05T12:56:45.595+02:00,673441005.5953186,0,-0.6399994,101.4547,1,0.89
2022-05-05T12:56:46.901+02:00,1651748186.998522,53.22891516615937,10.39811926894858,34.26779,0,0.44,286.875,83.67142925730032,4,10,-9999,4859.902389875,0.7894744873046875,0.6539154052734375,-0.1873931884765625,4859.892393875,-0.2932014717326002,0.8963889911256614,-0.4249433419062434,-2.253811120986938,2.742042303085327,-0.5123360157012939,0.04060268402099609,0.1822133660316467,0.2297263145446777,XArbitraryZVertical,-0.1261329091504449,0.4468122371836372,-0.2190888187711731,0.8581663354460138,0.7116098403930664,0.4122691750526428,-0.568898618221283,0,0,0,-1,-1,4858.597514625,unknown,2,2022-05-05T12:56:45.596+02:00,2022-05-05T12:55:18.700+02:00,21,0.7124497,0,0,14.8155,0,0,2022-05-05T12:56:45.595+02:00,673441005.5953186,0,-0.6399994,101.4547,1,0.89
2022-05-05T12:56:46.936+02:00,1651748186.998522,53.22891516615937,10.39811926894858,34.26779,0,0.44,286.875,83.67142925730032,4,10,-9999,4859.937373875,0.885833740234375,0.57061767578125,-0.172637939453125,4859.892393875,-0.2932014717326002,0.8963889911256614,-0.4249433419062434,-2.253811120986938,2.742042303085327,-0.5123360157012939,0.04060268402099609,0.1822133660316467,0.2297263145446777,XArbitraryZVertical,-0.1261329091504449,0.4468122371836372,-0.2190888187711731,0.8581663354460138,0.7116098403930664,0.4122691750526428,-0.568898618221283,0,0,0,-1,-1,4858.597514625,unknown,2,2022-05-05T12:56:45.596+02:00,2022-05-05T12:55:18.700+02:00,21,0.7124497,0,0,14.8155,0,0,2022-05-05T12:56:45.595+02:00,673441005.5953186,0,-0.6399994,101.4547,1,0.89
2022-05-05T12:56:46.971+02:00,1651748186.998522,53.22891516615937,10.39811926894858,34.26779,0,0.44,286.875,83.67142925730032,4,10,-9999,4859.972358875,0.8541717529296875,0.5769195556640625,-0.2466583251953125,4859.952367875,-0.2142209060154766,1.0485212483376,-0.4794967618401677,-0.9086971282958984,1.32600736618042,0.2517251670360565,0.1013219356536865,0.1010147035121918,0.252090185880661,XArbitraryZVertical,-0.1524046281781236,0.5054451212553523,-0.2080846334442238,0.823406824419434,0.7689477801322937,0.4613327383995056,-0.4425961077213287,0,0,0,-1,-1,4858.597514625,unknown,2,2022-05-05T12:56:45.596+02:00,2022-05-05T12:55:18.700+02:00,21,0.7124497,0,0,14.8155,0,0,2022-05-05T12:56:45.595+02:00,673441005.5953186,0,-0.6399994,101.4547,1,0.89
2022-05-05T12:56:47.006+02:00,1651748186.998522,53.22891516615937,10.39811926894858,34.26779,0,0.44,286.875,83.67142925730032,4,10,-9999,4860.007343875001,0.7968902587890625,0.535980224609375,-0.462860107421875,4859.952367875,-0.2142209060154766,1.0485212483376,-0.4794967618401677,-0.9086971282958984,1.32600736618042,0.2517251670360565,0.1013219356536865,0.1010147035121918,0.252090185880661,XArbitraryZVertical,-0.1524046281781236,0.5054451212553523,-0.2080846334442238,0.823406824419434,0.7689477801322937,0.4613327383995056,-0.4425961077213287,0,0,0,-1,-1,4858.597514625,unknown,2,2022-05-05T12:56:45.596+02:00,2022-05-05T12:55:18.700+02:00,21,0.7124497,0,0,14.8155,0,0,2022-05-05T12:56:45.595+02:00,673441005.5953186,0,-0.6399994,101.4547,1,0.89
2022-05-05T12:56:47.041+02:00,1651748186.998522,53.22891516615937,10.39811926894858,34.26779,0,0.44,286.875,83.67142925730032,4,10,-9999,4860.042327875,0.7771759033203125,0.4940185546875,-0.5411834716796875,4860.012340875001,-0.2033256197010709,1.126788056281558,-0.4586379067844664,0.7115282416343689,1.294574022293091,0.4813747406005859,-0.003363370895385742,0.09689998626708984,-0.05988305807113647,XArbitraryZVertical,-0.1384085078053807,0.5368967036458656,-0.2043287627277085,0.8067434353972918,0.8097140789031982,0.4427271783351898,-0.385170042514801,0,0,0,-1,-1,4858.597514625,unknown,2,2022-05-05T12:56:45.596+02:00,2022-05-05T12:55:18.700+02:00,21,0.7124497,0,0,14.8155,0,0,2022-05-05T12:56:45.595+02:00,673441005.5953186,0,-0.6399994,101.4547,1,0.89
2022-05-05T12:56:47.077+02:00,1651748186.998522,53.22891516615937,10.39811926894858,34.26779,0,0.44,286.875,83.67142925730032,4,10,-9999,4860.077312875001,0.7807159423828125,0.2567901611328125,-0.4985809326171875,4860.072314875,-0.2410765758448438,1.197157914409507,-0.4156434403005697,0.4915323257446289,1.604359149932861,0.37901771068573,-0.05351883172988892,-0.05589351058006287,-0.1550556719303131,XArbitraryZVertical,-0.102921884298015,0.567840961069238,-0.2126190884491565,0.788515560396478,0.8517365455627441,0.4037786722183228,-0.3339274525642395,0,0,0,-1,-1,4858.597514625,unknown,2,2022-05-05T12:56:45.596+02:00,2022-05-05T12:55:18.700+02:00,21,0.7124497,0,0,14.8155,0,0,2022-05-05T12:56:45.595+02:00,673441005.5953186,0,-0.6399994,101.4547,1,0.89
2022-05-05T12:56:47.111+02:00,1651748186.998522,53.22891516615937,10.39811926894858,34.26779,0,0.44,286.875,83.67142925730032,4,10,-9999,4860.112296875001,0.7981109619140625,0.3715057373046875,-0.3646697998046875,4860.072314875,-0.2410765758448438,1.197157914409507,-0.4156434403005697,0.4915323257446289,1.604359149932861,0.37901771068573,-0.05351883172988892,-0.05589351058006287,-0.1550556719303131,XArbitraryZVertical,-0.102921884298015,0.567840961069238,-0.2126190884491565,0.788515560396478,0.8517365455627441,0.4037786722183228,-0.3339274525642395,0,0,0,-1,-1,4858.597514625,unknown,2,2022-05-05T12:56:45.596+02:00,2022-05-05T12:55:18.700+02:00,21,0.7124497,0,0,14.8155,0,0,2022-05-05T12:56:45.595+02:00,673441005.5953186,0,-0.6399994,101.4547,1,0.89
2022-05-05T12:56:47.146+02:00,1651748186.998522,53.22891516615937,10.39811926894858,34.26779,0,0.44,286.875,83.67142925730032,4,10,-9999,4860.147281875,0.834503173828125,0.3113250732421875,-0.0654754638671875,4860.132287875001,-0.2285136724223173,1.309078483631449,-0.4012948010929551,-0.3298266232013702,1.886416077613831,0.1733073890209198,-0.08137744665145874,-0.04144370555877686,-0.05159470438957214,XArbitraryZVertical,-0.08906730777297486,0.6107164326401788,-0.2091753448825986,0.7585104392274484,0.889208197593689,0.3906106054782867,-0.2381849139928818,0,0,0,-1,-1,4858.597514625,unknown,2,2022-05-05T12:56:45.596+02:00,2022-05-05T12:55:18.700+02:00,21,0.7124497,0,0,14.8155,0,0,2022-05-05T12:56:45.595+02:00,673441005.5953186,0,-0.6399994,101.4547,1,0.89
2022-05-05T12:56:47.181+02:00,1651748186.998522,53.22891516615937,10.39811926894858,34.26779,0,0.44,286.875,83.67142925730032,4,10,-9999,4860.182265875001,0.9454803466796875,0.28070068359375,0.2971649169921875,4860.132287875001,-0.2285136724223173,1.309078483631449,-0.4012948010929551,-0.3298266232013702,1.886416077613831,0.1733073890209198,-0.08137744665145874,-0.04144370555877686,-0.05159470438957214,XArbitraryZVertical,-0.08906730777297486,0.6107164326401788,-0.2091753448825986,0.7585104392274484,0.889208197593689,0.3906106054782867,-0.2381849139928818,0,0,0,-1,-1,4858.597514625,unknown,2,2022-05-05T12:56:45.596+02:00,2022-05-05T12:55:18.700+02:00,21,0.7124497,0,0,14.8155,0,0,2022-05-05T12:56:45.595+02:00,673441005.5953186,0,-0.6399994,101.4547,1,0.89
2022-05-05T12:56:47.216+02:00,1651748186.998522,53.22891516615937,10.39811926894858,34.26779,0,0.44,286.875,83.67142925730032,4,10,-9999,4860.217250875,1.1163330078125,0.3390960693359375,0.936431884765625,4860.192261875,-0.1768652819838923,1.437822076422877,-0.4069648518925912,-1.526991009712219,1.559933662414551,-0.06750774383544922,0.03526091575622559,-0.1151231527328491,0.4189192056655884,XArbitraryZVertical,-0.09451368502778916,0.6558887497634576,-0.1976533809414943,0.722364390120297,0.9102194309234619,0.3958238959312439,-0.1217542216181755,0,0,0,-1,-1,4858.597514625,unknown,2,2022-05-05T12:56:45.596+02:00,2022-05-05T12:55:18.700+02:00,21,0.7124497,0,0,14.8155,0,0,2022-05-05T12:56:45.595+02:00,673441005.5953186,0,-0.6399994,101.4547,1,0.89
2022-05-05T12:56:47.251+02:00,1651748186.998522,53.22891516615937,10.39811926894858,34.26779,0,0.44,286.875,83.67142925730032,4,10,-9999,4860.252234875,1.187744140625,0.165557861328125,2.369461059570312,4860.192261875,-0.1768652819838923,1.437822076422877,-0.4069648518925912,-1.526991009712219,1.559933662414551,-0.06750774383544922,0.03526091575622559,-0.1151231527328491,0.4189192056655884,XArbitraryZVertical,-0.09451368502778916,0.6558887497634576,-0.1976533809414943,0.722364390120297,0.9102194309234619,0.3958238959312439,-0.1217542216181755,0,0,0,-1,-1,4858.597514625,unknown,2,2022-05-05T12:56:45.596+02:00,2022-05-05T12:55:18.700+02:00,21,0.7124497,0,0,14.8155,0,0,2022-05-05T12:56:45.595+02:00,673441005.5953186,0,-0.6399994,101.4547,1,0.89
2022-05-05T12:56:47.286+02:00,1651748186.998522,53.22891516615937,10.39811926894858,34.26779,0,0.44,286.875,83.67142925730032,4,10,-9999,4860.287219875,1.13330078125,0.2646026611328125,3.735153198242188,4860.252234875,-0.07179728224717229,1.522421690680686,-0.4097000143251143,-1.825034618377686,-1.11587119102478,0.2350804805755615,0.2759712934494019,-0.1762881278991699,1.814403891563416,XArbitraryZVertical,-0.1229418094231679,0.6802267085859132,-0.1656703847955863,0.7033707517238652,0.9161674976348877,0.3983341753482819,-0.04435387253761292,0,0,0,-1,-1,4858.597514625,unknown,2,2022-05-05T12:56:45.596+02:00,2022-05-05T12:55:18.700+02:00,21,0.7124497,0,0,14.8155,0,0,2022-05-05T12:56:45.595+02:00,673441005.5953186,0,-0.6399994,101.4547,1,0.89
2022-05-05T12:56:47.321+02:00,1651748186.998522,53.22891516615937,10.39811926894858,34.26779,0,0.44,286.875,83.67142925730032,4,10,-9999,4860.322203875,-0.50927734375,0.5598297119140625,2.442474365234375,4860.312208875001,0.1260661502200142,1.220958782690882,-0.4495843381189593,-3.794018507003784,-11.78306484222412,-0.8757299184799194,-0.1934722661972046,-0.4836176633834839,3.770935773849487,XArbitraryZVertical,-0.2174806002133425,0.546222725266939,-0.07721327379072858,0.8052210748752796,0.8460752964019775,0.4345912039279938,-0.308685839176178,0,0,0,-1,-1,4858.597514625,unknown,2,2022-05-05T12:56:45.596+02:00,2022-05-05T12:55:18.700+02:00,21,0.7124497,0,0,14.8155,0,0,2022-05-05T12:56:45.595+02:00,673441005.5953186,0,-0.6399994,101.4547,1,0.89
2022-05-05T12:56:47.356+02:00,1651748186.998522,53.22891516615937,10.39811926894858,34.26779,0,0.44,286.875,83.67142925730032,4,10,-9999,4860.357188875,1.458572387695312,7.327255249023438,-3.53765869140625,4860.312208875001,0.1260661502200142,1.220958782690882,-0.4495843381189593,-3.794018507003784,-11.78306484222412,-0.8757299184799194,-0.1934722661972046,-0.4836176633834839,3.770935773849487,XArbitraryZVertical,-0.2174806002133425,0.546222725266939,-0.07721327379072858,0.8052210748752796,0.8460752964019775,0.4345912039279938,-0.308685839176178,0,0,0,-1,-1,4858.597514625,unknown,2,2022-05-05T12:56:45.596+02:00,2022-05-05T12:55:18.700+02:00,21,0.7124497,0,0,14.8155,0,0,2022-05-05T12:56:45.595+02:00,673441005.5953186,0,-0.6399994,101.4547,1,0.89
2022-05-05T12:56:47.391+02:00,1651748186.998522,53.22891516615937,10.39811926894858,34.26779,0,0.44,286.875,83.67142925730032,4,10,-9999,4860.392173875,0.07037353515625,0.7853546142578125,-1.044998168945312,4860.372181875,0.171943851487578,1.079430153045343,-0.4462560309235394,-2.614798069000244,0.6013083457946777,0.001690770499408245,-0.3934282064437866,1.416965365409851,1.939143538475037,XArbitraryZVertical,-0.2321580526308122,0.483001604217294,-0.04145993437277407,0.843263486447858,0.7953447103500366,0.4315912425518036,-0.4256241917610168,0,0,0,-1,-1,4858.597514625,unknown,2,2022-05-05T12:56:45.596+02:00,2022-05-05T12:55:18.700+02:00,21,0.7124497,0,0,14.8155,0,0,2022-05-05T12:56:45.595+02:00,673441005.5953186,0,-0.6399994,101.4547,1,0.89
2022-05-05T12:56:47.426+02:00,1651748186.998522,53.22891516615937,10.39811926894858,34.26779,0,0.44,286.875,83.67142925730032,4,10,-9999,4860.427157875,0.5189208984375,-0.079193115234375,-0.1209869384765625,4860.372181875,0.171943851487578,1.079430153045343,-0.4462560309235394,-2.614798069000244,0.6013083457946777,0.001690770499408245,-0.3934282064437866,1.416965365409851,1.939143538475037,XArbitraryZVertical,-0.2321580526308122,0.483001604217294,-0.04145993437277407,0.843263486447858,0.7953447103500366,0.4315912425518036,-0.4256241917610168,0,0,0,-1,-1,4858.597514625,unknown,2,2022-05-05T12:56:45.596+02:00,2022-05-05T12:55:18.700+02:00,21,0.7124497,0,0,14.8155,0,0,2022-05-05T12:56:45.595+02:00,673441005.5953186,0,-0.6399994,101.4547,1,0.89
2022-05-05T12:56:47.461+02:00,1651748186.998522,53.22891516615937,10.39811926894858,34.26779,0,0.44,286.875,83.67142925730032,4,10,-9999,4860.462142875001,0.661376953125,0.3155364990234375,-0.122772216796875,4860.432155875001,0.1313741094862757,1.000656684311849,-0.4097045895215675,0.7051510214805603,-1.348208427429199,-0.3425628542900085,-0.2789908647537231,-0.5880050659179688,0.2466203272342682,XArbitraryZVertical,-0.20893305021766,0.4569544949300851,-0.0409843205161785,0.8636317809832444,0.7721548676490784,0.3983383774757385,-0.4950791299343109,0,0,0,-1,-1,4858.597514625,unknown,2,2022-05-05T12:56:45.596+02:00,2022-05-05T12:55:18.700+02:00,21,0.7124497,0,0,14.8155,0,0,2022-05-05T12:56:45.595+02:00,673441005.5953186,0,-0.6399994,101.4547,1,0.89
2022-05-05T12:56:47.496+02:00,1651748186.998522,53.22891516615937,10.39811926894858,34.26779,0,0.44,286.875,83.67142925730032,4,10,-9999,4860.497126875001,0.614288330078125,0.494659423828125,-0.15081787109375,4860.492129875001,0.0849883955800743,0.9410925589441003,-0.418226925231459,0.2509643137454987,-0.1909604370594025,-0.5916245579719543,-0.1994199752807617,0.2098871171474457,0.2160502076148987,XArbitraryZVertical,-0.2037050482847816,0.4352358887210641,-0.05699232916053264,0.875114846014259,0.7385435104370117,0.4061408340930939,-0.5381479263305664,0,0,0,-1,-1,4858.597514625,unknown,2,2022-05-05T12:56:45.596+02:00,2022-05-05T12:55:18.700+02:00,21,0.7124497,0,0,14.8155,0,0,2022-05-05T12:56:45.595+02:00,673441005.5953186,0,-0.6399994,101.4547,1,0.89
2022-05-05T12:56:47.531+02:00,1651748186.998522,53.22891516615937,10.39811926894858,34.26779,0,0.44,286.875,83.67142925730032,4,10,-9999,4860.532111875001,0.7452850341796875,0.2548675537109375,-0.50372314453125,4860.492129875001,0.0849883955800743,0.9410925589441003,-0.418226925231459,0.2509643137454987,-0.1909604370594025,-0.5916245579719543,-0.1994199752807617,0.2098871171474457,0.2160502076148987,XArbitraryZVertical,-0.2037050482847816,0.4352358887210641,-0.05699232916053264,0.875114846014259,0.7385435104370117,0.4061408340930939,-0.5381479263305664,0,0,0,-1,-1,4858.597514625,unknown,2,2022-05-05T12:56:45.596+02:00,2022-05-05T12:55:18.700+02:00,21,0.7124497,0,0,14.8155,0,0,2022-05-05T12:56:45.595+02:00,673441005.5953186,0,-0.6399994,101.4547,1,0.89
2022-05-05T12:56:47.566+02:00,1651748186.998522,53.22891516615937,10.39811926894858,34.26779,0,0.44,286.875,83.67142925730032,4,10,-9999,4860.567095875001,0.72991943359375,0.3586883544921875,-0.6866302490234375,4860.552102875,0.06868999115845099,0.9284848610868971,-0.4486752688874546,-0.333173543214798,-0.01041322574019432,-0.5313701033592224,0.04881823062896729,-0.2034408152103424,-0.08141434192657471,XArbitraryZVertical,-0.2137878564261392,0.4294379371796688,-0.0696124879312391,0.8746610362225903,0.7214606404304504,0.4337722957134247,-0.539755642414093,0,0,0,-1,-1,4858.597514625,unknown,2,2022-05-05T12:56:45.596+02:00,2022-05-05T12:55:18.700+02:00,21,0.7124497,0,0,14.8155,0,0,2022-05-05T12:56:45.595+02:00,673441005.5953186,0,-0.6399994,101.4547,1,0.89
2022-05-05T12:56:47.601+02:00,1651748186.998522,53.22891516615937,10.39811926894858,34.26779,0,0.44,286.875,83.67142925730032,4,10,-9999,4860.602080875,0.7120819091796875,0.497833251953125,-0.606201171875,4860.552102875,0.06868999115845099,0.9284848610868971,-0.4486752688874546,-0.333173543214798,-0.01041322574019432,-0.5313701033592224,0.04881823062896729,-0.2034408152103424,-0.08141434192657471,XArbitraryZVertical,-0.2137878564261392,0.4294379371796688,-0.0696124879312391,0.8746610362225903,0.7214606404304504,0.4337722957134247,-0.539755642414093,0,0,0,-1,-1,4858.597514625,unknown,2,2022-05-05T12:56:45.596+02:00,2022-05-05T12:55:18.700+02:00,21,0.7124497,0,0,14.8155,0,0,2022-05-05T12:56:45.595+02:00,673441005.5953186,0,-0.6399994,101.4547,1,0.89
2022-05-05T12:56:47.636+02:00,1651748186.998522,53.22891516615937,10.39811926894858,34.26779,0,0.44,286.875,83.67142925730032,4,10,-9999,4860.637065875,0.72784423828125,0.5136260986328125,-0.4676055908203125,4860.612076875001,0.04930352373415432,0.928365232113545,-0.4725194133266657,0.30933678150177,0.2945282161235809,-0.4602172672748566,-0.0008289813995361328,0.04270228743553162,-0.07270896434783936,XArbitraryZVertical,-0.2199657593087823,0.4299639057465663,-0.08332968939674082,0.8716664776942179,0.7129108905792236,0.4551310837268829,-0.5334922075271606,0,0,0,-1,-1,4858.597514625,unknown,2,2022-05-05T12:56:45.596+02:00,2022-05-05T12:55:18.700+02:00,21,0.7124497,0,0,14.8155,0,0,2022-05-05T12:56:45.595+02:00,673441005.5953186,0,-0.6399994,101.4547,1,0.89
2022-05-05T12:56:47.671+02:00,1651748186.998522,53.22891516615937,10.39811926894858,34.26779,0,0.44,286.875,83.67142925730032,4,10,-9999,4860.672049875,0.7462005615234375,0.5455322265625,-0.6152801513671875,4860.612076875001,0.04930352373415432,0.928365232113545,-0.4725194133266657,0.30933678150177,0.2945282161235809,-0.4602172672748566,-0.0008289813995361328,0.04270228743553162,-0.07270896434783936,XArbitraryZVertical,-0.2199657593087823,0.4299639057465663,-0.08332968939674082,0.8716664776942179,0.7129108905792236,0.4551310837268829,-0.5334922075271606,0,0,0,-1,-1,4858.597514625,unknown,2,2022-05-05T12:56:45.596+02:00,2022-05-05T12:55:18.700+02:00,21,0.7124497,0,0,14.8155,0,0,2022-05-05T12:56:45.595+02:00,673441005.5953186,0,-0.6399994,101.4547,1,0.89
2022-05-05T12:56:47.706+02:00,1651748186.998522,53.22891516615937,10.39811926894858,34.26779,0,0.44,286.875,83.67142925730032,4,10,-9999,4860.707034875,0.7578887939453125,0.5930328369140625,-0.65960693359375,4860.672049875,0.03541784779026557,0.9392162938580086,-0.4935294518296037,-0.2849796712398529,0.2709385454654694,-0.3271783292293549,0.04632866382598877,0.05670425295829773,-0.009363651275634766,XArbitraryZVertical,-0.2255615351940455,0.4349024914031376,-0.09521025803855077,0.8665545402895788,0.7107819318771362,0.4737370908260345,-0.5199636220932007,0,0,0,-1,-1,4858.597514625,unknown,2,2022-05-05T12:56:45.596+02:00,2022-05-05T12:55:18.700+02:00,21,0.7124497,0,0,14.8155,0,0,2022-05-05T12:56:45.595+02:00,673441005.5953186,0,-0.6399994,101.4547,1,0.89
2022-05-05T12:56:47.741+02:00,1651748186.998522,53.22891516615937,10.39811926894858,34.26779,0,0.44,286.875,83.67142925730032,4,10,-9999,4860.742018875,0.767791748046875,0.583251953125,-0.5652313232421875,4860.732023875,0.03465301702283929,0.9534968794974393,-0.5091228649567644,0.09284421056509018,0.1567193120718002,-0.1638421416282654,0.06989771127700806,0.1024017930030823,-0.07723397016525269,XArbitraryZVertical,-0.2314016821468458,0.4401611532293804,-0.1006438403711501,0.8617321253021206,0.7120236754417419,0.4874115586280823,-0.505422830581665,0,0,0,-1,-1,4858.597514625,unknown,2,2022-05-05T12:56:45.596+02:00,2022-05-05T12:55:18.700+02:00,21,0.7124497,0,0,14.8155,0,0,2022-05-05T12:56:45.595+02:00,673441005.5953186,0,-0.6399994,101.4547,1,0.89
2022-05-05T12:56:47.776+02:00,1651748186.998522,53.22891516615937,10.39811926894858,34.26779,0,0.44,286.875,83.67142925730032,4,10,-9999,4860.777003875,0.71923828125,0.421783447265625,-0.603118896484375,4860.732023875,0.03465301702283929,0.9534968794974393,-0.5091228649567644,0.09284421056509018,0.1567193120718002,-0.1638421416282654,0.06989771127700806,0.1024017930030823,-0.07723397016525269,XArbitraryZVertical,-0.2314016821468458,0.4401611532293804,-0.1006438403711501,0.8617321253021206,0.7120236754417419,0.4874115586280823,-0.505422830581665,0,0,0,-1,-1,4858.597514625,unknown,2,2022-05-05T12:56:45.596+02:00,2022-05-05T12:55:18.700+02:00,21,0.7124497,0,0,14.8155,0,0,2022-05-05T12:56:45.595+02:00,673441005.5953186,0,-0.6399994,101.4547,1,0.89
2022-05-05T12:56:47.811+02:00,1651748186.998522,53.22891516615937,10.39811926894858,34.26779,0,0.44,286.875,83.67142925730032,4,10,-9999,4860.811987875,0.7082061767578125,0.451171875,-0.577423095703125,4860.791996875,0.01982234759022387,0.951781393952944,-0.5085190149000562,0.08053424209356308,0.05890212953090668,-0.1348247975111008,0.003234922885894775,-0.07295885682106018,-0.08673733472824097,XArbitraryZVertical,-0.2279637415989004,0.4411636822022361,-0.1067007831117904,0.861407096765448,0.7113952040672302,0.4868841767311096,-0.5068143010139465,0,0,0,-1,-1,4858.597514625,unknown,2,2022-05-05T12:56:45.596+02:00,2022-05-05T12:55:18.700+02:00,21,0.7124497,0,0,14.8155,0,0,2022-05-05T12:56:45.595+02:00,673441005.5953186,0,-0.6399994,101.4547,1,0.89
2022-05-05T12:56:47.846+02:00,1651748186.998522,53.22891516615937,10.39811926894858,34.26779,0,0.44,286.875,83.67142925730032,4,10,-9999,4860.846972625,0.65191650390625,0.4938812255859375,-0.585906982421875,4860.791996875,0.01982234759022387,0.951781393952944,-0.5085190149000562,0.08053424209356308,0.05890212953090668,-0.1348247975111008,0.003234922885894775,-0.07295885682106018,-0.08673733472824097,XArbitraryZVertical,-0.2279637415989004,0.4411636822022361,-0.1067007831117904,0.861407096765448,0.7113952040672302,0.4868841767311096,-0.5068143010139465,0,0,0,-1,-1,4858.597514625,unknown,2,2022-05-05T12:56:45.596+02:00,2022-05-05T12:55:18.700+02:00,21,0.7124497,0,0,14.8155,0,0,2022-05-05T12:56:45.595+02:00,673441005.5953186,0,-0.6399994,101.4547,1,0.89
2022-05-05T12:56:47.881+02:00,1651748186.998522,53.22891516615937,10.39811926894858,34.26779,0,0.44,286.875,83.67142925730032,4,10,-9999,4860.881956625,0.5370025634765625,0.313934326171875,-0.6608734130859375,4860.851970625,0.009038358428524062,0.9513607779190854,-0.5159016477784478,0.2046561986207962,0.07928197085857391,-0.2763907015323639,-0.04553157091140747,0.01331833004951477,-0.0803295373916626,XArbitraryZVertical,-0.2287776067903101,0.4417628396165695,-0.1129354763384084,0.8600884463771852,0.708236038684845,0.4933193325996399,-0.5050128102302551,0,0,0,-1,-1,4858.597514625,unknown,2,2022-05-05T12:56:45.596+02:00,2022-05-05T12:55:18.700+02:00,21,0.7124497,0,0,14.8155,0,0,2022-05-05T12:56:45.595+02:00,673441005.5953186,0,-0.6399994,101.4547,1,0.89
2022-05-05T12:56:47.916+02:00,1651748186.998522,53.22891516615937,10.39811926894858,34.26779,0,0.44,286.875,83.67142925730032,4,10,-9999,4860.916941625001,0.42681884765625,0.2736968994140625,-0.705902099609375,4860.911943625,-0.01808775175869568,0.9390155521080392,-0.5385264432734986,0.0907975360751152,0.01672058925032616,-0.9104092121124268,-0.224912166595459,-0.2137076854705811,-0.199517548084259,XArbitraryZVertical,-0.2332813248504279,0.4382720749321956,-0.128130235481338,0.8585336684132975,0.6927618980407715,0.5128715634346008,-0.5069948434829712,0,0,0,-1,-1,4858.597514625,unknown,2,2022-05-05T12:56:45.596+02:00,2022-05-05T12:55:18.700+02:00,21,0.7124497,0,0,14.8155,0,0,2022-05-05T12:56:45.595+02:00,673441005.5953186,0,-0.6399994,101.4547,1,0.89
2022-05-05T12:56:47.951+02:00,1651748186.998522,53.22891516615937,10.39811926894858,34.26779,0,0.44,286.875,83.67142925730032,4,10,-9999,4860.951926625,0.3322906494140625,0.2193603515625,-0.629974365234375,4860.911943625,-0.01808775175869568,0.9390155521080392,-0.5385264432734986,0.0907975360751152,0.01672058925032616,-0.9104092121124268,-0.224912166595459,-0.2137076854705811,-0.199517548084259,XArbitraryZVertical,-0.2332813248504279,0.4382720749321956,-0.128130235481338,0.8585336684132975,0.6927618980407715,0.5128715634346008,-0.5069948434829712,0,0,0,-1,-1,4858.597514625,unknown,2,2022-05-05T12:56:45.596+02:00,2022-05-05T12:55:18.700+02:00,21,0.7124497,0,0,14.8155,0,0,2022-05-05T12:56:45.595+02:00,673441005.5953186,0,-0.6399994,101.4547,1,0.89
2022-05-05T12:56:47.986+02:00,1651748186.998522,53.22891516615937,10.39811926894858,34.26779,0,0.44,286.875,83.67142925730032,4,10,-9999,4860.986910625001,0.2532501220703125,0.2583770751953125,-0.5646209716796875,4860.971917625,-0.09263675134150212,0.9025741467955055,-0.5954362354467795,0.5280802845954895,0.1762324273586273,-1.923985838890076,-0.3559577465057373,-0.2908350825309753,-0.1382980346679688,XArbitraryZVertical,-0.2443841208231727,0.4287134998341228,-0.1676285936732846,0.8534529276041282,0.6498420238494873,0.5608699917793274,-0.512962281703949,0,0,0,-1,-1,4858.597514625,unknown,2,2022-05-05T12:56:45.596+02:00,2022-05-05T12:55:18.700+02:00,21,0.7124497,0,0,14.8155,0,0,2022-05-05T12:56:45.595+02:00,673441005.5953186,0,-0.6399994,101.4547,1,0.89
2022-05-05T12:56:48.021+02:00,1651748186.998522,53.22891516615937,10.39811926894858,34.26779,0,0.44,286.875,83.67142925730032,4,10,-9999,4861.021895625,0.1152496337890625,0.389801025390625,-0.774322509765625,4860.971917625,-0.09263675134150212,0.9025741467955055,-0.5954362354467795,0.5280802845954895,0.1762324273586273,-1.923985838890076,-0.3559577465057373,-0.2908350825309753,-0.1382980346679688,XArbitraryZVertical,-0.2443841208231727,0.4287134998341228,-0.1676285936732846,0.8534529276041282,0.6498420238494873,0.5608699917793274,-0.512962281703949,0,0,0,-1,-1,4858.597514625,unknown,2,2022-05-05T12:56:45.596+02:00,2022-05-05T12:55:18.700+02:00,21,0.7124497,0,0,14.8155,0,0,2022-05-05T12:56:45.595+02:00,673441005.5953186,0,-0.6399994,101.4547,1,0.89
2022-05-05T12:56:48.056+02:00,1651748186.998522,53.22891516615937,10.39811926894858,34.26779,0,0.44,286.875,83.67142925730032,4,10,-9999,4861.056879625,-0.0235443115234375,0.43505859375,-0.589630126953125,4861.031890625,-0.2581781801486219,0.8117720668979536,-0.6722847409724811,1.773141384124756,-0.0913398340344429,-2.849859476089478,-0.4523884057998657,-0.2329740524291992,-0.2358633279800415,XArbitraryZVertical,-0.2525445498349569,0.4086461574243406,-0.2408038275236948,0.8433523448145097,0.5676379799842834,0.6227751970291138,-0.5384591221809387,0,0,0,-1,-1,4858.597514625,unknown,2,2022-05-05T12:56:45.596+02:00,2022-05-05T12:55:18.700+02:00,21,0.7124497,0,0,14.8155,0,0,2022-05-05T12:56:45.595+02:00,673441005.5953186,0,-0.6399994,101.4547,1,0.89
2022-05-05T12:56:48.091+02:00,1651748186.998522,53.22891516615937,10.39811926894858,34.26779,0,0.44,286.875,83.67142925730032,4,10,-9999,4861.091864625,-0.1713714599609375,0.7348480224609375,-0.7518310546875,4861.031890625,-0.2581781801486219,0.8117720668979536,-0.6722847409724811,1.773141384124756,-0.0913398340344429,-2.849859476089478,-0.4523884057998657,-0.2329740524291992,-0.2358633279800415,XArbitraryZVertical,-0.2525445498349569,0.4086461574243406,-0.2408038275236948,0.8433523448145097,0.5676379799842834,0.6227751970291138,-0.5384591221809387,0,0,0,-1,-1,4858.597514625,unknown,2,2022-05-05T12:56:45.596+02:00,2022-05-05T12:55:18.700+02:00,21,0.7124497,0,0,14.8155,0,0,2022-05-05T12:56:45.595+02:00,673441005.5953186,0,-0.6399994,101.4547,1,0.89
2022-05-05T12:56:48.126+02:00,1651748186.998522,53.22891516615937,10.39811926894858,34.26779,0,0.44,286.875,83.67142925730032,4,10,-9999,4861.126848625,-0.2814178466796875,0.9181060791015625,-0.972381591796875,4861.091864625,-0.5471685278502691,0.6229754318388383,-0.7071614089003984,1.479456543922424,-0.02787457406520844,-3.527587413787842,-0.569767951965332,0.02089959383010864,-0.0362246036529541,XArbitraryZVertical,-0.2396563098255123,0.3658749234621607,-0.3434460129348155,0.831110813300192,0.4435471892356873,0.6496784687042236,-0.6174007654190063,0,0,0,-1,-1,4858.597514625,unknown,2,2022-05-05T12:56:45.596+02:00,2022-05-05T12:55:18.700+02:00,21,0.7124497,0,0,14.8155,0,0,2022-05-05T12:56:45.595+02:00,673441005.5953186,0,-0.6399994,101.4547,1,0.89
2022-05-05T12:56:48.162+02:00,1651748186.998522,53.22891516615937,10.39811926894858,34.26779,0,0.44,286.875,83.67142925730032,4,10,-9999,4861.161833625,-0.3361053466796875,1.177780151367188,-0.8544464111328125,4861.151837625001,-0.8401339485199882,0.4307395592360771,-0.7761954337688033,0.7740418910980225,0.4477633535861969,-3.654713869094849,-0.6534360647201538,0.3788219094276428,-0.2294195294380188,XArbitraryZVertical,-0.2568724070690122,0.3313833702428461,-0.4426135563406078,0.7926504812633749,0.2979519665241241,0.7005696296691895,-0.6484032273292542,0,0,0,-1,-1,4858.597514625,unknown,2,2022-05-05T12:56:45.596+02:00,2022-05-05T12:55:18.700+02:00,21,0.7124497,0,0,14.8155,0,0,2022-05-05T12:56:48.154+02:00,673441005.5953186,0,-0.6399994,101.4547,1,0.89
2022-05-05T12:56:48.196+02:00,1651748186.998522,53.22891516615937,10.39811926894858,34.26779,0,0.44,286.875,83.67142925730032,4,10,-9999,4861.196817625,-0.345550537109375,1.185791015625,-0.948638916015625,4861.151837625001,-0.8401339485199882,0.4307395592360771,-0.7761954337688033,0.7740418910980225,0.4477633535861969,-3.654713869094849,-0.6534360647201538,0.3788219094276428,-0.2294195294380188,XArbitraryZVertical,-0.2568724070690122,0.3313833702428461,-0.4426135563406078,0.7926504812633749,0.2979519665241241,0.7005696296691895,-0.6484032273292542,0,0,0,-1,-1,4861.156572625,unknown,2,2022-05-05T12:56:48.155+02:00,2022-05-05T12:55:18.700+02:00,21,0.7124497,0,0,14.8155,0,0,2022-05-05T12:56:48.154+02:00,673441008.1543676,0,-0.8199997,101.456,1,0.89
2022-05-05T12:56:48.231+02:00,1651748186.998522,53.22891516615937,10.39811926894858,34.26779,0,0.44,286.875,83.67142925730032,4,10,-9999,4861.231802625,-0.37115478515625,1.220321655273438,-0.83587646484375,4861.211811625,-1.141820428398367,0.2703801249977685,-0.7941699894359595,0.6036568284034729,1.285617470741272,-3.307984590530396,-0.5316851735115051,0.4838157296180725,-0.2615063190460205,XArbitraryZVertical,-0.2552636867856601,0.3116625321036584,-0.5376607938769536,0.7406942038018357,0.1872027069330215,0.7132821083068848,-0.6754138469696045,0,0,0,-1,-1,4861.156572625,unknown,2,2022-05-05T12:56:48.155+02:00,2022-05-05T12:55:18.700+02:00,21,0.7124497,0,0,14.8155,0,0,2022-05-05T12:56:48.154+02:00,673441008.1543676,0,-0.8199997,101.456,1,0.89
2022-05-05T12:56:48.266+02:00,1651748186.998522,53.22891516615937,10.39811926894858,34.26779,0,0.44,286.875,83.67142925730032,4,10,-9999,4861.266787625001,-0.3784027099609375,1.254043579101562,-0.8555908203125,4861.211811625,-1.141820428398367,0.2703801249977685,-0.7941699894359595,0.6036568284034729,1.285617470741272,-3.307984590530396,-0.5316851735115051,0.4838157296180725,-0.2615063190460205,XArbitraryZVertical,-0.2552636867856601,0.3116625321036584,-0.5376607938769536,0.7406942038018357,0.1872027069330215,0.7132821083068848,-0.6754138469696045,0,0,0,-1,-1,4861.156572625,unknown,2,2022-05-05T12:56:48.155+02:00,2022-05-05T12:55:18.700+02:00,21,0.7124497,0,0,14.8155,0,0,2022-05-05T12:56:48.154+02:00,673441008.1543676,0,-0.8199997,101.456,1,0.89
2022-05-05T12:56:48.301+02:00,1651748186.998522,53.22891516615937,10.39811926894858,34.26779,0,0.44,286.875,83.67142925730032,4,10,-9999,4861.301771625001,-0.372711181640625,1.306350708007812,-0.87164306640625,4861.271784625001,-1.412984573344457,0.1788737116012232,-0.8148384972042549,0.4506746232509613,2.168514728546143,-2.878319263458252,-0.5088467001914978,0.518890917301178,-0.1604388952255249,XArbitraryZVertical,-0.2469574122938492,0.3185775268324776,-0.6205707970391813,0.6726159722644561,0.1220515519380569,0.7276148200035095,-0.6750407814979553,0,0,0,-1,-1,4861.156572625,unknown,2,2022-05-05T12:56:48.155+02:00,2022-05-05T12:55:18.700+02:00,21,0.7124497,0,0,14.8155,0,0,2022-05-05T12:56:48.154+02:00,673441008.1543676,0,-0.8199997,101.456,1,0.89
