loggingTime(txt),locationTimestamp_since1970(s),locationLatitude(WGS84),locationLongitude(WGS84),locationAltitude(m),locationSpeed(m/s),locationSpeedAccuracy(m/s),locationCourse(°),locationCourseAccuracy(°),locationVerticalAccuracy(m),locationHorizontalAccuracy(m),locationFloor(Z),accelerometerTimestamp_sinceReboot(s),accelerometerAccelerationX(G),accelerometerAccelerationY(G),accelerometerAccelerationZ(G),motionTimestamp_sinceReboot(s),motionYaw(rad),motionRoll(rad),motionPitch(rad),motionRotationRateX(rad/s),motionRotationRateY(rad/s),motionRotationRateZ(rad/s),motionUserAccelerationX(G),motionUserAccelerationY(G),motionUserAccelerationZ(G),motionAttitudeReferenceFrame(txt),motionQuaternionX(R),motionQuaternionY(R),motionQuaternionZ(R),motionQuaternionW(R),motionGravityX(G),motionGravityY(G),motionGravityZ(G),motionMagneticFieldX(µT),motionMagneticFieldY(µT),motionMagneticFieldZ(µT),motionHeading(°),motionMagneticFieldCalibrationAccuracy(Z),activityTimestamp_sinceReboot(s),activity(txt),activityActivityConfidence(Z),activityActivityStartDate(txt),pedometerStartDate(txt),pedometerNumberofSteps(N),pedometerAverageActivePace(s/m),pedometerCurrentPace(s/m),pedometerCurrentCadence(steps/s),pedometerDistance(m),pedometerFloorAscended(N),pedometerFloorDescended(N),pedometerEndDate(txt),altimeterTimestamp_sinceReboot(s),altimeterReset(bool),altimeterRelativeAltitude(m),altimeterPressure(kPa),batteryState(N),batteryLevel(R)
2022-05-05T12:58:46.825+02:00,1651748325.999598,53.22897163044696,10.39806116320642,35.728,0.1178372,0.2345032,9.9471186769914,180,2.400000095367432,5.999684891258127,-9999,4979.789268250001,0.0353240966796875,-0.619659423828125,-0.763427734375,4979.784271250001,0.1488921326029162,0.03453595757940978,0.6769962075653694,0.04478191211819649,-0.02567759901285172,0.01535631529986858,-0.006284099072217941,0.02177923917770386,0.01573330163955688,XArbitraryZVertical,0.3298902244703451,0.0409370241631227,0.07586429886820771,0.9400751529997047,0.02691397815942764,-0.6264545321464539,-0.7789931893348694,0,0,0,-1,-1,4976.316407625,unknown,2,2022-05-05T12:58:43.314+02:00,2022-05-05T12:55:18.700+02:00,58,0.8036995,0,0,39.2015,0,0,2022-05-05T12:57:29.090+02:00,673441125.8734088,0,0.6999998,101.4385,1,0.88
2022-05-05T12:58:46.830+02:00,1651748325.999598,53.22897163044696,10.39806116320642,35.728,0.1178372,0.2345032,9.9471186769914,180,2.400000095367432,5.999684891258127,-9999,4979.79926425,0.03643798828125,-0.6261749267578125,-0.7723236083984375,4979.79426625,0.1490773913815726,0.03398664184916482,0.6771722071767401,0.0005960729904472828,-0.05992931500077248,0.0106438510119915,0.008841782808303833,0.006932318210601807,0.01546990871429443,XArbitraryZVertical,0.3299900764880473,0.04071506748678827,0.0758599981825689,0.9400500994825886,0.02648231387138367,-0.626591682434082,-0.7788976430892944,0,0,0,-1,-1,4976.316407625,unknown,2,2022-05-05T12:58:43.314+02:00,2022-05-05T12:55:18.700+02:00,58,0.8036995,0,0,39.2015,0,0,2022-05-05T12:57:29.090+02:00,673441125.8734088,0,0.6999998,101.4385,1,0.88
2022-05-05T12:58:46.835+02:00,1651748325.999598,53.22897163044696,10.39806116320642,35.728,0.1178372,0.2345032,9.9471186769914,180,2.400000095367432,5.999684891258127,-9999,4979.80926025,0.02288818359375,-0.606689453125,-0.782684326171875,4979.804262250001,0.1491590865421585,0.03327087698318126,0.6769411702361606,-0.03162970393896103,-0.07545940577983856,0.009270593523979187,0.01050836965441704,0.0002366900444030762,0.006737470626831055,XArbitraryZVertical,0.3299068402409924,0.04038463032519823,0.07578133955669748,0.9400999692851617,0.02592961490154266,-0.6264116168022156,-0.7790611386299133,0,0,0,-1,-1,4976.316407625,unknown,2,2022-05-05T12:58:43.314+02:00,2022-05-05T12:55:18.700+02:00,58,0.8036995,0,0,39.2015,0,0,2022-05-05T12:57:29.090+02:00,673441125.8734088,0,0.6999998,101.4385,1,0.88
2022-05-05T12:58:46.837+02:00,1651748325.999598,53.22897163044696,10.39806116320642,35.728,0.1178372,0.2345032,9.9471186769914,180,2.400000095367432,5.999684891258127,-9999,4979.81925525,0.016143798828125,-0.6080474853515625,-0.78997802734375,4979.81425725,0.1493096966388239,0.03245607636701158,0.676562666048599,-0.03393121063709259,-0.0737944021821022,0.01569440402090549,-0.002414336428046227,0.01942712068557739,-0.003365457057952881,XArbitraryZVertical,0.3297566307840497,0.04001418852641273,0.07571952960074167,0.9401734014598807,0.02530251815915108,-0.6261165142059326,-0.7793188691139221,0,0,0,-1,-1,4976.316407625,unknown,2,2022-05-05T12:58:43.314+02:00,2022-05-05T12:55:18.700+02:00,58,0.8036995,0,0,39.2015,0,0,2022-05-05T12:57:29.090+02:00,673441125.8734088,0,0.6999998,101.4385,1,0.88
2022-05-05T12:58:46.847+02:00,1651748325.999598,53.22897163044696,10.39806116320642,35.728,0.1178372,0.2345032,9.9471186769914,180,2.400000095367432,5.999684891258127,-9999,4979.82925125,0.0236053466796875,-0.61932373046875,-0.7962646484375,4979.82425325,0.1496364942262961,0.03149071270449005,0.676210227770029,-0.02962424978613853,-0.0758349746465683,0.02825580164790154,-0.008413329720497131,0.01779425144195557,-0.01041460037231445,XArbitraryZVertical,0.3296208216763777,0.03960275182632287,0.07571573035913426,0.9402388271338492,0.02455712668597698,-0.6258416771888733,-0.7795634865760803,0,0,0,-1,-1,4976.316407625,unknown,2,2022-05-05T12:58:43.314+02:00,2022-05-05T12:55:18.700+02:00,58,0.8036995,0,0,39.2015,0,0,2022-05-05T12:57:29.090+02:00,673441125.8734088,0,0.6999998,101.4385,1,0.88
2022-05-05T12:58:46.849+02:00,1651748325.999598,53.22897163044696,10.39806116320642,35.728,0.1178372,0.2345032,9.9471186769914,180,2.400000095367432,5.999684891258127,-9999,4979.839246250001,0.0235443115234375,-0.6303253173828125,-0.7982330322265625,4979.83424825,0.1503331300417937,0.03006960628957344,0.6757525371535554,-0.01736997812986374,-0.06951716542243958,0.03911777213215828,0.0001474730670452118,0.006160914897918701,-0.0163809061050415,XArbitraryZVertical,0.3294456245857316,0.03903441264855954,0.07581147098235033,0.94031623429662,0.02345786988735199,-0.6254846453666687,-0.7798838019371033,0,0,0,-1,-1,4976.316407625,unknown,2,2022-05-05T12:58:43.314+02:00,2022-05-05T12:55:18.700+02:00,58,0.8036995,0,0,39.2015,0,0,2022-05-05T12:57:29.090+02:00,673441125.8734088,0,0.6999998,101.4385,1,0.88
2022-05-05T12:58:46.851+02:00,1651748325.999598,53.22897163044696,10.39806116320642,35.728,0.1178372,0.2345032,9.9471186769914,180,2.400000095367432,5.999684891258127,-9999,4979.84924225,0.0242462158203125,-0.6316680908203125,-0.793212890625,4979.84424425,0.1508203090485231,0.02911578104592334,0.6755341769484074,-0.002588368486613035,-0.05854040756821632,0.02848110720515251,0.0008263476192951202,-0.005011022090911865,-0.01819074153900146,XArbitraryZVertical,0.3293695846930725,0.0386589812335884,0.07588462863972875,0.9403524902234018,0.02271796204149723,-0.6253142356872559,-0.780042290687561,0,0,0,-1,-1,4976.316407625,unknown,2,2022-05-05T12:58:43.314+02:00,2022-05-05T12:55:18.700+02:00,58,0.8036995,0,0,39.2015,0,0,2022-05-05T12:57:29.090+02:00,673441125.8734088,0,0.6999998,101.4385,1,0.88
2022-05-05T12:58:46.858+02:00,1651748325.999598,53.22897163044696,10.39806116320642,35.728,0.1178372,0.2345032,9.9471186769914,180,2.400000095367432,5.999684891258127,-9999,4979.859237250001,0.02947998046875,-0.641143798828125,-0.789337158203125,4979.85423925,0.1507963100346212,0.02866371915044761,0.6756983385140524,0.008067470975220203,-0.05978277325630188,-0.01667065918445587,0.001883823424577713,-0.006225705146789551,-0.01326298713684082,XArbitraryZVertical,0.3294644147726647,0.03844791813805187,0.07579794810886598,0.9403349613058076,0.02236239053308964,-0.6254423856735229,-0.7799499034881592,0,0,0,-1,-1,4976.316407625,unknown,2,2022-05-05T12:58:43.314+02:00,2022-05-05T12:55:18.700+02:00,58,0.8036995,0,0,39.2015,0,0,2022-05-05T12:57:29.090+02:00,673441125.8734088,0,0.6999998,101.4385,1,0.88
2022-05-05T12:58:46.871+02:00,1651748325.999598,53.22897163044696,10.39806116320642,35.728,0.1178372,0.2345032,9.9471186769914,180,2.400000095367432,5.999684891258127,-9999,4979.86923325,0.02978515625,-0.63671875,-0.78765869140625,4979.86423525,0.1503126268075921,0.02835212567069492,0.6757897896925278,0.01917551644146442,-0.05774332210421562,-0.05447449535131454,0.007362239062786102,-0.01563012599945068,-0.00943756103515625,XArbitraryZVertical,0.3295285435784694,0.03822476991909298,0.07551868425546911,0.940343954245356,0.0221177376806736,-0.6255137324333191,-0.7798995971679688,0,0,0,-1,-1,4976.316407625,unknown,2,2022-05-05T12:58:43.314+02:00,2022-05-05T12:55:18.700+02:00,58,0.8036995,0,0,39.2015,0,0,2022-05-05T12:57:29.090+02:00,673441125.8734088,0,0.6999998,101.4385,1,0.88
2022-05-05T12:58:46.878+02:00,1651748325.999598,53.22897163044696,10.39806116320642,35.728,0.1178372,0.2345032,9.9471186769914,180,2.400000095367432,5.999684891258127,-9999,4979.87922825,0.025146484375,-0.6361541748046875,-0.7792816162109375,4979.87423025,0.1495058641809849,0.02843420013339209,0.6760203567701241,0.02278090268373489,-0.04007910937070847,-0.05638131871819496,0.007607501000165939,-0.01102519035339355,-0.007905066013336182,XArbitraryZVertical,0.329649304624059,0.03813800184291732,0.07515156275012613,0.9403346546464589,0.02217764966189861,-0.6256936192512512,-0.7797536849975586,0,0,0,-1,-1,4976.316407625,unknown,2,2022-05-05T12:58:43.314+02:00,2022-05-05T12:55:18.700+02:00,58,0.8036995,0,0,39.2015,0,0,2022-05-05T12:57:29.090+02:00,673441125.8734088,0,0.6999998,101.4385,1,0.88
2022-05-05T12:58:46.888+02:00,1651748325.999598,53.22897163044696,10.39806116320642,35.728,0.1178372,0.2345032,9.9471186769914,180,2.400000095367432,5.999684891258127,-9999,4979.889224250001,0.0305633544921875,-0.6413421630859375,-0.77911376953125,4979.88422625,0.1487275418478384,0.02861525046130384,0.6762628906084902,0.01830196566879749,-0.03475844487547874,-0.05431517213582993,0.002831999212503433,-0.01027143001556396,0.0003162622451782227,XArbitraryZVertical,0.329771479566081,0.03810276671308221,0.07481410541907241,0.9403201235366944,0.02231447957456112,-0.6258827447891235,-0.7795978784561157,0,0,0,-1,-1,4976.316407625,unknown,2,2022-05-05T12:58:43.314+02:00,2022-05-05T12:55:18.700+02:00,58,0.8036995,0,0,39.2015,0,0,2022-05-05T12:57:29.090+02:00,673441125.8734088,0,0.6999998,101.4385,1,0.88
2022-05-05T12:58:46.898+02:00,1651748325.999598,53.22897163044696,10.39806116320642,35.728,0.1178372,0.2345032,9.9471186769914,180,2.400000095367432,5.999684891258127,-9999,4979.89921925,0.017822265625,-0.6347808837890625,-0.7809295654296875,4979.894221250001,0.1480541949449587,0.02878690031696531,0.6762498214361884,0.007749456912279129,-0.01354636810719967,-0.04906608164310455,0.00811481848359108,-0.01546961069107056,0.0004884600639343262,XArbitraryZVertical,0.3297717442373337,0.03807201927979715,0.07452589554150749,0.9403441636056791,0.02244853228330612,-0.6258725523948669,-0.7796022295951843,0,0,0,-1,-1,4976.316407625,unknown,2,2022-05-05T12:58:43.314+02:00,2022-05-05T12:55:18.700+02:00,58,0.8036995,0,0,39.2015,0,0,2022-05-05T12:57:29.090+02:00,673441125.8734088,0,0.6999998,101.4385,1,0.88
2022-05-05T12:58:46.908+02:00,1651748325.999598,53.22897163044696,10.39806116320642,35.728,0.1178372,0.2345032,9.9471186769914,180,2.400000095367432,5.999684891258127,-9999,4979.909215250001,0.0138092041015625,-0.6290283203125,-0.7786865234375,4979.90421725,0.1475344031406606,0.02908292371438351,0.6761154047732535,-0.003805866464972496,0.0134351821616292,-0.03262985125184059,-0.004859495908021927,-0.009013116359710693,-0.001249969005584717,XArbitraryZVertical,0.3297073746390274,0.03812114515304287,0.07433103380037681,0.9403801848564333,0.02268175967037678,-0.625767707824707,-0.7796796560287476,0,0,0,-1,-1,4976.316407625,unknown,2,2022-05-05T12:58:43.314+02:00,2022-05-05T12:55:18.700+02:00,58,0.8036995,0,0,39.2015,0,0,2022-05-05T12:57:29.090+02:00,673441125.8734088,0,0.6999998,101.4385,1,0.88
2022-05-05T12:58:46.918+02:00,1651748325.999598,53.22897163044696,10.39806116320642,35.728,0.1178372,0.2345032,9.9471186769914,180,2.400000095367432,5.999684891258127,-9999,4979.91921025,0.026092529296875,-0.632598876953125,-0.780303955078125,4979.914212250001,0.1472576825945078,0.02945416132894369,0.6758686760715292,-0.02143705636262894,0.02403775975108147,-0.01021881867200136,-0.009166549891233444,-0.003453075885772705,0.001138925552368164,XArbitraryZVertical,0.3295827691484923,0.03824212083439917,0.07426342178658758,0.9404242861649866,0.02297575026750565,-0.6255752444267273,-0.7798254489898682,0,0,0,-1,-1,4976.316407625,unknown,2,2022-05-05T12:58:43.314+02:00,2022-05-05T12:55:18.700+02:00,58,0.8036995,0,0,39.2015,0,0,2022-05-05T12:57:29.090+02:00,673441125.8734088,0,0.6999998,101.4385,1,0.88
2022-05-05T12:58:46.928+02:00,1651748325.999598,53.22897163044696,10.39806116320642,35.728,0.1178372,0.2345032,9.9471186769914,180,2.400000095367432,5.999684891258127,-9999,4979.92920625,0.030303955078125,-0.6367645263671875,-0.782257080078125,4979.92420825,0.1473013948416792,0.02966581950519609,0.675544533505255,-0.03585245087742805,0.02248573489487171,0.01560179237276316,0.002945709973573685,-0.007276475429534912,-0.0002807974815368652,XArbitraryZVertical,0.3294215628173012,0.03833840009835354,0.07432055294661513,0.9404722594130288,0.02314681746065617,-0.6253223419189453,-0.7800232172012329,0,0,0,-1,-1,4976.316407625,unknown,2,2022-05-05T12:58:43.314+02:00,2022-05-05T12:55:18.700+02:00,58,0.8036995,0,0,39.2015,0,0,2022-05-05T12:57:29.090+02:00,673441125.8734088,0,0.6999998,101.4385,1,0.88
2022-05-05T12:58:46.938+02:00,1651748325.999598,53.22897163044696,10.39806116320642,35.728,0.1178372,0.2345032,9.9471186769914,180,2.400000095367432,5.999684891258127,-9999,4979.93920125,0.0265045166015625,-0.632049560546875,-0.7844085693359375,4979.93420425,0.1475784270581447,0.02972661634796051,0.6750973192658469,-0.05033338814973831,0.02262581698596478,0.02508477494120598,0.007101396098732948,-0.0117911696434021,-0.001955807209014893,XArbitraryZVertical,0.3292035129369718,0.03839816191090544,0.07446316755999451,0.9405349118882542,0.02320255152881145,-0.6249732971191406,-0.7803012728691101,0,0,0,-1,-1,4976.316407625,unknown,2,2022-05-05T12:58:43.314+02:00,2022-05-05T12:55:18.700+02:00,58,0.8036995,0,0,39.2015,0,0,2022-05-05T12:57:29.090+02:00,673441125.8734088,0,0.6999998,101.4385,1,0.88
2022-05-05T12:58:46.948+02:00,1651748325.999598,53.22897163044696,10.39806116320642,35.728,0.1178372,0.2345032,9.9471186769914,180,2.400000095367432,5.999684891258127,-9999,4979.94919725,0.0211944580078125,-0.629486083984375,-0.784576416015625,4979.944199250001,0.1479584990707083,0.02975905796801722,0.6746537408392985,-0.04847486689686775,0.02439821697771549,0.03538954630494118,0.003268396481871605,-0.007422566413879395,-0.003831028938293457,XArbitraryZVertical,0.3289862325412753,0.03846160067392602,0.07464956278102641,0.9405935686264767,0.02323611080646515,-0.6246269345283508,-0.780577540397644,0,0,0,-1,-1,4976.316407625,unknown,2,2022-05-05T12:58:43.314+02:00,2022-05-05T12:55:18.700+02:00,58,0.8036995,0,0,39.2015,0,0,2022-05-05T12:57:29.090+02:00,673441125.8734088,0,0.6999998,101.4385,1,0.88
2022-05-05T12:58:46.958+02:00,1651748325.999598,53.22897163044696,10.39806116320642,35.728,0.1178372,0.2345032,9.9471186769914,180,2.400000095367432,5.999684891258127,-9999,4979.95919225,0.017822265625,-0.63299560546875,-0.779449462890625,4979.95419525,0.1483807664815968,0.02974379322359249,0.6742442317871122,-0.04265799000859261,0.02225064486265182,0.03480125218629837,-0.002037350088357925,-0.005178928375244141,-0.00374293327331543,XArbitraryZVertical,0.3287859298577126,0.03851056469844474,0.07484779609892074,0.940645853214791,0.02323180064558983,-0.6243070960044861,-0.7808334827423096,0,0,0,-1,-1,4976.316407625,unknown,2,2022-05-05T12:58:43.314+02:00,2022-05-05T12:55:18.700+02:00,58,0.8036995,0,0,39.2015,0,0,2022-05-05T12:57:29.090+02:00,673441125.8734088,0,0.6999998,101.4385,1,0.88
2022-05-05T12:58:46.968+02:00,1651748325.999598,53.22897163044696,10.39806116320642,35.728,0.1178372,0.2345032,9.9471186769914,180,2.400000095367432,5.999684891258127,-9999,4979.969187125001,0.018310546875,-0.6341552734375,-0.779327392578125,4979.964189125,0.1488090882492618,0.02972565416849406,0.6739608748734573,-0.0314793735742569,0.02136114984750748,0.03063660115003586,-0.005400635302066803,-0.008909881114959717,0.001561284065246582,XArbitraryZVertical,0.3286449609984584,0.03856319655699285,0.07504775753058159,0.9406770798495182,0.02322289533913136,-0.6240857243537903,-0.7810107469558716,0,0,0,-1,-1,4976.316407625,unknown,2,2022-05-05T12:58:43.314+02:00,2022-05-05T12:55:18.700+02:00,58,0.8036995,0,0,39.2015,0,0,2022-05-05T12:57:29.090+02:00,673441125.8734088,0,0.6999998,101.4385,1,0.88
2022-05-05T12:58:46.978+02:00,1651748325.999598,53.22897163044696,10.39806116320642,35.728,0.1178372,0.2345032,9.9471186769914,180,2.400000095367432,5.999684891258127,-9999,4979.979182125,0.01104736328125,-0.629608154296875,-0.785400390625,4979.974185125,0.1491642219012009,0.0296981265693069,0.6738553707109463,-0.01155812758952379,0.01535412296652794,0.029257882386446,-0.004892811179161072,-0.01015198230743408,0.001749753952026367,XArbitraryZVertical,0.3285894819426695,0.03860515411657312,0.07521082812764257,0.9406817172609605,0.02320335060358047,-0.6240032911300659,-0.7810772061347961,0,0,0,-1,-1,4976.316407625,unknown,2,2022-05-05T12:58:43.314+02:00,2022-05-05T12:55:18.700+02:00,58,0.8036995,0,0,39.2015,0,0,2022-05-05T12:57:29.090+02:00,673441125.8734088,0,0.6999998,101.4385,1,0.88
2022-05-05T12:58:46.988+02:00,1651748325.999598,53.22897163044696,10.39806116320642,35.728,0.1178372,0.2345032,9.9471186769914,180,2.400000095367432,5.999684891258127,-9999,4979.989178125,0.0087890625,-0.6266326904296875,-0.7855377197265625,4979.984180125,0.1494966527947565,0.02965640921927562,0.6739144966433751,0.01064990554004908,0.02081133797764778,0.0176335833966732,-0.01212231628596783,-0.005558609962463379,-0.004359126091003418,XArbitraryZVertical,0.3286124942330169,0.0386420963866087,0.07536001993671153,0.9406601411324846,0.02316967211663723,-0.6240494847297668,-0.7810412049293518,0,0,0,-1,-1,4976.316407625,unknown,2,2022-05-05T12:58:43.314+02:00,2022-05-05T12:55:18.700+02:00,58,0.8036995,0,0,39.2015,0,0,2022-05-05T12:57:29.090+02:00,673441125.8734088,0,0.6999998,101.4385,1,0.88
2022-05-05T12:58:46.998+02:00,1651748325.999598,53.22897163044696,10.39806116320642,35.728,0.1178372,0.2345032,9.9471186769914,180,2.400000095367432,5.999684891258127,-9999,4979.999173125,0.012298583984375,-0.6276092529296875,-0.784912109375,4979.994176125,0.1496309849800366,0.02969573042093628,0.6741559132477739,0.02968378365039825,0.01616545394062996,-0.004646155051887035,-0.01440685428678989,-0.002394556999206543,-0.004647970199584961,XArbitraryZVertical,0.3287220353021158,0.03869058178121804,0.07542836155608984,0.9406144234380156,0.0231959093362093,-0.624238133430481,-0.7808897495269775,0,0,0,-1,-1,4976.316407625,unknown,2,2022-05-05T12:58:43.314+02:00,2022-05-05T12:55:18.700+02:00,58,0.8036995,0,0,39.2015,0,0,2022-05-05T12:57:29.090+02:00,673441125.8734088,0,0.6999998,101.4385,1,0.88
2022-05-05T12:58:47.008+02:00,1651748325.999598,53.22897163044696,10.39806116320642,35.728,0.1178372,0.2345032,9.9471186769914,180,2.400000095367432,5.999684891258127,-9999,4980.009169125,0.0160980224609375,-0.62939453125,-0.7754669189453125,4980.004171125001,0.1494481838326124,0.02995184848997791,0.6745699157659947,0.04181122034788132,0.009345765225589275,-0.02020713686943054,-0.01108958572149277,-0.003047764301300049,-0.004286766052246094,XArbitraryZVertical,0.3289107698864339,0.03879454892225515,0.07538228839637472,0.9405478660004013,0.02338816784322262,-0.6245614886283875,-0.7806254029273987,0,0,0,-1,-1,4976.316407625,unknown,2,2022-05-05T12:58:43.314+02:00,2022-05-05T12:55:18.700+02:00,58,0.8036995,0,0,39.2015,0,0,2022-05-05T12:57:29.090+02:00,673441125.8734088,0,0.6999998,101.4385,1,0.88
2022-05-05T12:58:47.018+02:00,1651748325.999598,53.22897163044696,10.39806116320642,35.728,0.1178372,0.2345032,9.9471186769914,180,2.400000095367432,5.999684891258127,-9999,4980.019165125001,0.020355224609375,-0.631622314453125,-0.773773193359375,4980.014167125,0.1491082187277613,0.03022484696032057,0.6750153605889684,0.03551816940307617,-0.006252369377762079,-0.02458111196756363,-0.0074948500841856,-0.004485189914703369,0.004873871803283691,XArbitraryZVertical,0.3291167442799729,0.03888157012557936,0.07526498695479671,0.9404815734768157,0.0235928650945425,-0.6249092817306519,-0.7803407907485962,0,0,0,-1,-1,4976.316407625,unknown,2,2022-05-05T12:58:43.314+02:00,2022-05-05T12:55:18.700+02:00,58,0.8036995,0,0,39.2015,0,0,2022-05-05T12:57:29.090+02:00,673441125.8734088,0,0.6999998,101.4385,1,0.88
2022-05-05T12:58:47.028+02:00,1651748325.999598,53.22897163044696,10.39806116320642,35.728,0.1178372,0.2345032,9.9471186769914,180,2.400000095367432,5.999684891258127,-9999,4980.029160125,0.023406982421875,-0.6302032470703125,-0.766632080078125,4980.024162125001,0.1487383607213792,0.03036462029634907,0.675339523524118,0.02497744560241699,-0.01678077690303326,-0.02817731350660324,-0.00334056094288826,-0.006459951400756836,0.006361722946166992,XArbitraryZVertical,0.3292712182541676,0.03889697904334424,0.07511238767687078,0.9404391043119873,0.02369578555226326,-0.6251623630523682,-0.7801349759101868,0,0,0,-1,-1,4976.316407625,unknown,2,2022-05-05T12:58:43.314+02:00,2022-05-05T12:55:18.700+02:00,58,0.8036995,0,0,39.2015,0,0,2022-05-05T12:57:29.090+02:00,673441125.8734088,0,0.6999998,101.4385,1,0.88
2022-05-05T12:58:47.038+02:00,1651748325.999598,53.22897163044696,10.39806116320642,35.728,0.1178372,0.2345032,9.9471186769914,180,2.400000095367432,5.999684891258127,-9999,4980.039156125,0.02532958984375,-0.6325836181640625,-0.7686004638671875,4980.034158125,0.1483932361084844,0.03034462474265004,0.6755342499438468,0.01446275319904089,-0.02743768319487572,-0.02485475316643715,-0.0002695154398679733,-0.004888832569122314,0.01338165998458862,XArbitraryZVertical,0.3293703229174155,0.03883708022031958,0.07494581200569758,0.9404201350919427,0.02367649227380753,-0.6253142952919006,-0.7800137400627136,0,0,0,-1,-1,4976.316407625,unknown,2,2022-05-05T12:58:43.314+02:00,2022-05-05T12:55:18.700+02:00,58,0.8036995,0,0,39.2015,0,0,2022-05-05T12:57:29.090+02:00,673441125.8734088,0,0.6999998,101.4385,1,0.88
2022-05-05T12:58:47.048+02:00,1651748325.999598,53.22897163044696,10.39806116320642,35.728,0.1178372,0.2345032,9.9471186769914,180,2.400000095367432,5.999684891258127,-9999,4980.049151125,0.0309295654296875,-0.6378936767578125,-0.7755126953125,4980.044153125,0.1481497199374958,0.03009794844712503,0.6756378575219082,-0.001789753325283527,-0.04897047206759453,-0.0194263644516468,0.001847457140684128,-0.00718843936920166,0.01135432720184326,XArbitraryZVertical,0.3294330322777175,0.03868434453178984,0.07479014574962808,0.9404168573443242,0.02348213084042072,-0.6253951787948608,-0.7799547910690308,0,0,0,-1,-1,4976.316407625,unknown,2,2022-05-05T12:58:43.314+02:00,2022-05-05T12:55:18.700+02:00,58,0.8036995,0,0,39.2015,0,0,2022-05-05T12:57:29.090+02:00,673441125.8734088,0,0.6999998,101.4385,1,0.88
2022-05-05T12:58:47.058+02:00,1651748325.999598,53.22897163044696,10.39806116320642,35.728,0.1178372,0.2345032,9.9471186769914,180,2.400000095367432,5.999684891258127,-9999,4980.059147125,0.0156402587890625,-0.6296234130859375,-0.782745361328125,4980.054149125001,0.1479518917497017,0.02963675924477215,0.6755939633430644,-0.0178664568811655,-0.06083725392818451,-0.01688198186457157,0.007806327193975449,-0.01253277063369751,0.004480302333831787,XArbitraryZVertical,0.329433378512001,0.03843346782762442,0.07462137808552222,0.9404405283892308,0.0231232363730669,-0.625360906124115,-0.7799930572509766,0,0,0,-1,-1,4976.316407625,unknown,2,2022-05-05T12:58:43.314+02:00,2022-05-05T12:55:18.700+02:00,58,0.8036995,0,0,39.2015,0,0,2022-05-05T12:57:29.090+02:00,673441125.8734088,0,0.6999998,101.4385,1,0.88
2022-05-05T12:58:47.068+02:00,1651748325.999598,53.22897163044696,10.39806116320642,35.728,0.1178372,0.2345032,9.9471186769914,180,2.400000095367432,5.999684891258127,-9999,4980.069142125,0.010284423828125,-0.62615966796875,-0.7859344482421875,4980.064144125,0.1478458810847653,0.02903803650133462,0.6753479504653898,-0.03141612559556961,-0.06223281472921371,-0.01086556725203991,-0.007020449265837669,-0.004454433917999268,-0.002584874629974365,XArbitraryZVertical,0.3293419897022075,0.03812650122581504,0.07447424524444944,0.9404965974671569,0.02266069687902927,-0.6251689195632935,-0.7801604270935059,0,0,0,-1,-1,4976.316407625,unknown,2,2022-05-05T12:58:43.314+02:00,2022-05-05T12:55:18.700+02:00,58,0.8036995,0,0,39.2015,0,0,2022-05-05T12:57:29.090+02:00,673441125.8734088,0,0.6999998,101.4385,1,0.88
2022-05-05T12:58:47.077+02:00,1651748326.9996,53.22896777820132,10.39806354337611,35.95755,0.1152638,0.2298833,9.940325200088175,180,2.400000095367432,5.999684891258128,-9999,4980.079138125,0.012176513671875,-0.6299285888671875,-0.78338623046875,4980.074140125001,0.147779947993994,0.02842167056529685,0.67497798768677,-0.03801463544368744,-0.05624309927225113,-0.01124533452093601,-0.01190198585391045,-0.001279473304748535,-0.005529046058654785,XArbitraryZVertical,0.3291920322132382,0.03781377295841565,0.07434378013117515,0.9405721177414835,0.0221864003688097,-0.6248801350593567,-0.7804054617881775,0,0,0,-1,-1,4976.316407625,unknown,2,2022-05-05T12:58:43.314+02:00,2022-05-05T12:55:18.700+02:00,58,0.8036995,0,0,39.2015,0,0,2022-05-05T12:57:29.090+02:00,673441125.8734088,0,0.6999998,101.4385,1,0.88
2022-05-05T12:58:47.088+02:00,1651748326.9996,53.22896777820132,10.39806354337611,35.95755,0.1152638,0.2298833,9.940325200088175,180,2.400000095367432,5.999684891258128,-9999,4980.089133125,0.0148162841796875,-0.634002685546875,-0.7822265625,4980.084135125,0.1476457425197986,0.027917980319724,0.6746401765565172,-0.02393143996596336,-0.04901394993066788,-0.01881563663482666,-0.00962270051240921,-0.005312204360961914,-0.00275874137878418,XArbitraryZVertical,0.3290542719666799,0.03754382548822927,0.07419966064771227,0.9406425233373282,0.02179920673370361,-0.6246163845062256,-0.7806274890899658,0,0,0,-1,-1,4976.316407625,unknown,2,2022-05-05T12:58:43.314+02:00,2022-05-05T12:55:18.700+02:00,58,0.8036995,0,0,39.2015,0,0,2022-05-05T12:57:29.090+02:00,673441125.8734088,0,0.6999998,101.4385,1,0.88
2022-05-05T12:58:47.098+02:00,1651748326.9996,53.22896777820132,10.39806354337611,35.95755,0.1152638,0.2298833,9.940325200088175,180,2.400000095367432,5.999684891258128,-9999,4980.099129125,0.0151519775390625,-0.629241943359375,-0.78338623046875,4980.094131125,0.14741532586658,0.02757186481848281,0.6744642415566966,-0.01644689217209816,-0.04271210730075836,-0.02146095409989357,-0.006715763360261917,-0.009523689746856689,-0.001481771469116211,XArbitraryZVertical,0.3289886241645903,0.0373374209078496,0.07403535030865382,0.940686597023204,0.02153204753994942,-0.6244789361953735,-0.7807447910308838,0,0,0,-1,-1,4976.316407625,unknown,2,2022-05-05T12:58:43.314+02:00,2022-05-05T12:55:18.700+02:00,58,0.8036995,0,0,39.2015,0,0,2022-05-05T12:57:29.090+02:00,673441125.8734088,0,0.6999998,101.4385,1,0.88
2022-05-05T12:58:47.107+02:00,1651748326.9996,53.22896777820132,10.39806354337611,35.95755,0.1152638,0.2298833,9.940325200088175,180,2.400000095367432,5.999684891258128,-9999,4980.109124125001,0.01971435546875,-0.6332855224609375,-0.7875823974609375,4980.104126125,0.1471005259221817,0.02736799752952297,0.6744261514032169,-0.004765335936099291,-0.03677565604448318,-0.02704986371099949,-0.006221558898687363,-0.004792749881744385,-0.002613306045532227,XArbitraryZVertical,0.3289840895551723,0.03718851176492563,0.07385396487850845,0.9407083622603376,0.02137352898716927,-0.6244491934776306,-0.7807729840278625,0,0,0,-1,-1,4976.316407625,unknown,2,2022-05-05T12:58:43.314+02:00,2022-05-05T12:55:18.700+02:00,58,0.8036995,0,0,39.2015,0,0,2022-05-05T12:57:29.090+02:00,673441125.8734088,0,0.6999998,101.4385,1,0.88
2022-05-05T12:58:47.117+02:00,1651748326.9996,53.22896777820132,10.39806354337611,35.95755,0.1152638,0.2298833,9.940325200088175,180,2.400000095367432,5.999684891258128,-9999,4980.119120125,0.0183563232421875,-0.6309661865234375,-0.791107177734375,4980.114122125,0.1467014145363229,0.02727536952650578,0.6745619304386447,0.01386693771928549,-0.03286933153867722,-0.03827375546097755,-0.001584544777870178,-0.008730232715606689,-0.006892263889312744,XArbitraryZVertical,0.3290588278639729,0.03708368149528971,0.07365022865420247,0.9407023260891745,0.02129889465868473,-0.624555230140686,-0.7806901931762695,0,0,0,-1,-1,4976.316407625,unknown,2,2022-05-05T12:58:43.314+02:00,2022-05-05T12:55:18.700+02:00,58,0.8036995,0,0,39.2015,0,0,2022-05-05T12:57:29.090+02:00,673441125.8734088,0,0.6999998,101.4385,1,0.88
2022-05-05T12:58:47.128+02:00,1651748326.9996,53.22896777820132,10.39806354337611,35.95755,0.1152638,0.2298833,9.940325200088175,180,2.400000095367432,5.999684891258128,-9999,4980.129115125001,0.0090179443359375,-0.6237945556640625,-0.790313720703125,4980.124117125,0.1461201678136116,0.02738332854610245,0.6748405632477076,0.02408225834369659,-0.02268706820905209,-0.05108589306473732,-0.003022093325853348,-0.006193339824676514,-0.01059329509735107,XArbitraryZVertical,0.3291967752179354,0.03704779272386691,0.07339302745677245,0.9406755817364449,0.02137841284275055,-0.624772846698761,-0.7805138826370239,0,0,0,-1,-1,4976.316407625,unknown,2,2022-05-05T12:58:43.314+02:00,2022-05-05T12:55:18.700+02:00,58,0.8036995,0,0,39.2015,0,0,2022-05-05T12:57:29.090+02:00,673441125.8734088,0,0.6999998,101.4385,1,0.88
2022-05-05T12:58:47.138+02:00,1651748326.9996,53.22896777820132,10.39806354337611,35.95755,0.1152638,0.2298833,9.940325200088175,180,2.400000095367432,5.999684891258128,-9999,4980.139111125,0.0203399658203125,-0.6223602294921875,-0.7862548828125,4980.134113125,0.1454276805902636,0.02771596886388361,0.6752019374413748,0.03460361063480377,-0.01299129892140627,-0.04669993370771408,-0.01261384412646294,0.00126039981842041,-0.0100327730178833,XArbitraryZVertical,0.3293675395009903,0.03710183049096109,0.07312009017171228,0.9406348611436429,0.02163178287446499,-0.6250549554824829,-0.7802809476852417,0,0,0,-1,-1,4976.316407625,unknown,2,2022-05-05T12:58:43.314+02:00,2022-05-05T12:55:18.700+02:00,58,0.8036995,0,0,39.2015,0,0,2022-05-05T12:57:29.090+02:00,673441125.8734088,0,0.6999998,101.4385,1,0.88
2022-05-05T12:58:47.148+02:00,1651748326.9996,53.22896777820132,10.39806354337611,35.95755,0.1152638,0.2298833,9.940325200088175,180,2.400000095367432,5.999684891258128,-9999,4980.149106125,0.0228729248046875,-0.6305999755859375,-0.7814178466796875,4980.144109125,0.1448963322766716,0.02786172231141204,0.6755319299008359,0.0292896032333374,-0.02067598327994347,-0.04014123231172562,-0.001399803906679153,0.002952277660369873,-0.006183326244354248,XArbitraryZVertical,0.3295273682094584,0.03709338067863449,0.0728923917645232,0.9405969260881272,0.02173976413905621,-0.6253125071525574,-0.7800716161727905,0,0,0,-1,-1,4976.316407625,unknown,2,2022-05-05T12:58:43.314+02:00,2022-05-05T12:55:18.700+02:00,58,0.8036995,0,0,39.2015,0,0,2022-05-05T12:57:29.090+02:00,673441125.8734088,0,0.6999998,101.4385,1,0.88
2022-05-05T12:58:47.158+02:00,1651748326.9996,53.22896777820132,10.39806354337611,35.95755,0.1152638,0.2298833,9.940325200088175,180,2.400000095367432,5.999684891258128,-9999,4980.159102125001,0.020477294921875,-0.6217803955078125,-0.77398681640625,4980.154104125,0.1444205147857214,0.02792040862773001,0.6757246979743496,0.01341503206640482,-0.0168149322271347,-0.0455825999379158,0.001090742647647858,-0.005137026309967041,-0.001468062400817871,XArbitraryZVertical,0.3296247476141037,0.03704869129099815,0.07267723813137994,0.9405812832617149,0.02178217843174934,-0.6254629492759705,-0.7799498438835144,0,0,0,-1,-1,4976.316407625,unknown,2,2022-05-05T12:58:43.314+02:00,2022-05-05T12:55:18.700+02:00,58,0.8036995,0,0,39.2015,0,0,2022-05-05T12:57:29.090+02:00,673441125.8734088,0,0.6999998,101.4385,1,0.88
2022-05-05T12:58:47.167+02:00,1651748326.9996,53.22896777820132,10.39806354337611,35.95755,0.1152638,0.2298833,9.940325200088175,180,2.400000095367432,5.999684891258128,-9999,4980.169097125,0.0273284912109375,-0.6181640625,-0.7706298828125,4980.164100125,0.143899301669677,0.02805546359414099,0.6758062749598526,0.002476498018950224,-0.01357679441571236,-0.04376872256398201,-0.001408791169524193,0.003746211528778076,0.0059090256690979,XArbitraryZVertical,0.329667943939582,0.0370288943538815,0.07245395272110851,0.9405840177787763,0.02188608050346375,-0.6255266070365906,-0.7798958420753479,0,0,0,-1,-1,4976.316407625,unknown,2,2022-05-05T12:58:43.314+02:00,2022-05-05T12:55:18.700+02:00,58,0.8036995,0,0,39.2015,0,0,2022-05-05T12:57:29.090+02:00,673441125.8734088,0,0.6999998,101.4385,1,0.88
2022-05-05T12:58:47.178+02:00,1651748326.9996,53.22896777820132,10.39806354337611,35.95755,0.1152638,0.2298833,9.940325200088175,180,2.400000095367432,5.999684891258128,-9999,4980.179093125001,0.03375244140625,-0.6188507080078125,-0.7782745361328125,4980.174095125,0.143362560371697,0.02818043190832319,0.6757997607827863,-0.01071041077375412,-0.02441985532641411,-0.04266058281064034,0.005344824865460396,0.007357478141784668,0.009267270565032959,XArbitraryZVertical,0.3296702868287799,0.03699898642761507,0.07222215740379102,0.94060221249926,0.02198365889489651,-0.6255214810371399,-0.779897153377533,0,0,0,-1,-1,4976.316407625,unknown,2,2022-05-05T12:58:43.314+02:00,2022-05-05T12:55:18.700+02:00,58,0.8036995,0,0,39.2015,0,0,2022-05-05T12:57:29.090+02:00,673441125.8734088,0,0.6999998,101.4385,1,0.88
2022-05-05T12:58:47.188+02:00,1651748326.9996,53.22896777820132,10.39806354337611,35.95755,0.1152638,0.2298833,9.940325200088175,180,2.400000095367432,5.999684891258128,-9999,4980.189088125,0.02655029296875,-0.623199462890625,-0.7894134521484375,4980.184091125,0.1429117705928125,0.02814758476430988,0.6756910412240316,-0.01183116808533669,-0.03532756119966507,-0.03084713220596313,0.01179247908294201,0.006586015224456787,0.001691341400146484,XArbitraryZVertical,0.3296286194335223,0.03690581965238397,0.07200529745409325,0.9406371330677755,0.02195995487272739,-0.6254366636276245,-0.779965877532959,0,0,0,-1,-1,4976.316407625,unknown,2,2022-05-05T12:58:43.314+02:00,2022-05-05T12:55:18.700+02:00,58,0.8036995,0,0,39.2015,0,0,2022-05-05T12:57:29.090+02:00,673441125.8734088,0,0.6999998,101.4385,1,0.88
2022-05-05T12:58:47.198+02:00,1651748326.9996,53.22896777820132,10.39806354337611,35.95755,0.1152638,0.2298833,9.940325200088175,180,2.400000095367432,5.999684891258128,-9999,4980.199084125,0.0183868408203125,-0.62884521484375,-0.7920684814453125,4980.194086125,0.1426094250767985,0.02793251549016545,0.6755440202476131,-0.01617531664669514,-0.04047758504748344,-0.01908395066857338,0.004755515605211258,0.00212252140045166,-0.009350955486297607,XArbitraryZVertical,0.3295727076298787,0.03675023047026481,0.07182841588330784,0.9406763797386534,0.02179477736353874,-0.6253219246864319,-0.7800624966621399,0,0,0,-1,-1,4976.316407625,unknown,2,2022-05-05T12:58:43.314+02:00,2022-05-05T12:55:18.700+02:00,58,0.8036995,0,0,39.2015,0,0,2022-05-05T12:57:29.090+02:00,673441125.8734088,0,0.6999998,101.4385,1,0.88
2022-05-05T12:58:47.208+02:00,1651748326.9996,53.22896777820132,10.39806354337611,35.95755,0.1152638,0.2298833,9.940325200088175,180,2.400000095367432,5.999684891258128,-9999,4980.209079125,0.0160369873046875,-0.6319732666015625,-0.78436279296875,4980.204082125,0.1423988393230524,0.0276257491732601,0.6753792764278115,-0.01367241237312555,-0.0433504693210125,-0.019598338752985,-0.003171484917402267,-0.003651857376098633,-0.01189637184143066,XArbitraryZVertical,0.3295100355795481,0.0365660916681595,0.07167968813745161,0.940716846959646,0.02155832387506962,-0.6251933574676514,-0.7801721096038818,0,0,0,-1,-1,4976.316407625,unknown,2,2022-05-05T12:58:43.314+02:00,2022-05-05T12:55:18.700+02:00,58,0.8036995,0,0,39.2015,0,0,2022-05-05T12:57:29.090+02:00,673441125.8734088,0,0.6999998,101.4385,1,0.88
2022-05-05T12:58:47.229+02:00,1651748326.9996,53.22896777820132,10.39806354337611,35.95755,0.1152638,0.2298833,9.940325200088175,180,2.400000095367432,5.999684891258128,-9999,4980.219075125,0.010833740234375,-0.631866455078125,-0.7804107666015625,4980.214077125001,0.1422086427063948,0.02726872747952847,0.6751710578002561,-0.01882749423384666,-0.04051047563552856,-0.02168332785367966,-0.005246350541710854,-0.006942391395568848,-0.004052937030792236,XArbitraryZVertical,0.3294282877328075,0.03636031896786912,0.07153252065060622,0.9407646309447056,0.02128333225846291,-0.6250308752059937,-0.7803098559379578,0,0,0,-1,-1,4976.316407625,unknown,2,2022-05-05T12:58:43.314+02:00,2022-05-05T12:55:18.700+02:00,58,0.8036995,0,0,39.2015,0,0,2022-05-05T12:57:29.090+02:00,673441125.8734088,0,0.6999998,101.4385,1,0.88
2022-05-05T12:58:47.232+02:00,1651748326.9996,53.22896777820132,10.39806354337611,35.95755,0.1152638,0.2298833,9.940325200088175,180,2.400000095367432,5.999684891258128,-9999,4980.229070125,0.00836181640625,-0.629364013671875,-0.7778472900390625,4980.224073125,0.1418782611206871,0.02712913091421,0.6749358960994374,-0.02029659226536751,-0.02885241992771626,-0.03280448913574219,-0.01034465432167053,-0.007019162178039551,4.89354133605957e-05,XArbitraryZVertical,0.3293285629879944,0.03623289564615846,0.07135537520355037,0.9408179474832351,0.02117839083075523,-0.6248472929000854,-0.7804597616195679,0,0,0,-1,-1,4976.316407625,unknown,2,2022-05-05T12:58:43.314+02:00,2022-05-05T12:55:18.700+02:00,58,0.8036995,0,0,39.2015,0,0,2022-05-05T12:57:29.090+02:00,673441125.8734088,0,0.6999998,101.4385,1,0.88
2022-05-05T12:58:47.238+02:00,1651748326.9996,53.22896777820132,10.39806354337611,35.95755,0.1152638,0.2298833,9.940325200088175,180,2.400000095367432,5.999684891258128,-9999,4980.239066125,0.018829345703125,-0.6287994384765625,-0.7733917236328125,4980.234068125001,0.1414135567857429,0.02717657001423224,0.6747150477274214,-0.02366655692458153,-0.02211488969624043,-0.04052472859621048,-0.0128573514521122,-0.004689216613769531,0.002749383449554443,XArbitraryZVertical,0.3292313024014871,0.03617182031017793,0.07114574905362883,0.9408702637331979,0.0212191641330719,-0.6246748566627502,-0.7805966734886169,0,0,0,-1,-1,4976.316407625,unknown,2,2022-05-05T12:58:43.314+02:00,2022-05-05T12:55:18.700+02:00,58,0.8036995,0,0,39.2015,0,0,2022-05-05T12:57:29.090+02:00,673441125.8734088,0,0.6999998,101.4385,1,0.88
2022-05-05T12:58:47.247+02:00,1651748326.9996,53.22896777820132,10.39806354337611,35.95755,0.1152638,0.2298833,9.940325200088175,180,2.400000095367432,5.999684891258128,-9999,4980.249062125,0.0265350341796875,-0.6270904541015625,-0.7781829833984375,4980.244064125,0.140846577270945,0.02734493242744287,0.6745399188516553,-0.01050428301095963,-0.01248223520815372,-0.04638580977916718,-0.002524236217141151,-0.004261314868927002,0.007310688495635986,XArbitraryZVertical,0.3291531654375462,0.036152280743618,0.07090765550461946,0.9409162362020315,0.02135357819497585,-0.6245380640029907,-0.7807024121284485,0,0,0,-1,-1,4976.316407625,unknown,2,2022-05-05T12:58:43.314+02:00,2022-05-05T12:55:18.700+02:00,58,0.8036995,0,0,39.2015,0,0,2022-05-05T12:57:29.090+02:00,673441125.8734088,0,0.6999998,101.4385,1,0.88
2022-05-05T12:58:47.257+02:00,1651748326.9996,53.22896777820132,10.39806354337611,35.95755,0.1152638,0.2298833,9.940325200088175,180,2.400000095367432,5.999684891258128,-9999,4980.259057125,0.0261077880859375,-0.62408447265625,-0.78167724609375,4980.254059125,0.1402361045635264,0.02767302177960364,0.6744816943252256,-0.000383737962692976,-0.005253084935247898,-0.04374715313315392,0.004924304783344269,-0.0025978684425354,0.002548694610595703,XArbitraryZVertical,0.3291251875289619,0.03620437414418277,0.07067474352331805,0.9409415348948866,0.02161072194576263,-0.6244925856590271,-0.780731737613678,0,0,0,-1,-1,4976.316407625,unknown,2,2022-05-05T12:58:43.314+02:00,2022-05-05T12:55:18.700+02:00,58,0.8036995,0,0,39.2015,0,0,2022-05-05T12:57:29.090+02:00,673441125.8734088,0,0.6999998,101.4385,1,0.88
2022-05-05T12:58:47.268+02:00,1651748326.9996,53.22896777820132,10.39806354337611,35.95755,0.1152638,0.2298833,9.940325200088175,180,2.400000095367432,5.999684891258128,-9999,4980.269053125,0.0292816162109375,-0.62200927734375,-0.7860565185546875,4980.264055125001,0.1396624657117038,0.02804868283747338,0.6744573214164291,0.004785391967743635,-0.004944291431456804,-0.03794878348708153,0.004203345626592636,0.00038909912109375,-0.0009385347366333008,XArbitraryZVertical,0.3291108454326279,0.03628596594948483,0.07046679930125166,0.9409590243307385,0.02190443873405457,-0.6244735717773438,-0.7807387709617615,0,0,0,-1,-1,4976.316407625,unknown,2,2022-05-05T12:58:43.314+02:00,2022-05-05T12:55:18.700+02:00,58,0.8036995,0,0,39.2015,0,0,2022-05-05T12:57:29.090+02:00,673441125.8734088,0,0.6999998,101.4385,1,0.88
2022-05-05T12:58:47.278+02:00,1651748326.9996,53.22896777820132,10.39806354337611,35.95755,0.1152638,0.2298833,9.940325200088175,180,2.400000095367432,5.999684891258128,-9999,4980.279048125,0.0317535400390625,-0.622039794921875,-0.78204345703125,4980.274050125,0.1392238282479572,0.02826269737842887,0.6744685388914966,0.005985678639262915,-0.01248236931860447,-0.02540955692529678,0.007210284471511841,0.002473056316375732,-0.005329489707946777,XArbitraryZVertical,0.3291165596499206,0.03631481848494369,0.07029559163592683,0.9409687110121228,0.02207132987678051,-0.6244823336601257,-0.7807270288467407,0,0,0,-1,-1,4976.316407625,unknown,2,2022-05-05T12:58:43.314+02:00,2022-05-05T12:55:18.700+02:00,58,0.8036995,0,0,39.2015,0,0,2022-05-05T12:57:29.090+02:00,673441125.8734088,0,0.6999998,101.4385,1,0.88
2022-05-05T12:58:47.288+02:00,1651748326.9996,53.22896777820132,10.39806354337611,35.95755,0.1152638,0.2298833,9.940325200088175,180,2.400000095367432,5.999684891258128,-9999,4980.289044125,0.0330352783203125,-0.6274871826171875,-0.7769622802734375,4980.284046125001,0.1389345992980546,0.02825326834674379,0.6744876068144814,0.00510124210268259,-0.01954560540616512,-0.02459542825818062,0.009689901024103165,0.00245743989944458,-0.001328110694885254,XArbitraryZVertical,0.3291311197451123,0.03626336773650748,0.07015787030420952,0.9409758715158164,0.02206363156437874,-0.6244972348213196,-0.7807153463363647,0,0,0,-1,-1,4976.316407625,unknown,2,2022-05-05T12:58:43.314+02:00,2022-05-05T12:55:18.700+02:00,58,0.8036995,0,0,39.2015,0,0,2022-05-05T12:57:29.090+02:00,673441125.8734088,0,0.6999998,101.4385,1,0.88
2022-05-05T12:58:47.298+02:00,1651748326.9996,53.22896777820132,10.39806354337611,35.95755,0.1152638,0.2298833,9.940325200088175,180,2.400000095367432,5.999684891258128,-9999,4980.299039125,0.031036376953125,-0.624298095703125,-0.7704925537109375,4980.294041125,0.1386599097689475,0.02815581607734225,0.674560214639595,0.004555027931928635,-0.02380293421447277,-0.02443483844399452,0.01104900240898132,-0.002933263778686523,0.003709852695465088,XArbitraryZVertical,0.3291736958496327,0.03617451716283379,0.07001224342476405,0.9409752395587286,0.02198627218604088,-0.624553918838501,-0.7806721925735474,0,0,0,-1,-1,4976.316407625,unknown,2,2022-05-05T12:58:43.314+02:00,2022-05-05T12:55:18.700+02:00,58,0.8036995,0,0,39.2015,0,0,2022-05-05T12:57:29.090+02:00,673441125.8734088,0,0.6999998,101.4385,1,0.88
2022-05-05T12:58:47.308+02:00,1651748326.9996,53.22896777820132,10.39806354337611,35.95755,0.1152638,0.2298833,9.940325200088175,180,2.400000095367432,5.999684891258128,-9999,4980.309035125,0.02496337890625,-0.6165008544921875,-0.773468017578125,4980.304037125,0.1384349405737781,0.0279889030335893,0.6746175316269681,0.001276743598282337,-0.02466140314936638,-0.01778212934732437,0.00918140634894371,0.0003005862236022949,0.01014745235443115,XArbitraryZVertical,0.3292105801652852,0.03606069619329295,0.06987864688121775,0.9409766382503725,0.02185496501624584,-0.6245986819267273,-0.7806400656700134,0,0,0,-1,-1,4976.316407625,unknown,2,2022-05-05T12:58:43.314+02:00,2022-05-05T12:55:18.700+02:00,58,0.8036995,0,0,39.2015,0,0,2022-05-05T12:57:29.090+02:00,673441125.8734088,0,0.6999998,101.4385,1,0.88
2022-05-05T12:58:47.318+02:00,1651748326.9996,53.22896777820132,10.39806354337611,35.95755,0.1152638,0.2298833,9.940325200088175,180,2.400000095367432,5.999684891258128,-9999,4980.319030125001,0.025726318359375,-0.6170806884765625,-0.77734375,4980.314032125,0.1382993149069502,0.02779685202645306,0.6746111473996907,-0.005666649900376797,-0.01928528025746346,-0.01512482762336731,0.003258220851421356,0.008092820644378662,0.007180213928222656,XArbitraryZVertical,0.3292166980840369,0.0359478136978041,0.06978324882994889,0.940985956533432,0.02170515432953835,-0.6245936751365662,-0.7806482315063477,0,0,0,-1,-1,4976.316407625,unknown,2,2022-05-05T12:58:43.314+02:00,2022-05-05T12:55:18.700+02:00,58,0.8036995,0,0,39.2015,0,0,2022-05-05T12:57:29.090+02:00,673441125.8734088,0,0.6999998,101.4385,1,0.88
2022-05-05T12:58:47.328+02:00,1651748326.9996,53.22896777820132,10.39806354337611,35.95755,0.1152638,0.2298833,9.940325200088175,180,2.400000095367432,5.999684891258128,-9999,4980.329026125,0.0335235595703125,-0.6202545166015625,-0.78106689453125,4980.324028125,0.1380924383422204,0.02777079147346451,0.6745918971484927,-0.008557843044400215,-0.01162403263151646,-0.0175740048289299,0.004041168838739395,0.007497966289520264,0.003317058086395264,XArbitraryZVertical,0.3292122594258863,0.03590091605768852,0.06968171859928582,0.9409968237301027,0.02168514393270016,-0.6245786547660828,-0.7806608080863953,0,0,0,-1,-1,4976.316407625,unknown,2,2022-05-05T12:58:43.314+02:00,2022-05-05T12:55:18.700+02:00,58,0.8036995,0,0,39.2015,0,0,2022-05-05T12:57:29.090+02:00,673441125.8734088,0,0.6999998,101.4385,1,0.88
2022-05-05T12:58:47.338+02:00,1651748326.9996,53.22896777820132,10.39806354337611,35.95755,0.1152638,0.2298833,9.940325200088175,180,2.400000095367432,5.999684891258128,-9999,4980.339021125001,0.0332489013671875,-0.6225433349609375,-0.7877197265625,4980.334023125,0.137853371309109,0.02782160474353277,0.6745527228783851,-0.001532159280031919,-0.01011348702013493,-0.01742300391197205,0.01179806515574455,0.004293560981750488,-0.0003827214241027832,XArbitraryZVertical,0.3291963247049794,0.03588428572904683,0.06957778870113568,0.941010753885044,0.0217254925519228,-0.624548077583313,-0.7806841731071472,0,0,0,-1,-1,4976.316407625,unknown,2,2022-05-05T12:58:43.314+02:00,2022-05-05T12:55:18.700+02:00,58,0.8036995,0,0,39.2015,0,0,2022-05-05T12:57:29.090+02:00,673441125.8734088,0,0.6999998,101.4385,1,0.88
2022-05-05T12:58:47.348+02:00,1651748326.9996,53.22896777820132,10.39806354337611,35.95755,0.1152638,0.2298833,9.940325200088175,180,2.400000095367432,5.999684891258128,-9999,4980.349017125001,0.0305938720703125,-0.6225738525390625,-0.79010009765625,4980.344019125,0.1376138941508566,0.02790193667149959,0.6744916051100116,-0.00755369896069169,-0.009108942002058029,-0.01790769770741463,0.01145962625741959,0.0019569993019104,-0.00699913501739502,XArbitraryZVertical,0.3291690576745324,0.03588082441313705,0.06947863056218098,0.9410277379235377,0.02178927138447762,-0.6245003342628479,-0.780720591545105,0,0,0,-1,-1,4976.316407625,unknown,2,2022-05-05T12:58:43.314+02:00,2022-05-05T12:55:18.700+02:00,58,0.8036995,0,0,39.2015,0,0,2022-05-05T12:57:29.090+02:00,673441125.8734088,0,0.6999998,101.4385,1,0.88
2022-05-05T12:58:47.358+02:00,1651748326.9996,53.22896777820132,10.39806354337611,35.95755,0.1152638,0.2298833,9.940325200088175,180,2.400000095367432,5.999684891258128,-9999,4980.359012125,0.0306396484375,-0.623779296875,-0.792572021484375,4980.354014125001,0.1373798515487629,0.02799578745618784,0.6743530103374994,-0.01357404142618179,-0.008669520728290081,-0.01296327356249094,0.008728900924324989,0.001818239688873291,-0.009295046329498291,XArbitraryZVertical,0.3291047569960674,0.03588229857486603,0.06938462006423415,0.9410570709960635,0.02186496369540691,-0.6243920922279358,-0.7808050513267517,0,0,0,-1,-1,4976.316407625,unknown,2,2022-05-05T12:58:43.314+02:00,2022-05-05T12:55:18.700+02:00,58,0.8036995,0,0,39.2015,0,0,2022-05-05T12:57:29.090+02:00,673441125.8734088,0,0.6999998,101.4385,1,0.88
2022-05-05T12:58:47.368+02:00,1651748326.9996,53.22896777820132,10.39806354337611,35.95755,0.1152638,0.2298833,9.940325200088175,180,2.400000095367432,5.999684891258128,-9999,4980.369008125001,0.0302734375,-0.62347412109375,-0.7900390625,4980.364010125,0.13715497966431,0.02811042787348475,0.6741984181883441,-0.01430374756455421,-0.004678507801145315,-0.01482295803725719,0.008682454004883766,0.000492095947265625,-0.01167303323745728,XArbitraryZVertical,0.329032037390888,0.03589460025802579,0.0692984070233585,0.9410883560417608,0.02195718884468079,-0.6242713332176208,-0.7808989882469177,0,0,0,-1,-1,4976.316407625,unknown,2,2022-05-05T12:58:43.314+02:00,2022-05-05T12:55:18.700+02:00,58,0.8036995,0,0,39.2015,0,0,2022-05-05T12:57:29.090+02:00,673441125.8734088,0,0.6999998,101.4385,1,0.88
2022-05-05T12:58:47.378+02:00,1651748326.9996,53.22896777820132,10.39806354337611,35.95755,0.1152638,0.2298833,9.940325200088175,180,2.400000095367432,5.999684891258128,-9999,4980.379003125,0.031219482421875,-0.62445068359375,-0.789031982421875,4980.374006125,0.1369713368917259,0.02821078196079672,0.6740430535775817,-0.02312733232975006,-0.01037527620792389,-0.006584469694644213,0.008235141634941101,0.0006758570671081543,-0.00904536247253418,XArbitraryZVertical,0.3289586914303563,0.03590695182502011,0.06922922841323705,0.9411186434425048,0.02203829027712345,-0.6241499185562134,-0.7809937596321106,0,0,0,-1,-1,4976.316407625,unknown,2,2022-05-05T12:58:43.314+02:00,2022-05-05T12:55:18.700+02:00,58,0.8036995,0,0,39.2015,0,0,2022-05-05T12:57:29.090+02:00,673441125.8734088,0,0.6999998,101.4385,1,0.88
2022-05-05T12:58:47.388+02:00,1651748326.9996,53.22896777820132,10.39806354337611,35.95755,0.1152638,0.2298833,9.940325200088175,180,2.400000095367432,5.999684891258128,-9999,4980.388999125001,0.0313262939453125,-0.626251220703125,-0.7896270751953125,4980.384001125,0.1368899901529671,0.02816079418027193,0.6738237007459789,-0.02939677983522415,-0.01616678573191166,-0.001941847614943981,0.009216371923685074,-0.0004721283912658691,-0.007900357246398926,XArbitraryZVertical,0.328858579937419,0.03586347807427847,0.06918375121437803,0.9411586582819544,0.02200310491025448,-0.6239785552024841,-0.7811316847801208,0,0,0,-1,-1,4976.316407625,unknown,2,2022-05-05T12:58:43.314+02:00,2022-05-05T12:55:18.700+02:00,58,0.8036995,0,0,39.2015,0,0,2022-05-05T12:57:29.090+02:00,673441125.8734088,0,0.6999998,101.4385,1,0.88
2022-05-05T12:58:47.398+02:00,1651748326.9996,53.22896777820132,10.39806354337611,35.95755,0.1152638,0.2298833,9.940325200088175,180,2.400000095367432,5.999684891258128,-9999,4980.398994125,0.0284881591796875,-0.6254730224609375,-0.7855682373046875,4980.393997125,0.1368426977230698,0.02798896399426997,0.6734660641638898,-0.04165478050708771,-0.02557253837585449,-0.005307816434651613,0.009451162070035934,-0.002552211284637451,-0.008268594741821289,XArbitraryZVertical,0.3286969522847215,0.0357641293271647,0.06913492565835945,0.9412224885313104,0.02187512628734112,-0.6236990094184875,-0.7813584804534912,0,0,0,-1,-1,4976.316407625,unknown,2,2022-05-05T12:58:43.314+02:00,2022-05-05T12:55:18.700+02:00,58,0.8036995,0,0,39.2015,0,0,2022-05-05T12:57:29.090+02:00,673441125.8734088,0,0.6999998,101.4385,1,0.88
2022-05-05T12:58:47.408+02:00,1651748326.9996,53.22896777820132,10.39806354337611,35.95755,0.1152638,0.2298833,9.940325200088175,180,2.400000095367432,5.999684891258128,-9999,4980.408990125,0.019866943359375,-0.6275482177734375,-0.7832794189453125,4980.403992125001,0.1367787562951418,0.0277924727720508,0.6730432387780479,-0.03841986879706383,-0.02579977177083492,-0.006108030211180449,0.006759230047464371,-0.002104520797729492,-0.003941953182220459,XArbitraryZVertical,0.3285057366839627,0.03564847772726298,0.06907454118316943,0.9412981125277506,0.02172892354428768,-0.6233684420585632,-0.7816263437271118,0,0,0,-1,-1,4976.316407625,unknown,2,2022-05-05T12:58:43.314+02:00,2022-05-05T12:55:18.700+02:00,58,0.8036995,0,0,39.2015,0,0,2022-05-05T12:57:29.090+02:00,673441125.8734088,0,0.6999998,101.4385,1,0.88
2022-05-05T12:58:47.418+02:00,1651748326.9996,53.22896777820132,10.39806354337611,35.95755,0.1152638,0.2298833,9.940325200088175,180,2.400000095367432,5.999684891258128,-9999,4980.418985125,0.0178375244140625,-0.6240234375,-0.7783355712890625,4980.413988125,0.1366557723945943,0.02773879357100868,0.6726584173398924,-0.03232682123780251,-0.01233003567904234,-0.005219067446887493,-0.001826677471399307,-0.004480719566345215,-0.001412272453308105,XArbitraryZVertical,0.3283285927034723,0.03559150651760872,0.06900967823708226,0.9413666861379889,0.02169361524283886,-0.6230674982070923,-0.7818671464920044,0,0,0,-1,-1,4976.316407625,unknown,2,2022-05-05T12:58:43.314+02:00,2022-05-05T12:55:18.700+02:00,58,0.8036995,0,0,39.2015,0,0,2022-05-05T12:57:29.090+02:00,673441125.8734088,0,0.6999998,101.4385,1,0.88
2022-05-05T12:58:47.428+02:00,1651748326.9996,53.22896777820132,10.39806354337611,35.95755,0.1152638,0.2298833,9.940325200088175,180,2.400000095367432,5.999684891258128,-9999,4980.428981125,0.0111541748046875,-0.62591552734375,-0.7845916748046875,4980.423983125001,0.1366034151163915,0.02773583215692975,0.6723048119184512,-0.03124175034463406,-0.006237322464585304,-0.001067399047315121,-0.003859888762235641,-0.001232504844665527,0.003751814365386963,XArbitraryZVertical,0.3281630811867233,0.035570936433953,0.06898622173219016,0.9414268758035299,0.02169740945100784,-0.6227908730506897,-0.7820873856544495,0,0,0,-1,-1,4976.316407625,unknown,2,2022-05-05T12:58:43.314+02:00,2022-05-05T12:55:18.700+02:00,58,0.8036995,0,0,39.2015,0,0,2022-05-05T12:57:29.090+02:00,673441125.8734088,0,0.6999998,101.4385,1,0.88
2022-05-05T12:58:47.438+02:00,1651748326.9996,53.22896777820132,10.39806354337611,35.95755,0.1152638,0.2298833,9.940325200088175,180,2.400000095367432,5.999684891258128,-9999,4980.438976125,0.0081329345703125,-0.624114990234375,-0.789947509765625,4980.433979125,0.1366005288566115,0.0277876685897833,0.6719438318100668,-0.03682240471243858,0.006933606695383787,0.001997899264097214,-0.01059002988040447,-0.003407061100006104,-0.002280652523040771,XArbitraryZVertical,0.3279912565590024,0.0355840473926045,0.06899505603424812,0.9414857428891836,0.02174419723451138,-0.6225084066390991,-0.7823110222816467,0,0,0,-1,-1,4976.316407625,unknown,2,2022-05-05T12:58:43.314+02:00,2022-05-05T12:55:18.700+02:00,58,0.8036995,0,0,39.2015,0,0,2022-05-05T12:57:29.090+02:00,673441125.8734088,0,0.6999998,101.4385,1,0.88
2022-05-05T12:58:47.448+02:00,1651748326.9996,53.22896777820132,10.39806354337611,35.95755,0.1152638,0.2298833,9.940325200088175,180,2.400000095367432,5.999684891258128,-9999,4980.448972125,0.011810302734375,-0.62225341796875,-0.789459228515625,4980.443974125001,0.1365652540482682,0.02796590829988015,0.671549045416458,-0.0346328541636467,0.01776421628892422,-0.001948704943060875,-0.01375757530331612,-0.001915574073791504,-0.007394850254058838,XArbitraryZVertical,0.32779978837129,0.03565036725833672,0.06900952599190346,0.9415487881249832,0.02189050428569317,-0.6221994161605835,-0.7825527191162109,0,0,0,-1,-1,4976.316407625,unknown,2,2022-05-05T12:58:43.314+02:00,2022-05-05T12:55:18.700+02:00,58,0.8036995,0,0,39.2015,0,0,2022-05-05T12:57:29.090+02:00,673441125.8734088,0,0.6999998,101.4385,1,0.88
2022-05-05T12:58:47.458+02:00,1651748326.9996,53.22896777820132,10.39806354337611,35.95755,0.1152638,0.2298833,9.940325200088175,180,2.400000095367432,5.999684891258128,-9999,4980.458967125001,0.0138397216796875,-0.6270751953125,-0.7889862060546875,4980.453970125001,0.1364540413343011,0.02828381681633869,0.6711871738484974,-0.03088871762156487,0.02538192272186279,-0.01322506181895733,-0.01033535227179527,-0.0003373026847839355,-0.006688535213470459,XArbitraryZVertical,0.3276203176056005,0.03577099631026492,0.06901092528109523,0.9416065938774225,0.02214564941823483,-0.6219160556793213,-0.7827707529067993,0,0,0,-1,-1,4976.316407625,unknown,2,2022-05-05T12:58:43.314+02:00,2022-05-05T12:55:18.700+02:00,58,0.8036995,0,0,39.2015,0,0,2022-05-05T12:57:29.090+02:00,673441125.8734088,0,0.6999998,101.4385,1,0.88
2022-05-05T12:58:47.468+02:00,1651748326.9996,53.22896777820132,10.39806354337611,35.95755,0.1152638,0.2298833,9.940325200088175,180,2.400000095367432,5.999684891258128,-9999,4980.468963125,0.0177459716796875,-0.6236724853515625,-0.789581298828125,4980.463965125,0.1362118421361633,0.02875583151253745,0.6708608176877515,-0.03264161199331284,0.03007414564490318,-0.01564294658601284,-0.008681245148181915,-0.005414664745330811,-0.006023228168487549,XArbitraryZVertical,0.327454622782584,0.03594383551870695,0.06897566326064329,0.9416602205814066,0.02252096123993397,-0.6216604709625244,-0.7829630374908447,0,0,0,-1,-1,4976.316407625,unknown,2,2022-05-05T12:58:43.314+02:00,2022-05-05T12:55:18.700+02:00,58,0.8036995,0,0,39.2015,0,0,2022-05-05T12:57:29.090+02:00,673441125.8734088,0,0.6999998,101.4385,1,0.88
2022-05-05T12:58:47.478+02:00,1651748326.9996,53.22896777820132,10.39806354337611,35.95755,0.1152638,0.2298833,9.940325200088175,180,2.400000095367432,5.999684891258128,-9999,4980.478959125,0.0177154541015625,-0.62286376953125,-0.7920074462890625,4980.473961125001,0.1359798651507021,0.02925384833818738,0.6705463708346362,-0.03371646255254745,0.03390883281826973,-0.01388579234480858,-0.005170635879039764,-0.00225830078125,-0.006434261798858643,XArbitraryZVertical,0.3272934698919898,0.0361310053703704,0.06894932644452588,0.9417110198679934,0.02291660383343697,-0.6214141249656677,-0.7831470966339111,0,0,0,-1,-1,4976.316407625,unknown,2,2022-05-05T12:58:43.314+02:00,2022-05-05T12:55:18.700+02:00,58,0.8036995,0,0,39.2015,0,0,2022-05-05T12:57:29.090+02:00,673441125.8734088,0,0.6999998,101.4385,1,0.88
2022-05-05T12:58:47.488+02:00,1651748326.9996,53.22896777820132,10.39806354337611,35.95755,0.1152638,0.2298833,9.940325200088175,180,2.400000095367432,5.999684891258128,-9999,4980.488954125,0.0241241455078125,-0.6244659423828125,-0.7959442138671875,4980.483956125,0.1357701994725904,0.02973611810638985,0.6702175912294634,-0.03340806812047958,0.03349444270133972,-0.01596119441092014,-0.005584914237260818,-0.001707196235656738,-0.008667349815368652,XArbitraryZVertical,0.3271257103461744,0.03631404374553569,0.06893088652263082,0.941763650960601,0.02330036275088787,-0.6211565136909485,-0.7833400964736938,0,0,0,-1,-1,4976.316407625,unknown,2,2022-05-05T12:58:43.314+02:00,2022-05-05T12:55:18.700+02:00,58,0.8036995,0,0,39.2015,0,0,2022-05-05T12:57:29.090+02:00,673441125.8734088,0,0.6999998,101.4385,1,0.88
2022-05-05T12:58:47.498+02:00,1651748326.9996,53.22896777820132,10.39806354337611,35.95755,0.1152638,0.2298833,9.940325200088175,180,2.400000095367432,5.999684891258128,-9999,4980.498950125,0.0296630859375,-0.6244354248046875,-0.7986297607421875,4980.493952125,0.1355818917349519,0.03013413915651561,0.6699146351301366,-0.03076807595789433,0.02804774791002274,-0.01920385845005512,0.0005063265562057495,-0.003546833992004395,-0.01242542266845703,XArbitraryZVertical,0.3269726548192488,0.03646172302287157,0.06890853822870086,0.941812743041739,0.02361781522631645,-0.6209190487861633,-0.7835188508033752,0,0,0,-1,-1,4976.316407625,unknown,2,2022-05-05T12:58:43.314+02:00,2022-05-05T12:55:18.700+02:00,58,0.8036995,0,0,39.2015,0,0,2022-05-05T12:57:29.090+02:00,673441125.8734088,0,0.6999998,101.4385,1,0.88
