loggingTime(txt),locationTimestamp_since1970(s),locationLatitude(WGS84),locationLongitude(WGS84),locationAltitude(m),locationSpeed(m/s),locationSpeedAccuracy(m/s),locationCourse(°),locationCourseAccuracy(°),locationVerticalAccuracy(m),locationHorizontalAccuracy(m),locationFloor(Z),accelerometerTimestamp_sinceReboot(s),accelerometerAccelerationX(G),accelerometerAccelerationY(G),accelerometerAccelerationZ(G),motionTimestamp_sinceReboot(s),motionYaw(rad),motionRoll(rad),motionPitch(rad),motionRotationRateX(rad/s),motionRotationRateY(rad/s),motionRotationRateZ(rad/s),motionUserAccelerationX(G),motionUserAccelerationY(G),motionUserAccelerationZ(G),motionAttitudeReferenceFrame(txt),motionQuaternionX(R),motionQuaternionY(R),motionQuaternionZ(R),motionQuaternionW(R),motionGravityX(G),motionGravityY(G),motionGravityZ(G),motionMagneticFieldX(µT),motionMagneticFieldY(µT),motionMagneticFieldZ(µT),motionHeading(°),motionMagneticFieldCalibrationAccuracy(Z),activityTimestamp_sinceReboot(s),activity(txt),activityActivityConfidence(Z),activityActivityStartDate(txt),pedometerStartDate(txt),pedometerNumberofSteps(N),pedometerAverageActivePace(s/m),pedometerCurrentPace(s/m),pedometerCurrentCadence(steps/s),pedometerDistance(m),pedometerFloorAscended(N),pedometerFloorDescended(N),pedometerEndDate(txt),altimeterTimestamp_sinceReboot(s),altimeterReset(bool),altimeterRelativeAltitude(m),altimeterPressure(kPa),batteryState(N),batteryLevel(R)
2022-05-05T12:59:42.603+02:00,1651748380.999593,53.2288023876522,10.39805715904608,36.52902,0,1.33,-1,-1,4,10,-9999,5018.72047875,-0.009185791015625,-0.6896820068359375,-0.7450408935546875,5018.71048375,0.3472025969536144,0.02150581985885948,0.689526330469643,-0.1409030705690384,0.0186535120010376,-0.171585738658905,0.01420076191425323,-0.06644964218139648,0.02666383981704712,XArbitraryZVertical,0.3311264322338636,0.06834288412941059,0.1661364772964622,0.9263278967441758,0.01659148186445236,-0.636171817779541,-0.7713690996170044,0,0,0,-1,-1,5015.698944541667,walking,2,2022-05-05T12:59:39.538+02:00,2022-05-05T12:55:18.700+02:00,133,0.7728162,0.7813913,1.813988,95.6695,0,0,2022-05-05T12:59:42.098+02:00,673441182.097509,0,0.6400003,101.4399,1,0.88
2022-05-05T12:59:42.627+02:00,1651748380.999593,53.2288023876522,10.39805715904608,36.52902,0,1.33,-1,-1,4,10,-9999,5018.73047475,-0.0016937255859375,-0.68084716796875,-0.7331695556640625,5018.72047875,0.3449327434419741,0.02309021098281091,0.6878179609407964,-0.1955560296773911,0.02851925790309906,-0.2033251076936722,-0.005646891891956329,-0.0529676079750061,0.02546370029449463,XArbitraryZVertical,0.3302802817299517,0.06856631034111914,0.1653877273868587,0.9267473122628922,0.01783867739140987,-0.6348527669906616,-0.7724272012710571,0,0,0,-1,-1,5015.698944541667,walking,2,2022-05-05T12:59:39.538+02:00,2022-05-05T12:55:18.700+02:00,133,0.7728162,0.7813913,1.813988,95.6695,0,0,2022-05-05T12:59:42.098+02:00,673441182.097509,0,0.6400003,101.4399,1,0.88
2022-05-05T12:59:42.630+02:00,1651748380.999593,53.2288023876522,10.39805715904608,36.52902,0,1.33,-1,-1,4,10,-9999,5018.740469750001,0.0128021240234375,-0.6767730712890625,-0.7126312255859375,5018.73047475,0.3422317145442542,0.02501230534878351,0.6855168977035175,-0.2496948838233948,0.03470711410045624,-0.2423313558101654,-0.02854558080434799,-0.05660879611968994,0.02880889177322388,XArbitraryZVertical,0.3291463953667713,0.06883134364530634,0.1645060205105254,0.9272878119576323,0.01935980468988419,-0.6330732107162476,-0.7738497853279114,0,0,0,-1,-1,5015.698944541667,walking,2,2022-05-05T12:59:39.538+02:00,2022-05-05T12:55:18.700+02:00,133,0.7728162,0.7813913,1.813988,95.6695,0,0,2022-05-05T12:59:42.098+02:00,673441182.097509,0,0.6400003,101.4399,1,0.88
2022-05-05T12:59:42.636+02:00,1651748380.999593,53.2288023876522,10.39805715904608,36.52902,0,1.33,-1,-1,4,10,-9999,5018.75046475,0.0191192626953125,-0.6782684326171875,-0.69244384765625,5018.740469750001,0.3390720889061436,0.02719746162937425,0.6826841557778165,-0.2997596263885498,0.01933222077786922,-0.2798354029655457,-0.02279314398765564,-0.04996925592422485,0.04242563247680664,XArbitraryZVertical,0.3277602190690551,0.06910588964662751,0.1634627703675685,0.9279426955416734,0.02109942398965359,-0.6308779120445251,-0.7755952477455139,0,0,0,-1,-1,5015.698944541667,walking,2,2022-05-05T12:59:39.538+02:00,2022-05-05T12:55:18.700+02:00,133,0.7728162,0.7813913,1.813988,95.6695,0,0,2022-05-05T12:59:42.098+02:00,673441182.097509,0,0.6400003,101.4399,1,0.88
2022-05-05T12:59:42.639+02:00,1651748380.999593,53.2288023876522,10.39805715904608,36.52902,0,1.33,-1,-1,4,10,-9999,5018.760460750001,0.026336669921875,-0.6690216064453125,-0.6726531982421875,5018.75046475,0.3354655031534549,0.02956114185726641,0.6794365279409313,-0.3324589729309082,0.01748105697333813,-0.3141781985759735,-0.0101909264922142,-0.04841828346252441,0.06495577096939087,XArbitraryZVertical,0.3261826208560479,0.06936412521842854,0.1622447833260964,0.9286927169759485,0.0229930579662323,-0.6283547878265381,-0.7775870561599731,0,0,0,-1,-1,5015.698944541667,walking,2,2022-05-05T12:59:39.538+02:00,2022-05-05T12:55:18.700+02:00,133,0.7728162,0.7813913,1.813988,95.6695,0,0,2022-05-05T12:59:42.098+02:00,673441182.097509,0,0.6400003,101.4399,1,0.88
2022-05-05T12:59:42.641+02:00,1651748380.999593,53.2288023876522,10.39805715904608,36.52902,0,1.33,-1,-1,4,10,-9999,5018.77045575,0.0416412353515625,-0.667572021484375,-0.672821044921875,5018.760460750001,0.3315277976018571,0.0320822551725443,0.6759094896782223,-0.3547568917274475,0.01414478104561567,-0.3356820046901703,-0.005905032157897949,-0.05266129970550537,0.08729296922683716,XArbitraryZVertical,0.3244742827275016,0.06962765802782568,0.1608976171002888,0.9295054903929922,0.02502430230379105,-0.6256070733070374,-0.7797368764877319,0,0,0,-1,-1,5015.698944541667,walking,2,2022-05-05T12:59:39.538+02:00,2022-05-05T12:55:18.700+02:00,133,0.7728162,0.7813913,1.813988,95.6695,0,0,2022-05-05T12:59:42.098+02:00,673441182.097509,0,0.6400003,101.4399,1,0.88
2022-05-05T12:59:42.642+02:00,1651748380.999593,53.2288023876522,10.39805715904608,36.52902,0,1.33,-1,-1,4,10,-9999,5018.78045175,0.0436553955078125,-0.673919677734375,-0.6934356689453125,5018.77045575,0.3275614154773502,0.03439924906383806,0.6722238720952916,-0.3663469552993774,-0.01828319951891899,-0.3285359442234039,-0.0005733165889978409,-0.04629397392272949,0.1093226671218872,XArbitraryZVertical,0.322709948187949,0.06978800318787623,0.1594997136234177,0.9303481957722796,0.02690999768674374,-0.6227275729179382,-0.7819758653640747,0,0,0,-1,-1,5015.698944541667,walking,2,2022-05-05T12:59:39.538+02:00,2022-05-05T12:55:18.700+02:00,133,0.7728162,0.7813913,1.813988,95.6695,0,0,2022-05-05T12:59:42.098+02:00,673441182.097509,0,0.6400003,101.4399,1,0.88
2022-05-05T12:59:42.644+02:00,1651748380.999593,53.2288023876522,10.39805715904608,36.52902,0,1.33,-1,-1,4,10,-9999,5018.79044675,0.0473480224609375,-0.6658782958984375,-0.733306884765625,5018.78045175,0.3235293178903844,0.03651190053000119,0.6685251996073809,-0.3942656219005585,-0.05292573198676109,-0.3381109237670898,0.01299538463354111,-0.04774266481399536,0.111392617225647,XArbitraryZVertical,0.3209581489974362,0.06985001935854079,0.1580311867236879,0.9311998629494473,0.02864586189389229,-0.6198293566703796,-0.784213662147522,0,0,0,-1,-1,5015.698944541667,walking,2,2022-05-05T12:59:39.538+02:00,2022-05-05T12:55:18.700+02:00,133,0.7728162,0.7813913,1.813988,95.6695,0,0,2022-05-05T12:59:42.098+02:00,673441182.097509,0,0.6400003,101.4399,1,0.88
2022-05-05T12:59:42.645+02:00,1651748380.999593,53.2288023876522,10.39805715904608,36.52902,0,1.33,-1,-1,4,10,-9999,5018.800441750001,0.0471343994140625,-0.6465301513671875,-0.7687225341796875,5018.79044675,0.3193156522034342,0.03836984724840801,0.6645462156910177,-0.4283492863178253,-0.09842664003372192,-0.3565008640289307,0.01345819979906082,-0.05721765756607056,0.09318161010742188,XArbitraryZVertical,0.3191017466876411,0.069752507893848,0.1564350440544136,0.9321141479210636,0.03019720688462257,-0.6167019605636597,-0.7866173386573792,0,0,0,-1,-1,5015.698944541667,walking,2,2022-05-05T12:59:39.538+02:00,2022-05-05T12:55:18.700+02:00,133,0.7728162,0.7813913,1.813988,95.6695,0,0,2022-05-05T12:59:42.098+02:00,673441182.097509,0,0.6400003,101.4399,1,0.88
2022-05-05T12:59:42.653+02:00,1651748380.999593,53.2288023876522,10.39805715904608,36.52902,0,1.33,-1,-1,4,10,-9999,5018.81043775,0.0375823974609375,-0.6363525390625,-0.813690185546875,5018.800441750001,0.3148308686979768,0.03988028335429564,0.6598601232772869,-0.4788113832473755,-0.1507281363010406,-0.3869616389274597,0.01584784686565399,-0.0528719425201416,0.05614286661148071,XArbitraryZVertical,0.3169503816755902,0.06940869026650641,0.1546613081636882,0.9331691977387829,0.03150018304586411,-0.6130063533782959,-0.7894497513771057,0,0,0,-1,-1,5015.698944541667,walking,2,2022-05-05T12:59:39.538+02:00,2022-05-05T12:55:18.700+02:00,133,0.7728162,0.7813913,1.813988,95.6695,0,0,2022-05-05T12:59:42.098+02:00,673441182.097509,0,0.6400003,101.4399,1,0.88
2022-05-05T12:59:42.663+02:00,1651748380.999593,53.2288023876522,10.39805715904608,36.52902,0,1.33,-1,-1,4,10,-9999,5018.820432750001,0.02081298828125,-0.63677978515625,-0.8516845703125,5018.81043775,0.3100207650055301,0.04112432703320241,0.6546903869216815,-0.5289714932441711,-0.1850861012935638,-0.4178039729595184,0.01452228426933289,-0.03761649131774902,0.02384328842163086,XArbitraryZVertical,0.3146021589197177,0.06886616372099685,0.1526928260256134,0.9343275644268542,0.03261212632060051,-0.6089136600494385,-0.7925658822059631,0,0,0,-1,-1,5015.698944541667,walking,2,2022-05-05T12:59:39.538+02:00,2022-05-05T12:55:18.700+02:00,133,0.7728162,0.7813913,1.813988,95.6695,0,0,2022-05-05T12:59:42.098+02:00,673441182.097509,0,0.6400003,101.4399,1,0.88
2022-05-05T12:59:42.670+02:00,1651748380.999593,53.2288023876522,10.39805715904608,36.52902,0,1.33,-1,-1,4,10,-9999,5018.83042775,0.00970458984375,-0.6367034912109375,-0.885528564453125,5018.820432750001,0.3049612655138498,0.04227794583864505,0.6489069268468153,-0.5887072682380676,-0.193895623087883,-0.433319479227066,0.0039077028632164,-0.03203666210174561,-0.01765727996826172,XArbitraryZVertical,0.3119785112153884,0.06821255120085976,0.1505936270385226,0.9355950723599871,0.0336747020483017,-0.6043158769607544,-0.7960329055786133,0,0,0,-1,-1,5015.698944541667,walking,2,2022-05-05T12:59:39.538+02:00,2022-05-05T12:55:18.700+02:00,133,0.7728162,0.7813913,1.813988,95.6695,0,0,2022-05-05T12:59:42.098+02:00,673441182.097509,0,0.6400003,101.4399,1,0.88
2022-05-05T12:59:42.681+02:00,1651748380.999593,53.2288023876522,10.39805715904608,36.52902,0,1.33,-1,-1,4,10,-9999,5018.84042375,0.0026397705078125,-0.5892486572265625,-0.89154052734375,5018.83042775,0.2997662115823463,0.04344398191111584,0.6428418228748821,-0.5843290090560913,-0.1962772905826569,-0.4507234990596771,-0.01394843310117722,-0.03730732202529907,-0.05204439163208008,XArbitraryZVertical,0.3092222195253561,0.06753898886131322,0.1484267708592444,0.9369042977376273,0.03476142510771751,-0.5994724631309509,-0.7996401786804199,0,0,0,-1,-1,5015.698944541667,walking,2,2022-05-05T12:59:39.538+02:00,2022-05-05T12:55:18.700+02:00,133,0.7728162,0.7813913,1.813988,95.6695,0,0,2022-05-05T12:59:42.098+02:00,673441182.097509,0,0.6400003,101.4399,1,0.88
2022-05-05T12:59:42.690+02:00,1651748380.999593,53.2288023876522,10.39805715904608,36.52902,0,1.33,-1,-1,4,10,-9999,5018.85041875,-0.02471923828125,-0.5355987548828125,-0.885009765625,5018.84042375,0.2944417760838081,0.04472165413250537,0.6371514110932155,-0.5011544823646545,-0.1880691051483154,-0.4441186785697937,-0.02623040601611137,-0.04179525375366211,-0.08253854513168335,XArbitraryZVertical,0.306633832007548,0.06693802695688604,0.146201162355687,0.9381472063218774,0.03593499958515167,-0.5949081778526306,-0.8029899597167969,0,0,0,-1,-1,5015.698944541667,walking,2,2022-05-05T12:59:39.538+02:00,2022-05-05T12:55:18.700+02:00,133,0.7728162,0.7813913,1.813988,95.6695,0,0,2022-05-05T12:59:42.098+02:00,673441182.097509,0,0.6400003,101.4399,1,0.88
2022-05-05T12:59:42.701+02:00,1651748380.999593,53.2288023876522,10.39805715904608,36.52902,0,1.33,-1,-1,4,10,-9999,5018.860413750001,-0.0474395751953125,-0.534332275390625,-0.87176513671875,5018.85041875,0.2893650474694482,0.04606987596808395,0.6326117584440407,-0.3703746497631073,-0.1296577304601669,-0.4205161333084106,-0.03450179100036621,0.002004504203796387,-0.08591020107269287,XArbitraryZVertical,0.3045700333088473,0.06649741851600333,0.1440790783830585,0.9391786497939935,0.03714157268404961,-0.5912531018257141,-0.8056303858757019,0,0,0,-1,-1,5015.698944541667,walking,2,2022-05-05T12:59:39.538+02:00,2022-05-05T12:55:18.700+02:00,133,0.7728162,0.7813913,1.813988,95.6695,0,0,2022-05-05T12:59:42.098+02:00,673441182.097509,0,0.6400003,101.4399,1,0.88
2022-05-05T12:59:42.710+02:00,1651748380.999593,53.2288023876522,10.39805715904608,36.52902,0,1.33,-1,-1,4,10,-9999,5018.87040975,-0.0314788818359375,-0.55499267578125,-0.8648834228515625,5018.860413750001,0.2843231653979648,0.04833509800570882,0.6293478228489419,-0.2508848607540131,-0.01496416889131069,-0.4230874180793762,-0.06377866864204407,0.05301892757415771,-0.07754236459732056,XArbitraryZVertical,0.3030389455971579,0.06658586081958112,0.1420906768500079,0.9399702642538552,0.03905944153666496,-0.5886176824569702,-0.8074674606323242,0,0,0,-1,-1,5015.698944541667,walking,2,2022-05-05T12:59:39.538+02:00,2022-05-05T12:55:18.700+02:00,133,0.7728162,0.7813913,1.813988,95.6695,0,0,2022-05-05T12:59:42.098+02:00,673441182.097509,0,0.6400003,101.4399,1,0.88
2022-05-05T12:59:42.720+02:00,1651748380.999593,53.2288023876522,10.39805715904608,36.52902,0,1.33,-1,-1,4,10,-9999,5018.880404750001,-0.0090484619140625,-0.579833984375,-0.8563079833984375,5018.87040975,0.2792733023204565,0.05159389923481364,0.6271385820859712,-0.155473917722702,0.06914618611335754,-0.4132694005966187,-0.08919713646173477,0.0524979829788208,-0.06313258409500122,XArbitraryZVertical,0.3019368287178555,0.06721512376061516,0.1402313807453253,0.9405591693233099,0.04175756499171257,-0.5868302583694458,-0.8086325526237488,0,0,0,-1,-1,5015.698944541667,walking,2,2022-05-05T12:59:39.538+02:00,2022-05-05T12:55:18.700+02:00,133,0.7728162,0.7813913,1.813988,95.6695,0,0,2022-05-05T12:59:42.098+02:00,673441182.097509,0,0.6400003,101.4399,1,0.88
2022-05-05T12:59:42.730+02:00,1651748380.999593,53.2288023876522,10.39805715904608,36.52902,0,1.33,-1,-1,4,10,-9999,5018.89040075,-0.003021240234375,-0.608428955078125,-0.8592987060546875,5018.880404750001,0.2743440286261002,0.05543589616681755,0.6257335985410887,-0.08646023273468018,0.1198061630129814,-0.3993970155715942,-0.07638853043317795,0.03069937229156494,-0.05559486150741577,XArbitraryZVertical,0.301173462905995,0.0681926832077759,0.1385041306609905,0.940989446296491,0.04490965232253075,-0.5856920480728149,-0.8092886209487915,0,0,0,-1,-1,5015.698944541667,walking,2,2022-05-05T12:59:39.538+02:00,2022-05-05T12:55:18.700+02:00,133,0.7728162,0.7813913,1.813988,95.6695,0,0,2022-05-05T12:59:42.098+02:00,673441182.097509,0,0.6400003,101.4399,1,0.88
2022-05-05T12:59:42.740+02:00,1651748380.999593,53.2288023876522,10.39805715904608,36.52902,0,1.33,-1,-1,4,10,-9999,5018.90039575,0.009246826171875,-0.617828369140625,-0.85614013671875,5018.89040075,0.2694496111516128,0.05966331755501481,0.6248589627100021,-0.04726036638021469,0.152912974357605,-0.4086829125881195,-0.05740943178534508,0.005148947238922119,-0.04670542478561401,XArbitraryZVertical,0.3006381962512138,0.06939310117586352,0.1368433303384265,0.9413157276814648,0.04836096987128258,-0.5849828720092773,-0.8096025586128235,0,0,0,-1,-1,5015.698944541667,walking,2,2022-05-05T12:59:39.538+02:00,2022-05-05T12:55:18.700+02:00,133,0.7728162,0.7813913,1.813988,95.6695,0,0,2022-05-05T12:59:42.098+02:00,673441182.097509,0,0.6400003,101.4399,1,0.88
2022-05-05T12:59:42.750+02:00,1651748380.999593,53.2288023876522,10.39805715904608,36.52902,0,1.33,-1,-1,4,10,-9999,5018.91039075,0.0193634033203125,-0.623565673828125,-0.8727569580078125,5018.90039575,0.2644209135743526,0.06422129405807463,0.6240890199003924,-0.05821371823549271,0.1658425629138947,-0.4109316170215607,-0.05510072410106659,-0.02407068014144897,-0.04947578907012939,XArbitraryZVertical,0.3001410029735068,0.07073831246172788,0.1351652246532611,0.9416166628465549,0.05207949504256248,-0.584358274936676,-0.8098229169845581,0,0,0,-1,-1,5015.698944541667,walking,2,2022-05-05T12:59:39.538+02:00,2022-05-05T12:55:18.700+02:00,133,0.7728162,0.7813913,1.813988,95.6695,0,0,2022-05-05T12:59:42.098+02:00,673441182.097509,0,0.6400003,101.4399,1,0.88
2022-05-05T12:59:42.760+02:00,1651748380.999593,53.2288023876522,10.39805715904608,36.52902,0,1.33,-1,-1,4,10,-9999,5018.92038675,0.0211029052734375,-0.62432861328125,-0.8818206787109375,5018.91039075,0.2594911601696022,0.06877319014638772,0.6229841772142823,-0.1163446605205536,0.1679549813270569,-0.4033674299716949,-0.04656266421079636,-0.03436702489852905,-0.04591906070709229,XArbitraryZVertical,0.2994895226012764,0.07207972142760655,0.1335309948287303,0.9419554457378496,0.05580950528383255,-0.5834613442420959,-0.8102210760116577,0,0,0,-1,-1,5015.698944541667,walking,2,2022-05-05T12:59:39.538+02:00,2022-05-05T12:55:18.700+02:00,133,0.7728162,0.7813913,1.813988,95.6695,0,0,2022-05-05T12:59:42.098+02:00,673441182.097509,0,0.6400003,101.4399,1,0.88
2022-05-05T12:59:42.770+02:00,1651748380.999593,53.2288023876522,10.39805715904608,36.52902,0,1.33,-1,-1,4,10,-9999,5018.93038175,0.024017333984375,-0.61297607421875,-0.8812408447265625,5018.92038675,0.2546389180297581,0.07329891108596094,0.6212221714218938,-0.1746452450752258,0.1722317487001419,-0.4113273620605469,-0.0401875376701355,-0.04153621196746826,-0.06177270412445068,XArbitraryZVertical,0.2985331069476115,0.07338833177791479,0.131926787744239,0.9423840078369974,0.05955095216631889,-0.582029402256012,-0.8109842538833618,0,0,0,-1,-1,5015.698944541667,walking,2,2022-05-05T12:59:39.538+02:00,2022-05-05T12:55:18.700+02:00,133,0.7728162,0.7813913,1.813988,95.6695,0,0,2022-05-05T12:59:42.098+02:00,673441182.097509,0,0.6400003,101.4399,1,0.88
2022-05-05T12:59:42.780+02:00,1651748380.999593,53.2288023876522,10.39805715904608,36.52902,0,1.33,-1,-1,4,10,-9999,5018.94037775,0.026153564453125,-0.5871429443359375,-0.871795654296875,5018.93038175,0.249713777016536,0.07788557834992788,0.6189781708514551,-0.2119590640068054,0.174052819609642,-0.425281286239624,-0.04226857423782349,-0.04412543773651123,-0.06981801986694336,XArbitraryZVertical,0.2973538681102083,0.07469495712992198,0.1302917311779769,0.9428815330811106,0.06337149441242218,-0.5802032351493835,-0.8120026588439941,0,0,0,-1,-1,5015.698944541667,walking,2,2022-05-05T12:59:39.538+02:00,2022-05-05T12:55:18.700+02:00,133,0.7728162,0.7813913,1.813988,95.6695,0,0,2022-05-05T12:59:42.098+02:00,673441182.097509,0,0.6400003,101.4399,1,0.88
2022-05-05T12:59:42.790+02:00,1651748380.999593,53.2288023876522,10.39805715904608,36.52902,0,1.33,-1,-1,4,10,-9999,5018.95037275,0.0217437744140625,-0.5722198486328125,-0.8599395751953125,5018.94037775,0.2446258618850683,0.08261615672919158,0.6164532115746103,-0.2229950726032257,0.1825059652328491,-0.4446893334388733,-0.0433153435587883,-0.03483116626739502,-0.06808966398239136,XArbitraryZVertical,0.2960449312208166,0.07603813141854557,0.1285935678604431,0.9434190035759523,0.0673326849937439,-0.5781448483467102,-0.8131511807441711,0,0,0,-1,-1,5015.698944541667,walking,2,2022-05-05T12:59:39.538+02:00,2022-05-05T12:55:18.700+02:00,133,0.7728162,0.7813913,1.813988,95.6695,0,0,2022-05-05T12:59:42.098+02:00,673441182.097509,0,0.6400003,101.4399,1,0.88
2022-05-05T12:59:42.800+02:00,1651748380.999593,53.2288023876522,10.39805715904608,36.52902,0,1.33,-1,-1,4,10,-9999,5018.96036775,0.0269012451171875,-0.5592041015625,-0.85235595703125,5018.95037275,0.2393711164128812,0.08752897095050254,0.6138815436369335,-0.2111509442329407,0.195056363940239,-0.4528697431087494,-0.04530289024114609,-0.01109826564788818,-0.05750662088394165,XArbitraryZVertical,0.2947154390580502,0.07744880047519007,0.1268349435065535,0.9439583644784989,0.07145645469427109,-0.5760446190834045,-0.8142889738082886,0,0,0,-1,-1,5015.698944541667,walking,2,2022-05-05T12:59:39.538+02:00,2022-05-05T12:55:18.700+02:00,133,0.7728162,0.7813913,1.813988,95.6695,0,0,2022-05-05T12:59:42.098+02:00,673441182.097509,0,0.6400003,101.4399,1,0.88
2022-05-05T12:59:42.810+02:00,1651748380.999593,53.2288023876522,10.39805715904608,36.52902,0,1.33,-1,-1,4,10,-9999,5018.970363750001,0.039794921875,-0.5456085205078125,-0.8419189453125,5018.96036775,0.2340499769118031,0.09261468797664449,0.6115625407216863,-0.17305688560009,0.2167082726955414,-0.457457959651947,-0.05397631227970123,0.001927673816680908,-0.04469656944274902,XArbitraryZVertical,0.2935046879514991,0.07895249896283195,0.1250625226612526,0.9444474296735217,0.07572009414434433,-0.5741475224494934,-0.8152430057525635,0,0,0,-1,-1,5015.698944541667,walking,2,2022-05-05T12:59:39.538+02:00,2022-05-05T12:55:18.700+02:00,133,0.7728162,0.7813913,1.813988,95.6695,0,0,2022-05-05T12:59:42.098+02:00,673441182.097509,0,0.6400003,101.4399,1,0.88
2022-05-05T12:59:42.820+02:00,1651748380.999593,53.2288023876522,10.39805715904608,36.52902,0,1.33,-1,-1,4,10,-9999,5018.98035875,0.0538787841796875,-0.5594940185546875,-0.8327178955078125,5018.970363750001,0.2287314758913378,0.09802287792965905,0.6096095090094056,-0.1346445083618164,0.2541637718677521,-0.4471579194068909,-0.05333629250526428,0.01334333419799805,-0.03641998767852783,XArbitraryZVertical,0.292455346437372,0.08063433016431361,0.1233324708576049,0.9448582418615089,0.08023754507303238,-0.5725473761558533,-0.8159359693527222,0,0,0,-1,-1,5015.698944541667,walking,2,2022-05-05T12:59:39.538+02:00,2022-05-05T12:55:18.700+02:00,133,0.7728162,0.7813913,1.813988,95.6695,0,0,2022-05-05T12:59:42.098+02:00,673441182.097509,0,0.6400003,101.4399,1,0.88
2022-05-05T12:59:42.830+02:00,1651748380.999593,53.2288023876522,10.39805715904608,36.52902,0,1.33,-1,-1,4,10,-9999,5018.99035375,0.071868896484375,-0.58544921875,-0.8248748779296875,5018.98035875,0.2234596574146411,0.1036479253204271,0.6080455178824911,-0.09184301644563675,0.266220360994339,-0.4448180198669434,-0.04512354731559753,0.02565592527389526,-0.02555757761001587,XArbitraryZVertical,0.2915841097415054,0.08245018804191301,0.121651837824939,0.9451885876605444,0.08491846919059753,-0.571264386177063,-0.8163613677024841,0,0,0,-1,-1,5015.698944541667,walking,2,2022-05-05T12:59:39.538+02:00,2022-05-05T12:55:18.700+02:00,133,0.7728162,0.7813913,1.813988,95.6695,0,0,2022-05-05T12:59:42.098+02:00,673441182.097509,0,0.6400003,101.4399,1,0.88
2022-05-05T12:59:42.841+02:00,1651748380.999593,53.2288023876522,10.39805715904608,36.52902,0,1.33,-1,-1,4,10,-9999,5019.000348791667,0.07513427734375,-0.606231689453125,-0.8271484375,5018.99035375,0.2182009522834268,0.1092483627379331,0.6066901598633745,-0.09093594551086426,0.255052924156189,-0.4462758302688599,-0.03569463640451431,0.01065742969512939,-0.01607602834701538,XArbitraryZVertical,0.2908219647647671,0.08427120361878104,0.1199697455447576,0.9454778183464584,0.08957343548536301,-0.5701514482498169,-0.8166419267654419,0,0,0,-1,-1,5015.698944541667,walking,2,2022-05-05T12:59:39.538+02:00,2022-05-05T12:55:18.700+02:00,133,0.7728162,0.7813913,1.813988,95.6695,0,0,2022-05-05T12:59:42.098+02:00,673441182.097509,0,0.6400003,101.4399,1,0.88
2022-05-05T12:59:42.850+02:00,1651748380.999593,53.2288023876522,10.39805715904608,36.52902,0,1.33,-1,-1,4,10,-9999,5019.010343791667,0.0649261474609375,-0.6115570068359375,-0.829437255859375,5019.000348791667,0.212878803976647,0.1146776122236803,0.6050995363963717,-0.1265431791543961,0.2275489270687103,-0.460780531167984,-0.02224058657884598,-0.01660525798797607,-0.007831454277038574,XArbitraryZVertical,0.2899702757748857,0.085997181953751,0.1182248950856553,0.9458037125391558,0.09410949796438217,-0.5688439607620239,-0.8170434236526489,0,0,0,-1,-1,5015.698944541667,walking,2,2022-05-05T12:59:39.538+02:00,2022-05-05T12:55:18.700+02:00,133,0.7728162,0.7813913,1.813988,95.6695,0,0,2022-05-05T12:59:42.098+02:00,673441182.097509,0,0.6400003,101.4399,1,0.88
2022-05-05T12:59:42.860+02:00,1651748380.999593,53.2288023876522,10.39805715904608,36.52902,0,1.33,-1,-1,4,10,-9999,5019.020339791667,0.052703857421875,-0.5963134765625,-0.8204193115234375,5019.010343791667,0.2074093976322264,0.1199419020136598,0.6031176824339272,-0.1576102823019028,0.2045485377311707,-0.4836418926715851,-0.02340973913669586,-0.03901880979537964,-0.00949406623840332,XArbitraryZVertical,0.2889578604408228,0.08761372417148205,0.1163754815184491,0.946194507255474,0.09854403138160706,-0.5672128796577454,-0.8176543712615967,0,0,0,-1,-1,5015.698944541667,walking,2,2022-05-05T12:59:39.538+02:00,2022-05-05T12:55:18.700+02:00,133,0.7728162,0.7813913,1.813988,95.6695,0,0,2022-05-05T12:59:42.098+02:00,673441182.097509,0,0.6400003,101.4399,1,0.88
2022-05-05T12:59:42.870+02:00,1651748380.999593,53.2288023876522,10.39805715904608,36.52902,0,1.33,-1,-1,4,10,-9999,5019.030334791667,0.0378570556640625,-0.599609375,-0.8083648681640625,5019.020339791667,0.2017296886567144,0.1252146184157378,0.6007912751489266,-0.1913247853517532,0.2096520364284515,-0.5070754289627075,-0.03809227049350739,-0.04626160860061646,-0.01100683212280273,XArbitraryZVertical,0.287799510633473,0.08919766428208348,0.1144155210301206,0.9466384575432449,0.1030184179544449,-0.5652953386306763,-0.8184304237365723,0,0,0,-1,-1,5015.698944541667,walking,2,2022-05-05T12:59:39.538+02:00,2022-05-05T12:55:18.700+02:00,133,0.7728162,0.7813913,1.813988,95.6695,0,0,2022-05-05T12:59:42.098+02:00,673441182.097509,0,0.6400003,101.4399,1,0.88
2022-05-05T12:59:42.880+02:00,1651748380.999593,53.2288023876522,10.39805715904608,36.52902,0,1.33,-1,-1,4,10,-9999,5019.040329791667,0.030548095703125,-0.61175537109375,-0.7967987060546875,5019.030334791667,0.1958131351574863,0.1307404372664292,0.5980249783851311,-0.2354632169008255,0.2261026501655579,-0.5374956130981445,-0.05503891408443451,-0.03330212831497192,-0.001023352146148682,XArbitraryZVertical,0.2864376891786372,0.09085959665498471,0.112363994394354,0.9471390176694939,0.1077427715063095,-0.5630112886428833,-0.8193959593772888,0,0,0,-1,-1,5015.698944541667,walking,2,2022-05-05T12:59:39.538+02:00,2022-05-05T12:55:18.700+02:00,133,0.7728162,0.7813913,1.813988,95.6695,0,0,2022-05-05T12:59:42.098+02:00,673441182.097509,0,0.6400003,101.4399,1,0.88
2022-05-05T12:59:42.890+02:00,1651748380.999593,53.2288023876522,10.39805715904608,36.52902,0,1.33,-1,-1,4,10,-9999,5019.050325791667,0.018951416015625,-0.61590576171875,-0.784698486328125,5019.040329791667,0.1895581203262387,0.1365850356275828,0.5945797958790924,-0.3110120892524719,0.2401206493377686,-0.5835831761360168,-0.07493631541728973,-0.03944861888885498,0.01230412721633911,XArbitraryZVertical,0.284760883009727,0.09261068027277325,0.1101746021778686,0.9477320378317673,0.1127933859825134,-0.5601606965065002,-0.8206689953804016,0,0,0,-1,-1,5015.698944541667,walking,2,2022-05-05T12:59:39.538+02:00,2022-05-05T12:55:18.700+02:00,133,0.7728162,0.7813913,1.813988,95.6695,0,0,2022-05-05T12:59:42.098+02:00,673441182.097509,0,0.6400003,101.4399,1,0.88
2022-05-05T12:59:42.900+02:00,1651748380.999593,53.2288023876522,10.39805715904608,36.52902,0,1.33,-1,-1,4,10,-9999,5019.060320791667,0.0099945068359375,-0.6065521240234375,-0.774993896484375,5019.050325791667,0.1828705648278798,0.142853319240303,0.590170870255347,-0.407948762178421,0.2664340138435364,-0.6409819722175598,-0.08773767948150635,-0.0552523136138916,0.02558374404907227,XArbitraryZVertical,0.2826336579976098,0.09448267780168364,0.1078066451246002,0.9484561757473511,0.1182857826352119,-0.5565029978752136,-0.8223824501037598,0,0,0,-1,-1,5015.698944541667,walking,2,2022-05-05T12:59:39.538+02:00,2022-05-05T12:55:18.700+02:00,133,0.7728162,0.7813913,1.813988,95.6695,0,0,2022-05-05T12:59:42.098+02:00,673441182.097509,0,0.6400003,101.4399,1,0.88
2022-05-05T12:59:42.910+02:00,1651748380.999593,53.2288023876522,10.39805715904608,36.52902,0,1.33,-1,-1,4,10,-9999,5019.070315791667,0.0022735595703125,-0.5970916748046875,-0.76617431640625,5019.060320791667,0.1757174886571055,0.1496088923326542,0.584758713929608,-0.4915928244590759,0.2919139862060547,-0.6968824863433838,-0.1053343936800957,-0.06390750408172607,0.03983235359191895,XArbitraryZVertical,0.2800373510802624,0.09650733025417459,0.1052447070350661,0.9493098504453373,0.1242858171463013,-0.5519981980323792,-0.8245308399200439,0,0,0,-1,-1,5015.698944541667,walking,2,2022-05-05T12:59:39.538+02:00,2022-05-05T12:55:18.700+02:00,133,0.7728162,0.7813913,1.813988,95.6695,0,0,2022-05-05T12:59:42.098+02:00,673441182.097509,0,0.6400003,101.4399,1,0.88
2022-05-05T12:59:42.920+02:00,1651748380.999593,53.2288023876522,10.39805715904608,36.52902,0,1.33,-1,-1,4,10,-9999,5019.080311791667,-0.006744384765625,-0.604248046875,-0.749603271484375,5019.070315791667,0.1681310855041323,0.156814577984765,0.5782675430568386,-0.600970983505249,0.3214623034000397,-0.7603498697280884,-0.1207861602306366,-0.05997812747955322,0.05214166641235352,XArbitraryZVertical,0.2769384393690995,0.09867775976398696,0.1024878329889032,0.9502968263348596,0.1307806819677353,-0.5465739965438843,-0.8271356225013733,0,0,0,-1,-1,5015.698944541667,walking,2,2022-05-05T12:59:39.538+02:00,2022-05-05T12:55:18.700+02:00,133,0.7728162,0.7813913,1.813988,95.6695,0,0,2022-05-05T12:59:42.098+02:00,673441182.097509,0,0.6400003,101.4399,1,0.88
2022-05-05T12:59:42.930+02:00,1651748380.999593,53.2288023876522,10.39805715904608,36.52902,0,1.33,-1,-1,4,10,-9999,5019.090306791667,0.0067291259765625,-0.607879638671875,-0.7607269287109375,5019.080311791667,0.1600965329740405,0.1646043560454717,0.570436445457118,-0.7322618365287781,0.3654140532016754,-0.8211641907691956,-0.1356434524059296,-0.05709218978881836,0.06411445140838623,XArbitraryZVertical,0.2732084202711399,0.1010581770926947,0.09952950028089964,0.9514401147223688,0.1379170119762421,-0.5399994254112244,-0.830288827419281,0,0,0,-1,-1,5015.698944541667,walking,2,2022-05-05T12:59:39.538+02:00,2022-05-05T12:55:18.700+02:00,133,0.7728162,0.7813913,1.813988,95.6695,0,0,2022-05-05T12:59:42.098+02:00,673441182.097509,0,0.6400003,101.4399,1,0.88
2022-05-05T12:59:42.940+02:00,1651748380.999593,53.2288023876522,10.39805715904608,36.52902,0,1.33,-1,-1,4,10,-9999,5019.100302791667,0.0361175537109375,-0.579498291015625,-0.7677154541015625,5019.090306791667,0.1518416665690946,0.1728760165902177,0.5612159585696304,-0.8510007858276367,0.3979118168354034,-0.860418975353241,-0.1523747891187668,-0.07203197479248047,0.08438593149185181,XArbitraryZVertical,0.2688193141609974,0.1036417276621317,0.09644866636039483,0.9527288261633511,0.1456303894519806,-0.5322160124778748,-0.833989143371582,0,0,0,-1,-1,5015.698944541667,walking,2,2022-05-05T12:59:39.538+02:00,2022-05-05T12:55:18.700+02:00,133,0.7728162,0.7813913,1.813988,95.6695,0,0,2022-05-05T12:59:42.098+02:00,673441182.097509,0,0.6400003,101.4399,1,0.88
2022-05-05T12:59:42.950+02:00,1651748380.999593,53.2288023876522,10.39805715904608,36.52902,0,1.33,-1,-1,4,10,-9999,5019.110297791667,0.049896240234375,-0.555389404296875,-0.7744140625,5019.100302791667,0.1435291967447269,0.181282048822332,0.5507513482966321,-0.9628260135650635,0.4087146520614624,-0.9028526544570923,-0.1469023078680038,-0.08455199003219604,0.07744109630584717,XArbitraryZVertical,0.2638494331219159,0.1062989640602906,0.09326717730490114,0.9541411735642188,0.1536314487457275,-0.523327648639679,-0.8381680250167847,0,0,0,-1,-1,5015.698944541667,walking,2,2022-05-05T12:59:39.538+02:00,2022-05-05T12:55:18.700+02:00,133,0.7728162,0.7813913,1.813988,95.6695,0,0,2022-05-05T12:59:42.098+02:00,673441182.097509,0,0.6400003,101.4399,1,0.88
2022-05-05T12:59:42.961+02:00,1651748380.999593,53.2288023876522,10.39805715904608,36.52902,0,1.33,-1,-1,4,10,-9999,5019.120292791667,0.0574951171875,-0.53271484375,-0.79180908203125,5019.110297791667,0.1350700233062582,0.1897189319093167,0.5391112408245883,-1.050529360771179,0.4033686220645905,-0.9499887228012085,-0.1257177144289017,-0.06612473726272583,0.07505202293395996,XArbitraryZVertical,0.2583404814969501,0.1089791574637548,0.08992036719685041,0.9556663316253302,0.1618352830410004,-0.5133734941482544,-0.8427674770355225,0,0,0,-1,-1,5015.698944541667,walking,2,2022-05-05T12:59:39.538+02:00,2022-05-05T12:55:18.700+02:00,133,0.7728162,0.7813913,1.813988,95.6695,0,0,2022-05-05T12:59:42.098+02:00,673441182.097509,0,0.6400003,101.4399,1,0.88
2022-05-05T12:59:42.971+02:00,1651748380.999593,53.2288023876522,10.39805715904608,36.52902,0,1.33,-1,-1,4,10,-9999,5019.130288791667,0.0597686767578125,-0.4780731201171875,-0.7852783203125,5019.120292791667,0.1263151640968097,0.1981120243437025,0.5268729418944105,-1.053587675094604,0.3854420781135559,-1.005395531654358,-0.120230570435524,-0.05255657434463501,0.07306218147277832,XArbitraryZVertical,0.2525804357879933,0.1116466936188037,0.08634011746836064,0.957227045893399,0.1701268255710602,-0.50283282995224,-0.8474763035774231,0,0,0,-1,-1,5015.698944541667,walking,2,2022-05-05T12:59:39.538+02:00,2022-05-05T12:55:18.700+02:00,133,0.7728162,0.7813913,1.813988,95.6695,0,0,2022-05-05T12:59:42.098+02:00,673441182.097509,0,0.6400003,101.4399,1,0.88
2022-05-05T12:59:42.981+02:00,1651748380.999593,53.2288023876522,10.39805715904608,36.52902,0,1.33,-1,-1,4,10,-9999,5019.140283791667,0.0584564208984375,-0.454925537109375,-0.7920989990234375,5019.130288791667,0.1170922967767556,0.2065687397461007,0.5146176511268414,-1.025753617286682,0.3945213258266449,-1.052658438682556,-0.1210429668426514,-0.04051277041435242,0.06016582250595093,XArbitraryZVertical,0.24685496486072,0.1143466445650671,0.08247684763390332,0.9587414138198822,0.1785380840301514,-0.4922020435333252,-0.8519749641418457,0,0,0,-1,-1,5015.698944541667,walking,2,2022-05-05T12:59:39.538+02:00,2022-05-05T12:55:18.700+02:00,133,0.7728162,0.7813913,1.813988,95.6695,0,0,2022-05-05T12:59:42.098+02:00,673441182.097509,0,0.6400003,101.4399,1,0.88
2022-05-05T12:59:42.991+02:00,1651748380.999593,53.2288023876522,10.39805715904608,36.52902,0,1.33,-1,-1,4,10,-9999,5019.150278791667,0.08392333984375,-0.45184326171875,-0.7947845458984375,5019.140283791667,0.1076158636440703,0.2153120666986958,0.5026425188017033,-0.9658281207084656,0.4375192224979401,-1.06492555141449,-0.1274575293064117,0.003669798374176025,0.0708000659942627,XArbitraryZVertical,0.2412891223574189,0.1172193241432354,0.07847276734089009,0.9601465586281274,0.1872262060642242,-0.4817428886890411,-0.8560783863067627,0,0,0,-1,-1,5015.698944541667,walking,2,2022-05-05T12:59:39.538+02:00,2022-05-05T12:55:18.700+02:00,133,0.7728162,0.7813913,1.813988,95.6695,0,0,2022-05-05T12:59:42.098+02:00,673441182.097509,0,0.6400003,101.4399,1,0.88
2022-05-05T12:59:43.001+02:00,1651748380.999593,53.2288023876522,10.39805715904608,36.52902,0,1.33,-1,-1,4,10,-9999,5019.160274791667,0.1108856201171875,-0.4589385986328125,-0.797760009765625,5019.150278791667,0.09810830281728905,0.2243529881989321,0.4911900960596078,-0.9133902192115784,0.4664267599582672,-1.062306880950928,-0.1377163529396057,0.01675009727478027,0.06757438182830811,XArbitraryZVertical,0.2359905168530112,0.1202987183739192,0.07444812093484753,0.9614021666730219,0.1961727887392044,-0.4716756045818329,-0.8596733808517456,0,0,0,-1,-1,5015.698944541667,walking,2,2022-05-05T12:59:39.538+02:00,2022-05-05T12:55:18.700+02:00,133,0.7728162,0.7813913,1.813988,95.6695,0,0,2022-05-05T12:59:42.098+02:00,673441182.097509,0,0.6400003,101.4399,1,0.88
2022-05-05T12:59:43.013+02:00,1651748380.999593,53.2288023876522,10.39805715904608,36.52902,0,1.33,-1,-1,4,10,-9999,5019.170269791667,0.1269683837890625,-0.470733642578125,-0.782958984375,5019.160274791667,0.08867082199945071,0.233484504725238,0.4798435282825116,-0.9360463619232178,0.4777793288230896,-1.078514695167542,-0.1213164031505585,0.009797155857086182,0.06821304559707642,XArbitraryZVertical,0.2307627570569256,0.1234898992634208,0.07040924304781571,0.9625702285619469,0.2052397429943085,-0.4616403877735138,-0.8629975914955139,0,0,0,-1,-1,5015.698944541667,walking,2,2022-05-05T12:59:39.538+02:00,2022-05-05T12:55:18.700+02:00,133,0.7728162,0.7813913,1.813988,95.6695,0,0,2022-05-05T12:59:42.098+02:00,673441182.097509,0,0.6400003,101.4399,1,0.88
2022-05-05T12:59:43.022+02:00,1651748380.999593,53.2288023876522,10.39805715904608,36.52902,0,1.33,-1,-1,4,10,-9999,5019.180265791667,0.1470794677734375,-0.48297119140625,-0.780975341796875,5019.170269791667,0.07961773005084337,0.2424794955919208,0.4675784614951202,-1.076842069625854,0.4978609085083008,-1.065330147743225,-0.1034518182277679,-0.00821259617805481,0.06878805160522461,XArbitraryZVertical,0.2251001805655536,0.1267117563561165,0.06642754519145426,0.9637746397811887,0.2143374532461166,-0.4507260024547577,-0.8665480613708496,0,0,0,-1,-1,5015.698944541667,walking,2,2022-05-05T12:59:39.538+02:00,2022-05-05T12:55:18.700+02:00,133,0.7728162,0.7813913,1.813988,95.6695,0,0,2022-05-05T12:59:42.098+02:00,673441182.097509,0,0.6400003,101.4399,1,0.88
2022-05-05T12:59:43.031+02:00,1651748380.999593,53.2288023876522,10.39805715904608,36.52902,0,1.33,-1,-1,4,10,-9999,5019.190260791667,0.1791534423828125,-0.4544525146484375,-0.7724609375,5019.180265791667,0.07135499359270825,0.251289350043967,0.4535557849846881,-1.297282695770264,0.5320053696632385,-1.061207890510559,-0.09654451906681061,-0.03256899118423462,0.0877038836479187,XArbitraryZVertical,0.2185692298862865,0.1299848521135562,0.06264027631352365,0.9650946750375007,0.2235129028558731,-0.4381645619869232,-0.8706628680229187,0,0,0,-1,-1,5015.698944541667,walking,2,2022-05-05T12:59:39.538+02:00,2022-05-05T12:55:18.700+02:00,133,0.7728162,0.7813913,1.813988,95.6695,0,0,2022-05-05T12:59:42.098+02:00,673441182.097509,0,0.6400003,101.4399,1,0.88
2022-05-05T12:59:43.041+02:00,1651748380.999593,53.2288023876522,10.39805715904608,36.52902,0,1.33,-1,-1,4,10,-9999,5019.200255791667,0.21331787109375,-0.431793212890625,-0.752593994140625,5019.190260791667,0.06411910977995748,0.2600103663892274,0.4368691783316139,-1.613121390342712,0.5920609831809998,-1.042646169662476,-0.0858653336763382,-0.05986639857292175,0.09464961290359497,XArbitraryZVertical,0.210705826737608,0.1333812853092053,0.05910692696785516,0.9666017702793692,0.2329448312520981,-0.4231047630310059,-0.87562495470047,0,0,0,-1,-1,5015.698944541667,walking,2,2022-05-05T12:59:39.538+02:00,2022-05-05T12:55:18.700+02:00,133,0.7728162,0.7813913,1.813988,95.6695,0,0,2022-05-05T12:59:42.098+02:00,673441182.097509,0,0.6400003,101.4399,1,0.88
2022-05-05T12:59:43.050+02:00,1651748380.999593,53.2288023876522,10.39805715904608,36.52902,0,1.33,-1,-1,4,10,-9999,5019.210251791667,0.2534942626953125,-0.397918701171875,-0.7504730224609375,5019.200255791667,0.05842506905230673,0.2686540807549135,0.4169676121083364,-1.96221935749054,0.6611955761909485,-0.9953213334083557,-0.06353852152824402,-0.04946273565292358,0.109062671661377,XArbitraryZVertical,0.2011977634169324,0.136958537572106,0.05602568983364515,0.9683093464682169,0.2426919788122177,-0.4049897491931915,-0.881523609161377,0,0,0,-1,-1,5015.698944541667,walking,2,2022-05-05T12:59:39.538+02:00,2022-05-05T12:55:18.700+02:00,133,0.7728162,0.7813913,1.813988,95.6695,0,0,2022-05-05T12:59:42.098+02:00,673441182.097509,0,0.6400003,101.4399,1,0.88
2022-05-05T12:59:43.060+02:00,1651748380.999593,53.2288023876522,10.39805715904608,36.52902,0,1.33,-1,-1,4,10,-9999,5019.220246791667,0.2922210693359375,-0.3382720947265625,-0.735565185546875,5019.210251791667,0.05463416996020534,0.2771258051704891,0.393765950732153,-2.319664239883423,0.7200524806976318,-0.9267558455467224,-0.03933656215667725,-0.04812431335449219,0.135642409324646,XArbitraryZVertical,0.1899666460491771,0.140692775158247,0.05353731901691998,0.9701814832945771,0.2526544332504272,-0.3836688697338104,-0.888236403465271,0,0,0,-1,-1,5015.698944541667,walking,2,2022-05-05T12:59:39.538+02:00,2022-05-05T12:55:18.700+02:00,133,0.7728162,0.7813913,1.813988,95.6695,0,0,2022-05-05T12:59:42.098+02:00,673441182.097509,0,0.6400003,101.4399,1,0.88
2022-05-05T12:59:43.070+02:00,1651748380.999593,53.2288023876522,10.39805715904608,36.52902,0,1.33,-1,-1,4,10,-9999,5019.230242791667,0.317535400390625,-0.243194580078125,-0.71258544921875,5019.220246791667,0.05298997464159121,0.285086019411503,0.3673144071640299,-2.686609029769897,0.7609912157058716,-0.8391948342323303,-0.008985668420791626,-0.03880837559700012,0.1451519727706909,XArbitraryZVertical,0.1770106527715812,0.1444116854889173,0.05171714381287456,0.9721820525315488,0.2624799311161041,-0.3591102659702301,-0.8956249952316284,0,0,0,-1,-1,5015.698944541667,walking,2,2022-05-05T12:59:39.538+02:00,2022-05-05T12:55:18.700+02:00,133,0.7728162,0.7813913,1.813988,95.6695,0,0,2022-05-05T12:59:42.098+02:00,673441182.097509,0,0.6400003,101.4399,1,0.88
2022-05-05T12:59:43.080+02:00,1651748380.999593,53.2288023876522,10.39805715904608,36.52902,0,1.33,-1,-1,4,10,-9999,5019.240237791667,0.3604583740234375,-0.119232177734375,-0.7183990478515625,5019.230242791667,0.05361804502222708,0.2924731360598032,0.3376869795968337,-3.033501625061035,0.7667484283447266,-0.7305461168289185,0.02018320560455322,-0.006966441869735718,0.1678904294967651,XArbitraryZVertical,0.1623385436621936,0.1480485921971532,0.05062022088817358,0.9742513367630532,0.2720378637313843,-0.331305593252182,-0.9034556150436401,0,0,0,-1,-1,5015.698944541667,walking,2,2022-05-05T12:59:39.538+02:00,2022-05-05T12:55:18.700+02:00,133,0.7728162,0.7813913,1.813988,95.6695,0,0,2022-05-05T12:59:42.098+02:00,673441182.097509,0,0.6400003,101.4399,1,0.88
2022-05-05T12:59:43.098+02:00,1651748380.999593,53.2288023876522,10.39805715904608,36.52902,0,1.33,-1,-1,4,10,-9999,5019.250232791667,0.37384033203125,-0.0181732177734375,-0.75372314453125,5019.240237791667,0.05680708451080363,0.2990110723278271,0.3053382740785814,-3.323569059371948,0.7516766786575317,-0.572726309299469,0.03658556938171387,0.05742129683494568,0.1988405585289001,XArbitraryZVertical,0.1461387484162093,0.1514281020715028,0.05039885175051405,0.976305798014285,0.2809498310089111,-0.3006158173084259,-0.9114260077476501,0,0,0,-1,-1,5015.698944541667,walking,2,2022-05-05T12:59:39.538+02:00,2022-05-05T12:55:18.700+02:00,133,0.7728162,0.7813913,1.813988,95.6695,0,0,2022-05-05T12:59:42.098+02:00,673441182.097509,0,0.6400003,101.4399,1,0.88
2022-05-05T12:59:43.100+02:00,1651748380.999593,53.2288023876522,10.39805715904608,36.52902,0,1.33,-1,-1,4,10,-9999,5019.260228791667,0.3695526123046875,0.04876708984375,-0.7920989990234375,5019.250232791667,0.06263628382239873,0.3052625134294754,0.2711995718300689,-3.521498918533325,0.8363556265830994,-0.393559992313385,0.0708996057510376,0.1486552655696869,0.2005090713500977,XArbitraryZVertical,0.1288303855722294,0.1547536157755643,0.05120818738558319,0.9781778246255615,0.2895587682723999,-0.2678873538970947,-0.9189081192016602,0,0,0,-1,-1,5015.698944541667,walking,2,2022-05-05T12:59:39.538+02:00,2022-05-05T12:55:18.700+02:00,133,0.7728162,0.7813913,1.813988,95.6695,0,0,2022-05-05T12:59:42.098+02:00,673441182.097509,0,0.6400003,101.4399,1,0.88
2022-05-05T12:59:43.110+02:00,1651748380.999593,53.2288023876522,10.39805715904608,36.52902,0,1.33,-1,-1,4,10,-9999,5019.270223791667,0.3824310302734375,0.072845458984375,-0.8240814208984375,5019.260228791667,0.07087083232303518,0.312231908806463,0.2360009317731289,-3.684258937835693,0.973330557346344,-0.2228000611066818,0.0751718282699585,0.2156431376934052,0.1715481877326965,XArbitraryZVertical,0.110751955273355,0.1584245258344885,0.0530467536860134,0.979704941010993,0.2986685037612915,-0.2338162958621979,-0.9252713322639465,0,0,0,-1,-1,5015.698944541667,walking,2,2022-05-05T12:59:39.538+02:00,2022-05-05T12:55:18.700+02:00,133,0.7728162,0.7813913,1.813988,95.6695,0,0,2022-05-05T12:59:42.098+02:00,673441182.097509,0,0.6400003,101.4399,1,0.88
2022-05-05T12:59:43.120+02:00,1651748380.999593,53.2288023876522,10.39805715904608,36.52902,0,1.33,-1,-1,4,10,-9999,5019.280218791667,0.439788818359375,0.110748291015625,-0.854583740234375,5019.270223791667,0.08142886084423975,0.3200197486752784,0.2000359087168454,-3.777886629104614,1.038625955581665,-0.05749046057462692,0.06124031543731689,0.2474716752767563,0.1382020115852356,XArbitraryZVertical,0.09204131605130583,0.1624126617902317,0.05587832404443615,0.980830330645689,0.3083122968673706,-0.1987045258283615,-0.9303010702133179,0,0,0,-1,-1,5015.698944541667,walking,2,2022-05-05T12:59:39.538+02:00,2022-05-05T12:55:18.700+02:00,133,0.7728162,0.7813913,1.813988,95.6695,0,0,2022-05-05T12:59:42.098+02:00,673441182.097509,0,0.6400003,101.4399,1,0.88
2022-05-05T12:59:43.130+02:00,1651748380.999593,53.2288023876522,10.39805715904608,36.52902,0,1.33,-1,-1,4,10,-9999,5019.290214791667,0.487579345703125,0.1465606689453125,-0.873321533203125,5019.280218791667,0.09380914248838047,0.3283113977708992,0.1643274360409548,-3.773382186889648,1.066933274269104,0.07892191410064697,0.06432974338531494,0.2364343702793121,0.1097548604011536,XArbitraryZVertical,0.07324248230824087,0.1664853854027344,0.05949829685957859,0.9815182811867337,0.3181012868881226,-0.1635888665914536,-0.9338362812995911,0,0,0,-1,-1,5015.698944541667,walking,2,2022-05-05T12:59:39.538+02:00,2022-05-05T12:55:18.700+02:00,133,0.7728162,0.7813913,1.813988,95.6695,0,0,2022-05-05T12:59:42.098+02:00,673441182.097509,0,0.6400003,101.4399,1,0.88
2022-05-05T12:59:43.140+02:00,1651748380.999593,53.2288023876522,10.39805715904608,36.52902,0,1.33,-1,-1,4,10,-9999,5019.300209791667,0.531494140625,0.16412353515625,-0.86517333984375,5019.290214791667,0.1070858116325503,0.3368299626882125,0.1297461465076499,-3.594242334365845,1.015154004096985,0.1371407359838486,0.1120698750019073,0.2401307821273804,0.08129042387008667,XArbitraryZVertical,0.05486708858883857,0.1704479864514451,0.06349999171056785,0.9817865164099384,0.3277189433574677,-0.1293824315071106,-0.9358741641044617,0,0,0,-1,-1,5015.698944541667,walking,2,2022-05-05T12:59:39.538+02:00,2022-05-05T12:55:18.700+02:00,133,0.7728162,0.7813913,1.813988,95.6695,0,0,2022-05-05T12:59:42.098+02:00,673441182.097509,0,0.6400003,101.4399,1,0.88
2022-05-05T12:59:43.150+02:00,1651748380.999593,53.2288023876522,10.39805715904608,36.52902,0,1.33,-1,-1,4,10,-9999,5019.310205791667,0.548248291015625,0.1511077880859375,-0.8852081298828125,5019.300209791667,0.1201666705216162,0.344893221041437,0.09814050329217112,-3.236848592758179,0.8986063599586487,0.2039054036140442,0.151110053062439,0.2445437908172607,0.06326150894165039,XArbitraryZVertical,0.03794455545673444,0.1739790409357763,0.06748691425176551,0.9817010637480299,0.336469292640686,-0.09798303991556168,-0.9365829825401306,0,0,0,-1,-1,5015.698944541667,walking,2,2022-05-05T12:59:39.538+02:00,2022-05-05T12:55:18.700+02:00,133,0.7728162,0.7813913,1.813988,95.6695,0,0,2022-05-05T12:59:42.098+02:00,673441182.097509,0,0.6400003,101.4399,1,0.88
2022-05-05T12:59:43.160+02:00,1651748380.999593,53.2288023876522,10.39805715904608,36.52902,0,1.33,-1,-1,4,10,-9999,5019.320200791667,0.5081787109375,0.1173553466796875,-0.9059600830078125,5019.310205791667,0.1327904594242812,0.3520792599702814,0.07039621292126173,-2.849457740783691,0.7540041208267212,0.2520284354686737,0.1874980032444,0.2344616949558258,0.07115954160690308,XArbitraryZVertical,0.02295844768350245,0.1769363819584133,0.07143006878575299,0.9813583476187813,0.3439961373806,-0.07033808529376984,-0.9363328814506531,0,0,0,-1,-1,5015.698944541667,walking,2,2022-05-05T12:59:39.538+02:00,2022-05-05T12:55:18.700+02:00,133,0.7728162,0.7813913,1.813988,95.6695,0,0,2022-05-05T12:59:42.098+02:00,673441182.097509,0,0.6400003,101.4399,1,0.88
2022-05-05T12:59:43.170+02:00,1651748380.999593,53.2288023876522,10.39805715904608,36.52902,0,1.33,-1,-1,4,10,-9999,5019.330195791667,0.4756622314453125,0.1217193603515625,-0.8872833251953125,5019.320200791667,0.1443694986612252,0.358271366978964,0.04642692079555151,-2.458108186721802,0.6312306523323059,0.2456633448600769,0.1979702711105347,0.1975181102752686,0.05028712749481201,XArbitraryZVertical,0.009933281063684681,0.1793145219924591,0.07507387515915354,0.9808728776324971,0.3502780497074127,-0.04641024395823479,-0.9354952573776245,0,0,0,-1,-1,5015.698944541667,walking,2,2022-05-05T12:59:39.538+02:00,2022-05-05T12:55:18.700+02:00,133,0.7728162,0.7813913,1.813988,95.6695,0,0,2022-05-05T12:59:42.098+02:00,673441182.097509,0,0.6400003,101.4399,1,0.88
2022-05-05T12:59:43.180+02:00,1651748380.999593,53.2288023876522,10.39805715904608,36.52902,0,1.33,-1,-1,4,10,-9999,5019.340191791667,0.481842041015625,0.1550750732421875,-0.9078521728515625,5019.330195791667,0.1545142402180291,0.3636287651405166,0.0264174356309505,-1.990357518196106,0.5160542726516724,0.2376722693443298,0.1526347696781158,0.1437697857618332,0.02832615375518799,XArbitraryZVertical,-0.00100221046543187,0.1812618943651906,0.07828265418499529,0.9803137268091522,0.3555439710617065,-0.02641436271369457,-0.9342862367630005,0,0,0,-1,-1,5015.698944541667,walking,2,2022-05-05T12:59:39.538+02:00,2022-05-05T12:55:18.700+02:00,133,0.7728162,0.7813913,1.813988,95.6695,0,0,2022-05-05T12:59:42.098+02:00,673441182.097509,0,0.6400003,101.4399,1,0.88
2022-05-05T12:59:43.190+02:00,1651748380.999593,53.2288023876522,10.39805715904608,36.52902,0,1.33,-1,-1,4,10,-9999,5019.350186791667,0.4636993408203125,0.100738525390625,-0.9337310791015625,5019.340191791667,0.1629044695925322,0.3680677504276406,0.01106646422312633,-1.486985087394714,0.4241613447666168,0.2251722514629364,0.1158710122108459,0.1327856779098511,0.04568386077880859,XArbitraryZVertical,-0.009467060752701255,0.1828298931623822,0.08099625090274515,0.9797567553987746,0.3597912490367889,-0.01106623839586973,-0.9329671859741211,0,0,0,-1,-1,5015.698944541667,walking,2,2022-05-05T12:59:39.538+02:00,2022-05-05T12:55:18.700+02:00,133,0.7728162,0.7813913,1.813988,95.6695,0,0,2022-05-05T12:59:42.098+02:00,673441182.097509,0,0.6400003,101.4399,1,0.88
2022-05-05T12:59:43.200+02:00,1651748380.999593,53.2288023876522,10.39805715904608,36.52902,0,1.33,-1,-1,4,10,-9999,5019.360181791667,0.455413818359375,0.0185089111328125,-0.96490478515625,5019.350186791667,0.1693596995484865,0.372084888755306,0.0001623844536021993,-1.024044513702393,0.3841489255428314,0.1861995607614517,0.118283599615097,0.1552375257015228,0.0237191915512085,XArbitraryZVertical,-0.01556510315857906,0.1843150392895701,0.08313415042569418,0.9792213916148561,0.363558441400528,-0.000162384458235465,-0.931571364402771,0,0,0,-1,-1,5015.698944541667,walking,2,2022-05-05T12:59:39.538+02:00,2022-05-05T12:55:18.700+02:00,133,0.7728162,0.7813913,1.813988,95.6695,0,0,2022-05-05T12:59:42.098+02:00,673441182.097509,0,0.6400003,101.4399,1,0.88
2022-05-05T12:59:43.210+02:00,1651748381.999589,53.2288171817113,10.39807668888047,36.74356,0.22,0.74,77.34375,88.32033604416696,4,10,-9999,5019.370177791667,0.434326171875,-0.0522003173828125,-1.023956298828125,5019.360181791667,0.1741239958191438,0.375487819386868,-0.007221641006961433,-0.7363342642784119,0.2954379320144653,0.1616830974817276,0.09698250889778137,0.09351702034473419,-0.003426492214202881,XArbitraryZVertical,-0.01976280491045502,0.1856263452005188,0.08475217655307757,0.9787591380490335,0.3667168319225311,0.007221578154712915,-0.9303045868873596,0,0,0,-1,-1,5015.698944541667,walking,2,2022-05-05T12:59:39.538+02:00,2022-05-05T12:55:18.700+02:00,133,0.7728162,0.7813913,1.813988,95.6695,0,0,2022-05-05T12:59:42.098+02:00,673441182.097509,0,0.6400003,101.4399,1,0.88
2022-05-05T12:59:43.220+02:00,1651748381.999589,53.2288171817113,10.39807668888047,36.74356,0.22,0.74,77.34375,88.32033604416696,4,10,-9999,5019.380172791667,0.3918914794921875,-0.1268310546875,-1.051132202148438,5019.370177791667,0.1780916958670899,0.3782034432068894,-0.01310775159100262,-0.6712362170219421,0.2479731887578964,0.1407967358827591,0.08619406819343567,0.005401611328125,-0.03565508127212524,XArbitraryZVertical,-0.02312756574681013,0.1866554893917376,0.08611397248839638,0.9783707481124142,0.3692197501659393,0.01310737617313862,-0.9292497038841248,0,0,0,-1,-1,5015.698944541667,walking,2,2022-05-05T12:59:39.538+02:00,2022-05-05T12:55:18.700+02:00,133,0.7728162,0.7813913,1.813988,95.6695,0,0,2022-05-05T12:59:42.098+02:00,673441182.097509,0,0.6400003,101.4399,1,0.88
2022-05-05T12:59:43.230+02:00,1651748381.999589,53.2288171817113,10.39807668888047,36.74356,0.22,0.74,77.34375,88.32033604416696,4,10,-9999,5019.390168791667,0.3931732177734375,-0.12835693359375,-1.070724487304688,5019.380172791667,0.1818361814925671,0.3804894054181872,-0.01874086910436782,-0.6561800241470337,0.2010900378227234,0.1390524208545685,0.06301650404930115,-0.07094001770019531,-0.09563630819320679,XArbitraryZVertical,-0.02633133729622592,0.1874744797888112,0.08738628161736813,0.978020350608064,0.3713096976280212,0.01873977296054363,-0.9283199310302734,0,0,0,-1,-1,5015.698944541667,walking,2,2022-05-05T12:59:39.538+02:00,2022-05-05T12:55:18.700+02:00,133,0.7728162,0.7813913,1.813988,95.6695,0,0,2022-05-05T12:59:42.098+02:00,673441182.097509,0,0.6400003,101.4399,1,0.88
2022-05-05T12:59:43.240+02:00,1651748381.999589,53.2288171817113,10.39807668888047,36.74356,0.22,0.74,77.34375,88.32033604416696,4,10,-9999,5019.400163791667,0.3887786865234375,-0.10711669921875,-1.089859008789062,5019.390168791667,0.1855410729628366,0.3823311526019307,-0.0243693737005013,-0.664732813835144,0.1554703563451767,0.1225528120994568,0.01891794800758362,-0.1511979401111603,-0.123610258102417,XArbitraryZVertical,-0.02951111825053017,0.1880641072187952,0.08863811048640641,0.9777036485933611,0.3729735612869263,0.0243669617921114,-0.9275219440460205,0,0,0,-1,-1,5015.698944541667,walking,2,2022-05-05T12:59:39.538+02:00,2022-05-05T12:55:18.700+02:00,133,0.7728162,0.7813913,1.813988,95.6695,0,0,2022-05-05T12:59:42.098+02:00,673441182.097509,0,0.6400003,101.4399,1,0.88
2022-05-05T12:59:43.251+02:00,1651748381.999589,53.2288171817113,10.39807668888047,36.74356,0.22,0.74,77.34375,88.32033604416696,4,10,-9999,5019.410158791667,0.3798828125,-0.0829315185546875,-1.093399047851562,5019.400163791667,0.1888546847300658,0.3837671325661972,-0.02998378126014421,-0.6180555820465088,0.1136409491300583,0.06382870674133301,0.01892527937889099,-0.1583361476659775,-0.1438804864883423,XArbitraryZVertical,-0.03262992867675901,0.1884497460364506,0.08969996802146901,0.9774333522871173,0.3742479383945465,0.02997928857803345,-0.9268439412117004,0,0,0,-1,-1,5015.698944541667,walking,2,2022-05-05T12:59:39.538+02:00,2022-05-05T12:55:18.700+02:00,133,0.7728162,0.7813913,1.813988,95.6695,0,0,2022-05-05T12:59:42.098+02:00,673441182.097509,0,0.6400003,101.4399,1,0.88
2022-05-05T12:59:43.261+02:00,1651748381.999589,53.2288171817113,10.39807668888047,36.74356,0.22,0.74,77.34375,88.32033604416696,4,10,-9999,5019.420154791667,0.3990936279296875,-0.00390625,-1.134521484375,5019.410158791667,0.1911506093901345,0.3846270310105627,-0.03507023798631877,-0.4705515801906586,0.01063067372888327,-0.01943954825401306,0.01379597187042236,-0.1421796679496765,-0.1634904742240906,XArbitraryZVertical,-0.03536915233823124,0.1885862849099822,0.09032015485837602,0.9772546107594052,0.3749827146530151,0.03506305068731308,-0.9263684749603271,0,0,0,-1,-1,5015.698944541667,walking,2,2022-05-05T12:59:39.538+02:00,2022-05-05T12:55:18.700+02:00,133,0.7728162,0.7813913,1.813988,95.6695,0,0,2022-05-05T12:59:42.098+02:00,673441182.097509,0,0.6400003,101.4399,1,0.88
2022-05-05T12:59:43.270+02:00,1651748381.999589,53.2288171817113,10.39807668888047,36.74356,0.22,0.74,77.34375,88.32033604416696,4,10,-9999,5019.430149791667,0.303680419921875,-0.0942840576171875,-1.256240844726562,5019.420154791667,0.1915976023160919,0.3837473819779444,-0.03834929501837114,-0.1914162039756775,-0.1288523823022842,-0.1620715260505676,0.00576019287109375,-0.1212713420391083,-0.1668126583099365,XArbitraryZVertical,-0.03697271492668203,0.1879889059529177,0.0902401334729942,0.9773177860018437,0.3741226494312286,0.03833989426493645,-0.926586389541626,0,0,0,-1,-1,5015.698944541667,walking,2,2022-05-05T12:59:39.538+02:00,2022-05-05T12:55:18.700+02:00,133,0.7728162,0.7813913,1.813988,95.6695,0,0,2022-05-05T12:59:42.098+02:00,673441182.097509,0,0.6400003,101.4399,1,0.88
2022-05-05T12:59:43.281+02:00,1651748381.999589,53.2288171817113,10.39807668888047,36.74356,0.22,0.74,77.34375,88.32033604416696,4,10,-9999,5019.440145791667,0.2310943603515625,-0.283355712890625,-1.281280517578125,5019.430149791667,0.1892721633215467,0.3834652401196527,-0.04031314372479979,-0.01927986368536949,0.1076222062110901,-0.4188362061977386,0.02526134252548218,-0.04420839995145798,-0.2079011797904968,XArbitraryZVertical,-0.03770062603593138,0.187799148544667,0.08892087732199763,0.97744737039212,0.3738323152065277,0.04030222445726395,-0.9266203045845032,0,0,0,-1,-1,5015.698944541667,walking,2,2022-05-05T12:59:39.538+02:00,2022-05-05T12:55:18.700+02:00,133,0.7728162,0.7813913,1.813988,95.6695,0,0,2022-05-05T12:59:42.098+02:00,673441182.097509,0,0.6400003,101.4399,1,0.88
2022-05-05T12:59:43.291+02:00,1651748381.999589,53.2288171817113,10.39807668888047,36.74356,0.22,0.74,77.34375,88.32033604416696,4,10,-9999,5019.450140791667,0.2895355224609375,-0.318511962890625,-1.23773193359375,5019.440145791667,0.1849589292774726,0.3854178657550318,-0.04229152395107862,-0.0721496045589447,0.3020393550395966,-0.4932180345058441,-0.07192981243133545,-0.1365628987550735,-0.3304279446601868,XArbitraryZVertical,-0.03834643455315632,0.1887408847144222,0.08658579481717221,0.9774504210627315,0.3756102323532104,0.04227891936898232,-0.925812840461731,0,0,0,-1,-1,5015.698944541667,walking,2,2022-05-05T12:59:39.538+02:00,2022-05-05T12:55:18.700+02:00,133,0.7728162,0.7813913,1.813988,95.6695,0,0,2022-05-05T12:59:42.098+02:00,673441182.097509,0,0.6400003,101.4399,1,0.88
2022-05-05T12:59:43.300+02:00,1651748381.999589,53.2288171817113,10.39807668888047,36.74356,0.22,0.74,77.34375,88.32033604416696,4,10,-9999,5019.460135791667,0.2809906005859375,-0.26104736328125,-1.255508422851562,5019.450140791667,0.1815397698958999,0.3887514730160008,-0.04597588996034242,-0.3742383718490601,0.3713827431201935,-0.4195624589920044,-0.147538423538208,-0.3293153345584869,-0.3568753600120544,XArbitraryZVertical,-0.03996409260454867,0.1902637393345042,0.08449325243860949,0.9772735188616107,0.3786328136920929,0.04595969617366791,-0.9244051575660706,0,0,0,-1,-1,5015.698944541667,walking,2,2022-05-05T12:59:39.538+02:00,2022-05-05T12:55:18.700+02:00,133,0.7728162,0.7813913,1.813988,95.6695,0,0,2022-05-05T12:59:42.098+02:00,673441182.097509,0,0.6400003,101.4399,1,0.88
2022-05-05T12:59:43.310+02:00,1651748381.999589,53.2288171817113,10.39807668888047,36.74356,0.22,0.74,77.34375,88.32033604416696,4,10,-9999,5019.470131791667,0.098388671875,-0.1190948486328125,-1.30841064453125,5019.460135791667,0.1796863291825818,0.3923706271811218,-0.0526153525836987,-0.6641602516174316,0.395160436630249,-0.4846801161766052,-0.09231525659561157,-0.3711029589176178,-0.3150054216384888,XArbitraryZVertical,-0.04317944181035777,0.1917610252446155,0.0828639098939641,0.9769836354198447,0.3818508088588715,0.05259107798337936,-0.9227265119552612,0,0,0,-1,-1,5015.698944541667,walking,2,2022-05-05T12:59:39.538+02:00,2022-05-05T12:55:18.700+02:00,133,0.7728162,0.7813913,1.813988,95.6695,0,0,2022-05-05T12:59:42.098+02:00,673441182.097509,0,0.6400003,101.4399,1,0.88
