loggingTime(txt),locationTimestamp_since1970(s),locationLatitude(WGS84),locationLongitude(WGS84),locationAltitude(m),locationSpeed(m/s),locationSpeedAccuracy(m/s),locationCourse(°),locationCourseAccuracy(°),locationVerticalAccuracy(m),locationHorizontalAccuracy(m),locationFloor(Z),accelerometerTimestamp_sinceReboot(s),accelerometerAccelerationX(G),accelerometerAccelerationY(G),accelerometerAccelerationZ(G),motionTimestamp_sinceReboot(s),motionYaw(rad),motionRoll(rad),motionPitch(rad),motionRotationRateX(rad/s),motionRotationRateY(rad/s),motionRotationRateZ(rad/s),motionUserAccelerationX(G),motionUserAccelerationY(G),motionUserAccelerationZ(G),motionAttitudeReferenceFrame(txt),motionQuaternionX(R),motionQuaternionY(R),motionQuaternionZ(R),motionQuaternionW(R),motionGravityX(G),motionGravityY(G),motionGravityZ(G),motionMagneticFieldX(µT),motionMagneticFieldY(µT),motionMagneticFieldZ(µT),motionHeading(°),motionMagneticFieldCalibrationAccuracy(Z),activityTimestamp_sinceReboot(s),activity(txt),activityActivityConfidence(Z),activityActivityStartDate(txt),pedometerStartDate(txt),pedometerNumberofSteps(N),pedometerAverageActivePace(s/m),pedometerCurrentPace(s/m),pedometerCurrentCadence(steps/s),pedometerDistance(m),pedometerFloorAscended(N),pedometerFloorDescended(N),pedometerEndDate(txt),altimeterTimestamp_sinceReboot(s),altimeterReset(bool),altimeterRelativeAltitude(m),altimeterPressure(kPa),batteryState(N),batteryLevel(R)
2022-05-05T13:00:16.134+02:00,1651748412.107787,53.22881737418903,10.39805232958421,41.12813,-1,-1,-1,-1,13.70551490783691,40,-9999,5048.157257375,0.0511932373046875,-0.609100341796875,-0.7561492919921875,5048.152260375,0.07139113971125161,0.06810385244511132,0.6869866471913108,0.01452064327895641,-0.08669388294219971,-0.03646154329180717,0.00802389532327652,-0.003759682178497314,0.01801139116287231,XArbitraryZVertical,0.3352246764599158,0.04404809784966923,0.04504218219170635,0.9400295664113468,0.05261452496051788,-0.6342102885246277,-0.7713683843612671,0,0,0,-1,-1,5047.403190875,walking,2,2022-05-05T13:00:15.325+02:00,2022-05-05T12:55:18.700+02:00,166,0.7837186,0.715904,1.604483,121.79,0,0,2022-05-05T13:00:15.324+02:00,673441215.324246,0,0.7200003,101.4374,1,0.88
2022-05-05T13:00:16.142+02:00,1651748412.107787,53.22881737418903,10.39805232958421,41.12813,-1,-1,-1,-1,13.70551490783691,40,-9999,5048.167253375001,0.049072265625,-0.6108245849609375,-0.766326904296875,5048.162255375,0.07067043788552972,0.0678913661643715,0.6873306044091773,0.01722135581076145,-0.08109458535909653,-0.04865855351090431,-0.001242585480213165,0.02537578344345093,0.01501250267028809,XArbitraryZVertical,0.3354070960630252,0.04383117894965154,0.04467127216934855,0.9399922876279694,0.05243581533432007,-0.6344761848449707,-0.7711617946624756,0,0,0,-1,-1,5047.403190875,walking,2,2022-05-05T13:00:15.325+02:00,2022-05-05T12:55:18.700+02:00,166,0.7837186,0.715904,1.604483,121.79,0,0,2022-05-05T13:00:15.324+02:00,673441215.324246,0,0.7200003,101.4374,1,0.88
2022-05-05T13:00:16.144+02:00,1651748412.107787,53.22881737418903,10.39805232958421,41.12813,-1,-1,-1,-1,13.70551490783691,40,-9999,5048.177248375,0.0634765625,-0.622650146484375,-0.7707977294921875,5048.172250375001,0.06974603188662108,0.06782660750619546,0.6875197837263657,0.002044999040663242,-0.07950614392757416,-0.06758603453636169,-0.003305483609437943,0.02379781007766724,0.004718542098999023,XArbitraryZVertical,0.3355177258571112,0.0436477312582311,0.04422784336391167,0.9399823478659443,0.05237774178385735,-0.6346223950386047,-0.771045446395874,0,0,0,-1,-1,5047.403190875,walking,2,2022-05-05T13:00:15.325+02:00,2022-05-05T12:55:18.700+02:00,166,0.7837186,0.715904,1.604483,121.79,0,0,2022-05-05T13:00:15.324+02:00,673441215.324246,0,0.7200003,101.4374,1,0.88
2022-05-05T13:00:16.147+02:00,1651748412.107787,53.22881737418903,10.39805232958421,41.12813,-1,-1,-1,-1,13.70551490783691,40,-9999,5048.187243375,0.0614471435546875,-0.62860107421875,-0.7761993408203125,5048.182246375,0.06872161585230872,0.0677667336299862,0.6874907923136979,-0.02965860068798065,-0.09659218788146973,-0.0667378231883049,0.01114373281598091,0.01194989681243896,0.0002691745758056641,XArbitraryZVertical,0.3355277507379503,0.04344743468766603,0.04373603984563413,0.9400109605090444,0.05233281850814819,-0.6345999836921692,-0.7710669040679932,0,0,0,-1,-1,5047.403190875,walking,2,2022-05-05T13:00:15.325+02:00,2022-05-05T12:55:18.700+02:00,166,0.7837186,0.715904,1.604483,121.79,0,0,2022-05-05T13:00:15.324+02:00,673441215.324246,0,0.7200003,101.4374,1,0.88
2022-05-05T13:00:16.158+02:00,1651748412.107787,53.22881737418903,10.39805232958421,41.12813,-1,-1,-1,-1,13.70551490783691,40,-9999,5048.197239375,0.0575408935546875,-0.628936767578125,-0.7826385498046875,5048.192241375,0.06775793721069082,0.06747763287337015,0.6870955835601785,-0.06756650656461716,-0.1060630530118942,-0.07436791062355042,0.009320326149463654,0.005693435668945312,-0.004867196083068848,XArbitraryZVertical,0.3353689543646438,0.04314581676620238,0.04323057181588884,0.9401049740941737,0.05212680995464325,-0.6342945098876953,-0.7713322043418884,0,0,0,-1,-1,5047.403190875,walking,2,2022-05-05T13:00:15.325+02:00,2022-05-05T12:55:18.700+02:00,166,0.7837186,0.715904,1.604483,121.79,0,0,2022-05-05T13:00:15.324+02:00,673441215.324246,0,0.7200003,101.4374,1,0.88
2022-05-05T13:00:16.159+02:00,1651748412.107787,53.22881737418903,10.39805232958421,41.12813,-1,-1,-1,-1,13.70551490783691,40,-9999,5048.207234375001,0.04986572265625,-0.6253814697265625,-0.7824249267578125,5048.202236375,0.06671314745506397,0.06711709572263243,0.6864838747976235,-0.07469445466995239,-0.1168288812041283,-0.07407229393720627,0.005666162818670273,0.004884719848632812,-0.01090061664581299,XArbitraryZVertical,0.3351113531512129,0.04279499294648775,0.04267277296785328,0.9402383528684479,0.05187472701072693,-0.633821427822113,-0.7717379331588745,0,0,0,-1,-1,5047.403190875,walking,2,2022-05-05T13:00:15.325+02:00,2022-05-05T12:55:18.700+02:00,166,0.7837186,0.715904,1.604483,121.79,0,0,2022-05-05T13:00:15.324+02:00,673441215.324246,0,0.7200003,101.4374,1,0.88
2022-05-05T13:00:16.161+02:00,1651748412.107787,53.22881737418903,10.39805232958421,41.12813,-1,-1,-1,-1,13.70551490783691,40,-9999,5048.217230375,0.0397491455078125,-0.6186370849609375,-0.7871856689453125,5048.212232375,0.0659463655194065,0.06650461630859704,0.6857319204671321,-0.06118949502706528,-0.1013872101902962,-0.0552220493555069,-0.001567989587783813,0.007858157157897949,-0.01018005609512329,XArbitraryZVertical,0.334786856944994,0.04237110177233204,0.04220206136298926,0.9403943828984551,0.05143370106816292,-0.6332396268844604,-0.7722448706626892,0,0,0,-1,-1,5047.403190875,walking,2,2022-05-05T13:00:15.325+02:00,2022-05-05T12:55:18.700+02:00,166,0.7837186,0.715904,1.604483,121.79,0,0,2022-05-05T13:00:15.324+02:00,673441215.324246,0,0.7200003,101.4374,1,0.88
2022-05-05T13:00:16.163+02:00,1651748412.107787,53.22881737418903,10.39805232958421,41.12813,-1,-1,-1,-1,13.70551490783691,40,-9999,5048.227225375001,0.0347137451171875,-0.618377685546875,-0.792755126953125,5048.222227375,0.06526273701057815,0.06618400580516763,0.6851782341538736,-0.04061631113290787,-0.08005422353744507,-0.03525526076555252,-0.01146015152335167,0.01417398452758789,-0.01457458734512329,XArbitraryZVertical,0.3345474725106189,0.04210048650911385,0.0418213599459873,0.9405087198345115,0.05120928958058357,-0.6328110098838806,-0.7726110816001892,0,0,0,-1,-1,5047.403190875,walking,2,2022-05-05T13:00:15.325+02:00,2022-05-05T12:55:18.700+02:00,166,0.7837186,0.715904,1.604483,121.79,0,0,2022-05-05T13:00:15.324+02:00,673441215.324246,0,0.7200003,101.4374,1,0.88
2022-05-05T13:00:16.165+02:00,1651748412.107787,53.22881737418903,10.39805232958421,41.12813,-1,-1,-1,-1,13.70551490783691,40,-9999,5048.237220375,0.0285797119140625,-0.6304779052734375,-0.7982025146484375,5048.232223375,0.06498569888757397,0.06574190088833547,0.6849221760582924,-0.03139964491128922,-0.05330303683876991,-0.004435032606124878,-0.01616461575031281,0.01423507928848267,-0.01995980739593506,XArbitraryZVertical,0.3344419825015601,0.04184373446482608,0.04161455807786824,0.9405669101645434,0.05087835341691971,-0.6326127648353577,-0.7727953195571899,0,0,0,-1,-1,5047.403190875,walking,2,2022-05-05T13:00:15.325+02:00,2022-05-05T12:55:18.700+02:00,166,0.7837186,0.715904,1.604483,121.79,0,0,2022-05-05T13:00:15.324+02:00,673441215.324246,0,0.7200003,101.4374,1,0.88
2022-05-05T13:00:16.172+02:00,1651748412.107787,53.22881737418903,10.39805232958421,41.12813,-1,-1,-1,-1,13.70551490783691,40,-9999,5048.247216375,0.037445068359375,-0.633087158203125,-0.793243408203125,5048.242218375,0.065109327793855,0.06527023506014883,0.6845842605355322,-0.02434013411402702,-0.02907785773277283,0.02254571951925755,-0.02194808423519135,0.001873135566711426,-0.02517008781433105,XArbitraryZVertical,0.3342901834961646,0.04163926537162749,0.04159048306183359,0.9406309802323175,0.05052778497338295,-0.6323509812355042,-0.7730324864387512,0,0,0,-1,-1,5047.403190875,walking,2,2022-05-05T13:00:15.325+02:00,2022-05-05T12:55:18.700+02:00,166,0.7837186,0.715904,1.604483,121.79,0,0,2022-05-05T13:00:15.324+02:00,673441215.324246,0,0.7200003,101.4374,1,0.88
2022-05-05T13:00:16.183+02:00,1651748412.107787,53.22881737418903,10.39805232958421,41.12813,-1,-1,-1,-1,13.70551490783691,40,-9999,5048.257211375,0.038726806640625,-0.6373138427734375,-0.78497314453125,5048.252213375,0.06553385949335243,0.06476597319080388,0.684274351909765,-0.02634436637163162,-0.01840617135167122,0.03664063289761543,-0.01270558312535286,-0.000976264476776123,-0.01999008655548096,XArbitraryZVertical,0.3341460052409046,0.04146996683942123,0.04170284318884859,0.9406846833165563,0.05015064775943756,-0.6321108937263489,-0.7732533812522888,0,0,0,-1,-1,5047.403190875,walking,2,2022-05-05T13:00:15.325+02:00,2022-05-05T12:55:18.700+02:00,166,0.7837186,0.715904,1.604483,121.79,0,0,2022-05-05T13:00:15.324+02:00,673441215.324246,0,0.7200003,101.4374,1,0.88
2022-05-05T13:00:16.190+02:00,1651748412.107787,53.22881737418903,10.39805232958421,41.12813,-1,-1,-1,-1,13.70551490783691,40,-9999,5048.267206375001,0.042266845703125,-0.6396331787109375,-0.7815093994140625,5048.262209375001,0.06583482907581213,0.06448899161878291,0.6840200922737534,-0.0183253213763237,-0.01557363290339708,0.01537635643035173,-0.01122002303600311,-0.005400002002716064,-0.01154559850692749,XArbitraryZVertical,0.3340258823149203,0.04138741135047284,0.04179567181337301,0.940726830804925,0.04994682595133781,-0.6319138407707214,-0.7734276056289673,0,0,0,-1,-1,5047.403190875,walking,2,2022-05-05T13:00:15.325+02:00,2022-05-05T12:55:18.700+02:00,166,0.7837186,0.715904,1.604483,121.79,0,0,2022-05-05T13:00:15.324+02:00,673441215.324246,0,0.7200003,101.4374,1,0.88
2022-05-05T13:00:16.200+02:00,1651748412.107787,53.22881737418903,10.39805232958421,41.12813,-1,-1,-1,-1,13.70551490783691,40,-9999,5048.277202375,0.0428314208984375,-0.6231689453125,-0.778564453125,5048.272204375,0.06583709153846652,0.06433658398564765,0.6838976416650701,0.0006613540463149548,-0.02767543494701385,-0.009078520350158215,-0.007567085325717926,-0.007814228534698486,-0.007997035980224609,XArbitraryZVertical,0.3339713806681424,0.04131486503491624,0.04177010341863082,0.9407505013756892,0.04983392357826233,-0.631818950176239,-0.7735124230384827,0,0,0,-1,-1,5047.403190875,walking,2,2022-05-05T13:00:15.325+02:00,2022-05-05T12:55:18.700+02:00,166,0.7837186,0.715904,1.604483,121.79,0,0,2022-05-05T13:00:15.324+02:00,673441215.324246,0,0.7200003,101.4374,1,0.88
2022-05-05T13:00:16.210+02:00,1651748412.107787,53.22881737418903,10.39805232958421,41.12813,-1,-1,-1,-1,13.70551490783691,40,-9999,5048.287197375001,0.0364532470703125,-0.621002197265625,-0.7825775146484375,5048.282200375001,0.06551532195487959,0.06427853034950209,0.6839440841881642,0.02170698344707489,-0.03054126352071762,-0.03270821645855904,-0.006955716758966446,0.00868600606918335,-0.005078494548797607,XArbitraryZVertical,0.3340010917126789,0.04123429216504997,0.04160950354100205,0.9407506088909295,0.04978713020682335,-0.6318549513816833,-0.7734860181808472,0,0,0,-1,-1,5047.403190875,walking,2,2022-05-05T13:00:15.325+02:00,2022-05-05T12:55:18.700+02:00,166,0.7837186,0.715904,1.604483,121.79,0,0,2022-05-05T13:00:15.324+02:00,673441215.324246,0,0.7200003,101.4374,1,0.88
2022-05-05T13:00:16.220+02:00,1651748412.107787,53.22881737418903,10.39805232958421,41.12813,-1,-1,-1,-1,13.70551490783691,40,-9999,5048.297193375,0.0435028076171875,-0.6308441162109375,-0.781097412109375,5048.292195375,0.06498433035320028,0.06429380484542736,0.6841546341307301,0.03775622323155403,-0.03265135362744331,-0.0453999787569046,-0.0133371576666832,0.01101595163345337,-0.009225070476531982,XArbitraryZVertical,0.3341108145107082,0.04115488420268711,0.04136432580051794,0.940725954859217,0.0497903972864151,-0.6320180892944336,-0.7733525037765503,0,0,0,-1,-1,5047.403190875,walking,2,2022-05-05T13:00:15.325+02:00,2022-05-05T12:55:18.700+02:00,166,0.7837186,0.715904,1.604483,121.79,0,0,2022-05-05T13:00:15.324+02:00,673441215.324246,0,0.7200003,101.4374,1,0.88
2022-05-05T13:00:16.230+02:00,1651748412.107787,53.22881737418903,10.39805232958421,41.12813,-1,-1,-1,-1,13.70551490783691,40,-9999,5048.307188375,0.0515594482421875,-0.641021728515625,-0.7793121337890625,5048.302190375,0.06437212214956266,0.06420850593481958,0.6843716293884868,0.03766034916043282,-0.05137044563889503,-0.05228211730718613,-0.006212830543518066,0.001342177391052246,-0.007877588272094727,XArbitraryZVertical,0.3342272896254331,0.04101460726162099,0.04106422195587062,0.9407038535146843,0.04971563071012497,-0.6321862936019897,-0.7732198238372803,0,0,0,-1,-1,5047.403190875,walking,2,2022-05-05T13:00:15.325+02:00,2022-05-05T12:55:18.700+02:00,166,0.7837186,0.715904,1.604483,121.79,0,0,2022-05-05T13:00:15.324+02:00,673441215.324246,0,0.7200003,101.4374,1,0.88
2022-05-05T13:00:16.240+02:00,1651748412.107787,53.22881737418903,10.39805232958421,41.12813,-1,-1,-1,-1,13.70551490783691,40,-9999,5048.317183375,0.0462188720703125,-0.6428070068359375,-0.767822265625,5048.312186375,0.0637931889704489,0.063858757540648,0.6845124854263012,0.02744849398732185,-0.0713890939950943,-0.0485345795750618,0.002119924873113632,-0.008726298809051514,-0.006163835525512695,XArbitraryZVertical,0.3343125436059842,0.04075470478437041,0.04073482483567314,0.9406992592475857,0.04943951591849327,-0.6322953701019287,-0.7731483578681946,0,0,0,-1,-1,5047.403190875,walking,2,2022-05-05T13:00:15.325+02:00,2022-05-05T12:55:18.700+02:00,166,0.7837186,0.715904,1.604483,121.79,0,0,2022-05-05T13:00:15.324+02:00,673441215.324246,0,0.7200003,101.4374,1,0.88
2022-05-05T13:00:16.250+02:00,1651748412.107787,53.22881737418903,10.39805232958421,41.12813,-1,-1,-1,-1,13.70551490783691,40,-9999,5048.327179375,0.034454345703125,-0.6411895751953125,-0.758056640625,5048.322181375001,0.063338583396682,0.06323625996463739,0.6844664467424673,-0.007254892028868198,-0.08400928229093552,-0.03916877880692482,-0.002741191536188126,-0.01054728031158447,0.005385696887969971,XArbitraryZVertical,0.334312771488073,0.04038548393810927,0.04041650921742018,0.940728713876113,0.04896005988121033,-0.632259726524353,-0.77320796251297,0,0,0,-1,-1,5047.403190875,walking,2,2022-05-05T13:00:15.325+02:00,2022-05-05T12:55:18.700+02:00,166,0.7837186,0.715904,1.604483,121.79,0,0,2022-05-05T13:00:15.324+02:00,673441215.324246,0,0.7200003,101.4374,1,0.88
2022-05-05T13:00:16.260+02:00,1651748412.107787,53.22881737418903,10.39805232958421,41.12813,-1,-1,-1,-1,13.70551490783691,40,-9999,5048.337174375,0.0254364013671875,-0.6380157470703125,-0.7577972412109375,5048.332176375,0.06301563081125604,0.06251831883041233,0.6840893270273148,-0.04672443866729736,-0.08601044863462448,-0.0270574539899826,-0.01396548375487328,-0.009222090244293213,0.01542419195175171,XArbitraryZVertical,0.3341561837159966,0.03999018064952659,0.04014102950076578,0.9408130739012595,0.04841982200741768,-0.6319674849510193,-0.7734808325767517,0,0,0,-1,-1,5047.403190875,walking,2,2022-05-05T13:00:15.325+02:00,2022-05-05T12:55:18.700+02:00,166,0.7837186,0.715904,1.604483,121.79,0,0,2022-05-05T13:00:15.324+02:00,673441215.324246,0,0.7200003,101.4374,1,0.88
2022-05-05T13:00:16.270+02:00,1651748412.107787,53.22881737418903,10.39805232958421,41.12813,-1,-1,-1,-1,13.70551490783691,40,-9999,5048.347169375001,0.02777099609375,-0.63214111328125,-0.751495361328125,5048.342172375001,0.06275191676677427,0.06183140790230391,0.6835241714960784,-0.05718826130032539,-0.07814346998929977,-0.03295289352536201,-0.02247416228055954,-0.006486296653747559,0.01607298851013184,XArbitraryZVertical,0.3339091627948402,0.03961757481099856,0.03989695742393862,0.9409268176025973,0.04791055619716644,-0.6315293908119202,-0.7738702297210693,0,0,0,-1,-1,5047.403190875,walking,2,2022-05-05T13:00:15.325+02:00,2022-05-05T12:55:18.700+02:00,166,0.7837186,0.715904,1.604483,121.79,0,0,2022-05-05T13:00:15.324+02:00,673441215.324246,0,0.7200003,101.4374,1,0.88
2022-05-05T13:00:16.280+02:00,1651748412.107787,53.22881737418903,10.39805232958421,41.12813,-1,-1,-1,-1,13.70551490783691,40,-9999,5048.357165375,0.018280029296875,-0.6212615966796875,-0.7530670166015625,5048.352167375,0.06244882528738628,0.0612359381453686,0.6828689520132792,-0.06957954913377762,-0.07311755418777466,-0.02405021339654922,-0.01970405876636505,-0.001119852066040039,0.02281612157821655,XArbitraryZVertical,0.3336184666151679,0.03928054236838768,0.03964891813086655,0.9410546070317837,0.04747504740953445,-0.63102126121521,-0.7743115425109863,0,0,0,-1,-1,5047.403190875,walking,2,2022-05-05T13:00:15.325+02:00,2022-05-05T12:55:18.700+02:00,166,0.7837186,0.715904,1.604483,121.79,0,0,2022-05-05T13:00:15.324+02:00,673441215.324246,0,0.7200003,101.4374,1,0.88
2022-05-05T13:00:16.289+02:00,1651748412.107787,53.22881737418903,10.39805232958421,41.12813,-1,-1,-1,-1,13.70551490783691,40,-9999,5048.367160375,0.0117645263671875,-0.612762451171875,-0.7552490234375,5048.362163375,0.06222698749180926,0.06068620025947961,0.6821393520092567,-0.05955887585878372,-0.05594362691044807,-0.02570643275976181,-0.02879726514220238,0.009193539619445801,0.02172982692718506,XArbitraryZVertical,0.333290127028504,0.03897788188565832,0.03944620570665998,0.9411920360041814,0.04707728326320648,-0.6304550766944885,-0.7747968435287476,0,0,0,-1,-1,5047.403190875,walking,2,2022-05-05T13:00:15.325+02:00,2022-05-05T12:55:18.700+02:00,166,0.7837186,0.715904,1.604483,121.79,0,0,2022-05-05T13:00:15.324+02:00,673441215.324246,0,0.7200003,101.4374,1,0.88
2022-05-05T13:00:16.300+02:00,1651748412.107787,53.22881737418903,10.39805232958421,41.12813,-1,-1,-1,-1,13.70551490783691,40,-9999,5048.377156375001,0.020294189453125,-0.6114654541015625,-0.7510833740234375,5048.372158375,0.06196243869660206,0.06031246145343878,0.6814660218474358,-0.05502953752875328,-0.04237009212374687,-0.03315282985568047,-0.03504876792430878,0.01716983318328857,0.01998889446258545,XArbitraryZVertical,0.3329854961490543,0.03875147767954514,0.0392533445322796,0.9413173299401516,0.04681328684091568,-0.6299322843551636,-0.7752379775047302,0,0,0,-1,-1,5047.403190875,walking,2,2022-05-05T13:00:15.325+02:00,2022-05-05T12:55:18.700+02:00,166,0.7837186,0.715904,1.604483,121.79,0,0,2022-05-05T13:00:15.324+02:00,673441215.324246,0,0.7200003,101.4374,1,0.88
2022-05-05T13:00:16.309+02:00,1651748412.107787,53.22881737418903,10.39805232958421,41.12813,-1,-1,-1,-1,13.70551490783691,40,-9999,5048.387151375,0.0274810791015625,-0.6246337890625,-0.7520294189453125,5048.382153375001,0.0615579793044127,0.06012856036059271,0.6808105659923084,-0.06977652758359909,-0.03999002650380135,-0.04270479083061218,-0.0264013409614563,0.01795768737792969,0.02457511425018311,XArbitraryZVertical,0.3326881879472617,0.03859136740253367,0.03902644696527019,0.9414384792956638,0.0466955192387104,-0.6294230818748474,-0.7756585478782654,0,0,0,-1,-1,5047.403190875,walking,2,2022-05-05T13:00:15.325+02:00,2022-05-05T12:55:18.700+02:00,166,0.7837186,0.715904,1.604483,121.79,0,0,2022-05-05T13:00:15.324+02:00,673441215.324246,0,0.7200003,101.4374,1,0.88
2022-05-05T13:00:16.320+02:00,1651748412.107787,53.22881737418903,10.39805232958421,41.12813,-1,-1,-1,-1,13.70551490783691,40,-9999,5048.397146375,0.0255584716796875,-0.629974365234375,-0.760009765625,5048.392149375,0.06093942688351209,0.06014640317414718,0.6800260238159425,-0.08802903443574905,-0.04115409404039383,-0.05992505699396133,-0.01925795525312424,0.004179477691650391,0.02412092685699463,XArbitraryZVertical,0.3323302371912453,0.03848955352906859,0.03873112875344664,0.9415811465086749,0.04673902690410614,-0.6288132667541504,-0.7761503458023071,0,0,0,-1,-1,5047.403190875,walking,2,2022-05-05T13:00:15.325+02:00,2022-05-05T12:55:18.700+02:00,166,0.7837186,0.715904,1.604483,121.79,0,0,2022-05-05T13:00:15.324+02:00,673441215.324246,0,0.7200003,101.4374,1,0.88
2022-05-05T13:00:16.330+02:00,1651748412.107787,53.22881737418903,10.39805232958421,41.12813,-1,-1,-1,-1,13.70551490783691,40,-9999,5048.407142375,0.02325439453125,-0.6297454833984375,-0.75970458984375,5048.402144375001,0.06010456797858047,0.06025657977322266,0.6792134587584051,-0.09447068721055984,-0.0408177375793457,-0.07521000504493713,-0.02129683643579483,-0.001793146133422852,0.01664519309997559,XArbitraryZVertical,0.3319613062208966,0.03839526423774893,0.03834891816438386,0.941730845071815,0.04685529693961143,-0.6281812191009521,-0.7766550183296204,0,0,0,-1,-1,5047.403190875,walking,2,2022-05-05T13:00:15.325+02:00,2022-05-05T12:55:18.700+02:00,166,0.7837186,0.715904,1.604483,121.79,0,0,2022-05-05T13:00:15.324+02:00,673441215.324246,0,0.7200003,101.4374,1,0.88
2022-05-05T13:00:16.340+02:00,1651748412.107787,53.22881737418903,10.39805232958421,41.12813,-1,-1,-1,-1,13.70551490783691,40,-9999,5048.417137375,0.0193634033203125,-0.6306915283203125,-0.7632293701171875,5048.412139375,0.05917221705030815,0.0604020821092092,0.6782907353284663,-0.1105044484138489,-0.03562603518366814,-0.09556148201227188,-0.02374888211488724,-0.002282440662384033,0.01752179861068726,XArbitraryZVertical,0.331541621295246,0.03830079435344486,0.03792546534409622,0.9418996553343788,0.04700326919555664,-0.6274630427360535,-0.7772263884544373,0,0,0,-1,-1,5047.403190875,walking,2,2022-05-05T13:00:15.325+02:00,2022-05-05T12:55:18.700+02:00,166,0.7837186,0.715904,1.604483,121.79,0,0,2022-05-05T13:00:15.324+02:00,673441215.324246,0,0.7200003,101.4374,1,0.88
2022-05-05T13:00:16.354+02:00,1651748412.107787,53.22881737418903,10.39805232958421,41.12813,-1,-1,-1,-1,13.70551490783691,40,-9999,5048.427132375,0.02630615234375,-0.62408447265625,-0.7658843994140625,5048.422135375,0.05797751601674828,0.06069835506379073,0.67724473532156,-0.1180758103728294,-0.03602977097034454,-0.118996761739254,-0.02790992707014084,-0.004043281078338623,0.01463770866394043,XArbitraryZVertical,0.3310659455048238,0.03823325978292409,0.0374020094451,0.9420905839615146,0.04727332666516304,-0.6266482472419739,-0.7778671383857727,0,0,0,-1,-1,5047.403190875,walking,2,2022-05-05T13:00:15.325+02:00,2022-05-05T12:55:18.700+02:00,166,0.7837186,0.715904,1.604483,121.79,0,0,2022-05-05T13:00:15.324+02:00,673441215.324246,0,0.7200003,101.4374,1,0.88
2022-05-05T13:00:16.360+02:00,1651748412.107787,53.22881737418903,10.39805232958421,41.12813,-1,-1,-1,-1,13.70551490783691,40,-9999,5048.437128375001,0.040557861328125,-0.619873046875,-0.76873779296875,5048.432130375,0.05650186015424031,0.06116350280409371,0.6760488896762951,-0.1324461996555328,-0.03917889297008514,-0.136559322476387,-0.02137477323412895,0.001631379127502441,0.01270806789398193,XArbitraryZVertical,0.3305217973731222,0.03819822976810715,0.03677226330865511,0.9423078636826309,0.04768091440200806,-0.6257158517837524,-0.7785924673080444,0,0,0,-1,-1,5047.403190875,walking,2,2022-05-05T13:00:15.325+02:00,2022-05-05T12:55:18.700+02:00,166,0.7837186,0.715904,1.604483,121.79,0,0,2022-05-05T13:00:15.324+02:00,673441215.324246,0,0.7200003,101.4374,1,0.88
2022-05-05T13:00:16.370+02:00,1651748412.107787,53.22881737418903,10.39805232958421,41.12813,-1,-1,-1,-1,13.70551490783691,40,-9999,5048.447123375,0.055511474609375,-0.6250762939453125,-0.7696380615234375,5048.442126375,0.05493068241530314,0.06153797750363506,0.6746618448840767,-0.1455359011888504,-0.06030894815921783,-0.1490918844938278,-0.007467947900295258,0.004760265350341797,0.01070225238800049,XArbitraryZVertical,0.3298909499775028,0.03810410692830371,0.03608005895297803,0.9425594793503377,0.04802580550312996,-0.624633252620697,-0.7794401049613953,0,0,0,-1,-1,5047.403190875,walking,2,2022-05-05T13:00:15.325+02:00,2022-05-05T12:55:18.700+02:00,166,0.7837186,0.715904,1.604483,121.79,0,0,2022-05-05T13:00:15.324+02:00,673441215.324246,0,0.7200003,101.4374,1,0.88
2022-05-05T13:00:16.379+02:00,1651748412.107787,53.22881737418903,10.39805232958421,41.12813,-1,-1,-1,-1,13.70551490783691,40,-9999,5048.457119375001,0.0621795654296875,-0.6326446533203125,-0.7720489501953125,5048.452121375,0.05331019856264237,0.06166275716965153,0.6730685684825933,-0.1634814888238907,-0.08691658824682236,-0.1466569453477859,0.007327135652303696,-0.001688003540039062,0.01078832149505615,XArbitraryZVertical,0.3291680860810779,0.03788370007597727,0.03532077921724185,0.9428497669145872,0.04818432778120041,-0.6233882904052734,-0.7804263830184937,0,0,0,-1,-1,5047.403190875,walking,2,2022-05-05T13:00:15.325+02:00,2022-05-05T12:55:18.700+02:00,166,0.7837186,0.715904,1.604483,121.79,0,0,2022-05-05T13:00:15.324+02:00,673441215.324246,0,0.7200003,101.4374,1,0.88
2022-05-05T13:00:16.390+02:00,1651748413.391737,53.22891671681146,10.39822840132788,35.25131,1.14,1.92,61.875,71.46957634282852,24,30,-9999,5048.467114375,0.0635833740234375,-0.629486083984375,-0.777618408203125,5048.462116375001,0.05179694156028443,0.06143665577132869,0.6713299533619718,-0.1800567358732224,-0.1253595948219299,-0.1288936734199524,0.01410520821809769,-0.0106167197227478,0.009468913078308105,XArbitraryZVertical,0.3283803234756281,0.03751559791667852,0.03455238836965116,0.9431676207362927,0.04807434603571892,-0.6220278739929199,-0.7815178632736206,0,0,0,-1,-1,5047.403190875,walking,2,2022-05-05T13:00:15.325+02:00,2022-05-05T12:55:18.700+02:00,166,0.7837186,0.715904,1.604483,121.79,0,0,2022-05-05T13:00:15.324+02:00,673441215.324246,0,0.7200003,101.4374,1,0.88
2022-05-05T13:00:16.400+02:00,1651748413.391737,53.22891671681146,10.39822840132788,35.25131,1.14,1.92,61.875,71.46957634282852,24,30,-9999,5048.477109375001,0.055145263671875,-0.62432861328125,-0.7841033935546875,5048.472112375001,0.05042743478982468,0.06077267970638343,0.6694891195456953,-0.1964080035686493,-0.1580645442008972,-0.1220844984054565,0.01595846936106682,-0.008900582790374756,0.005072832107543945,XArbitraryZVertical,0.3275484417936138,0.03696489443895213,0.03377874731430727,0.9435065662422802,0.04762488976120949,-0.6205854415893555,-0.7826912403106689,0,0,0,-1,-1,5047.403190875,walking,2,2022-05-05T13:00:15.325+02:00,2022-05-05T12:55:18.700+02:00,166,0.7837186,0.715904,1.604483,121.79,0,0,2022-05-05T13:00:15.324+02:00,673441215.324246,0,0.7200003,101.4374,1,0.88
2022-05-05T13:00:16.410+02:00,1651748413.391737,53.22891671681146,10.39822840132788,35.25131,1.14,1.92,61.875,71.46957634282852,24,30,-9999,5048.487105375,0.0524444580078125,-0.621307373046875,-0.784393310546875,5048.482107375,0.04899379378137991,0.05992532007370931,0.66765043545582,-0.1742491722106934,-0.1732916980981827,-0.1428595632314682,0.008115340024232864,-0.005185902118682861,-0.0002344250679016113,XArbitraryZVertical,0.3267208481348005,0.03631810767409367,0.03294500296072016,0.9438479948031511,0.04702990874648094,-0.6191426515579224,-0.7838689684867859,0,0,0,-1,-1,5047.403190875,walking,2,2022-05-05T13:00:15.325+02:00,2022-05-05T12:55:18.700+02:00,166,0.7837186,0.715904,1.604483,121.79,0,0,2022-05-05T13:00:15.324+02:00,673441215.324246,0,0.7200003,101.4374,1,0.88
2022-05-05T13:00:16.419+02:00,1651748413.391737,53.22891671681146,10.39822840132788,35.25131,1.14,1.92,61.875,71.46957634282852,24,30,-9999,5048.497100375001,0.0437469482421875,-0.5994720458984375,-0.7858123779296875,5048.492103375001,0.04732781001299407,0.05912452400256757,0.6661346083642868,-0.1425224393606186,-0.1639419347047806,-0.1493871659040451,0.005986869335174561,-0.003355801105499268,0.000449061393737793,XArbitraryZVertical,0.3260479700014514,0.03565839628388331,0.03201263907245602,0.9441379729778566,0.04645758122205734,-0.6179515719413757,-0.7848423719406128,0,0,0,-1,-1,5047.403190875,walking,2,2022-05-05T13:00:15.325+02:00,2022-05-05T12:55:18.700+02:00,166,0.7837186,0.715904,1.604483,121.79,0,0,2022-05-05T13:00:15.324+02:00,673441215.324246,0,0.7200003,101.4374,1,0.88
2022-05-05T13:00:16.430+02:00,1651748413.391737,53.22891671681146,10.39822840132788,35.25131,1.14,1.92,61.875,71.46957634282852,24,30,-9999,5048.507096375,0.042694091796875,-0.5984039306640625,-0.7899627685546875,5048.502098375,0.04562253170293483,0.05857773084678796,0.6649172777819794,-0.1119868978857994,-0.1340285092592239,-0.1498675942420959,-0.002325493842363358,0.01752203702926636,-0.0001943111419677734,XArbitraryZVertical,0.325511760800452,0.03511495408069297,0.03110615923493355,0.9443736393684607,0.04607243090867996,-0.6169940233230591,-0.7856180667877197,0,0,0,-1,-1,5047.403190875,walking,2,2022-05-05T13:00:15.325+02:00,2022-05-05T12:55:18.700+02:00,166,0.7837186,0.715904,1.604483,121.79,0,0,2022-05-05T13:00:15.324+02:00,673441215.324246,0,0.7200003,101.4374,1,0.88
2022-05-05T13:00:16.440+02:00,1651748413.391737,53.22891671681146,10.39822840132788,35.25131,1.14,1.92,61.875,71.46957634282852,24,30,-9999,5048.517091375001,0.0465087890625,-0.6099853515625,-0.79742431640625,5048.512093375,0.04395770145566669,0.05830205525675782,0.6638652057040879,-0.1080222502350807,-0.110178031027317,-0.1396181434392929,-0.003199569880962372,0.01776182651519775,-0.003684461116790771,XArbitraryZVertical,0.3250480096805898,0.03470788339785073,0.03026444529570885,0.9445757226075413,0.04589365422725677,-0.6161657571792603,-0.7862783074378967,0,0,0,-1,-1,5047.403190875,walking,2,2022-05-05T13:00:15.325+02:00,2022-05-05T12:55:18.700+02:00,166,0.7837186,0.715904,1.604483,121.79,0,0,2022-05-05T13:00:15.324+02:00,673441215.324246,0,0.7200003,101.4374,1,0.88
2022-05-05T13:00:16.450+02:00,1651748413.391737,53.22891671681146,10.39822840132788,35.25131,1.14,1.92,61.875,71.46957634282852,24,30,-9999,5048.527086375,0.0548248291015625,-0.6221160888671875,-0.80712890625,5048.522089375,0.04234621593833011,0.05826461550118236,0.6628011209728352,-0.1082198545336723,-0.09674744307994843,-0.1279766708612442,0.0006064139306545258,0.005341947078704834,-0.01049017906188965,XArbitraryZVertical,0.3245735840196788,0.03442268208791266,0.02948628029849111,0.9447739188224683,0.04590236768126488,-0.6153272986412048,-0.7869341373443604,0,0,0,-1,-1,5047.403190875,walking,2,2022-05-05T13:00:15.325+02:00,2022-05-05T12:55:18.700+02:00,166,0.7837186,0.715904,1.604483,121.79,0,0,2022-05-05T13:00:15.324+02:00,673441215.324246,0,0.7200003,101.4374,1,0.88
2022-05-05T13:00:16.459+02:00,1651748413.391737,53.22891671681146,10.39822840132788,35.25131,1.14,1.92,61.875,71.46957634282852,24,30,-9999,5048.537082375,0.0532684326171875,-0.6243896484375,-0.8095855712890625,5048.532084375001,0.04086711559562946,0.05827701777009608,0.6617228696656814,-0.120975635945797,-0.09657441079616547,-0.1118916496634483,0.008874073624610901,-0.007639050483703613,-0.01953345537185669,XArbitraryZVertical,0.3240891536491123,0.03418318578477147,0.0287783064661766,0.9449707275162893,0.0459507443010807,-0.6144769787788391,-0.7875954508781433,0,0,0,-1,-1,5047.403190875,walking,2,2022-05-05T13:00:15.325+02:00,2022-05-05T12:55:18.700+02:00,166,0.7837186,0.715904,1.604483,121.79,0,0,2022-05-05T13:00:15.324+02:00,673441215.324246,0,0.7200003,101.4374,1,0.88
2022-05-05T13:00:16.470+02:00,1651748413.391737,53.22891671681146,10.39822840132788,35.25131,1.14,1.92,61.875,71.46957634282852,24,30,-9999,5048.547077375,0.043212890625,-0.6143951416015625,-0.812408447265625,5048.542079375,0.03961616840366623,0.05827452007214827,0.6605885074532208,-0.1280873417854309,-0.07470773160457611,-0.08541716635227203,0.007279075682163239,-0.01080799102783203,-0.02129471302032471,XArbitraryZVertical,0.3235742713445331,0.03397403231022524,0.02817486225600093,0.9451728534938655,0.04598934575915337,-0.613581657409668,-0.7882909178733826,0,0,0,-1,-1,5047.403190875,walking,2,2022-05-05T13:00:15.325+02:00,2022-05-05T12:55:18.700+02:00,166,0.7837186,0.715904,1.604483,121.79,0,0,2022-05-05T13:00:15.324+02:00,673441215.324246,0,0.7200003,101.4374,1,0.88
2022-05-05T13:00:16.480+02:00,1651748413.391737,53.22891671681146,10.39822840132788,35.25131,1.14,1.92,61.875,71.46957634282852,24,30,-9999,5048.557072375001,0.042022705078125,-0.6017608642578125,-0.81964111328125,5048.552075375001,0.03866869523556469,0.05832021644347185,0.65942438862139,-0.120853029191494,-0.05064746364951134,-0.06546576321125031,-0.002854090183973312,-0.001733064651489258,-0.02340710163116455,XArbitraryZVertical,0.3230392942518628,0.03383719504295725,0.02772208564293957,0.9453740729688884,0.04606696963310242,-0.6126620173454285,-0.7890013456344604,0,0,0,-1,-1,5047.403190875,walking,2,2022-05-05T13:00:15.325+02:00,2022-05-05T12:55:18.700+02:00,166,0.7837186,0.715904,1.604483,121.79,0,0,2022-05-05T13:00:15.324+02:00,673441215.324246,0,0.7200003,101.4374,1,0.88
2022-05-05T13:00:16.490+02:00,1651748413.391737,53.22891671681146,10.39822840132788,35.25131,1.14,1.92,61.875,71.46957634282852,24,30,-9999,5048.567068375,0.0387420654296875,-0.5959625244140625,-0.8245391845703125,5048.562070375,0.03795790547196659,0.05836127129217558,0.6584403090345572,-0.08377011120319366,-0.03957697004079819,-0.0541587807238102,-0.004111811518669128,0.01012313365936279,-0.03004014492034912,XArbitraryZVertical,0.3225853245561383,0.03373760027927912,0.02738216817942014,0.9455426196644544,0.04613450542092323,-0.6118839383125305,-0.7896009683609009,0,0,0,-1,-1,5047.403190875,walking,2,2022-05-05T13:00:15.325+02:00,2022-05-05T12:55:18.700+02:00,166,0.7837186,0.715904,1.604483,121.79,0,0,2022-05-05T13:00:15.324+02:00,673441215.324246,0,0.7200003,101.4374,1,0.88
2022-05-05T13:00:16.500+02:00,1651748413.391737,53.22891671681146,10.39822840132788,35.25131,1.14,1.92,61.875,71.46957634282852,24,30,-9999,5048.577063375,0.0399017333984375,-0.596923828125,-0.8210906982421875,5048.572066375001,0.03734338613679822,0.05847583726868921,0.6578627471333888,-0.04238361865282059,-0.01607157662510872,-0.04562447965145111,-0.007503557950258255,0.01546454429626465,-0.03459084033966064,XArbitraryZVertical,0.3223209422395364,0.03369027142529353,0.02710387166657531,0.9456425045845659,0.04624561592936516,-0.6114270687103271,-0.7899483442306519,0,0,0,-1,-1,5047.403190875,walking,2,2022-05-05T13:00:15.325+02:00,2022-05-05T12:55:18.700+02:00,166,0.7837186,0.715904,1.604483,121.79,0,0,2022-05-05T13:00:15.324+02:00,673441215.324246,0,0.7200003,101.4374,1,0.88
2022-05-05T13:00:16.510+02:00,1651748413.391737,53.22891671681146,10.39822840132788,35.25131,1.14,1.92,61.875,71.46957634282852,24,30,-9999,5048.587059375001,0.0465545654296875,-0.6037750244140625,-0.81744384765625,5048.582061375,0.03685320058579183,0.05870493481355073,0.6575434954586443,-0.009455496445298195,0.005122390575706959,-0.04095276445150375,-0.006536312401294708,0.01425057649612427,-0.03095817565917969,XArbitraryZVertical,0.3221750825633624,0.03371832240375279,0.02690553698262045,0.9456969181663509,0.04643803834915161,-0.6111744046211243,-0.7901325821876526,0,0,0,-1,-1,5047.403190875,walking,2,2022-05-05T13:00:15.325+02:00,2022-05-05T12:55:18.700+02:00,166,0.7837186,0.715904,1.604483,121.79,0,0,2022-05-05T13:00:15.324+02:00,673441215.324246,0,0.7200003,101.4374,1,0.88
2022-05-05T13:00:16.520+02:00,1651748413.391737,53.22891671681146,10.39822840132788,35.25131,1.14,1.92,61.875,71.46957634282852,24,30,-9999,5048.597054375,0.052459716796875,-0.6138153076171875,-0.8162384033203125,5048.592056375001,0.03635008043211554,0.05913305766806364,0.6574180447291754,0.001407937612384558,0.02664286270737648,-0.04172561317682266,-0.000226285308599472,0.007300138473510742,-0.02725476026535034,XArbitraryZVertical,0.3221185492564075,0.03383924031995585,0.02673522367809487,0.945716550713381,0.04678083583712578,-0.6110751032829285,-0.7901890873908997,0,0,0,-1,-1,5047.403190875,walking,2,2022-05-05T13:00:15.325+02:00,2022-05-05T12:55:18.700+02:00,166,0.7837186,0.715904,1.604483,121.79,0,0,2022-05-05T13:00:15.324+02:00,673441215.324246,0,0.7200003,101.4374,1,0.88
2022-05-05T13:00:16.530+02:00,1651748413.391737,53.22891671681146,10.39822840132788,35.25131,1.14,1.92,61.875,71.46957634282852,24,30,-9999,5048.607049375,0.0611724853515625,-0.625762939453125,-0.813629150390625,5048.602052375,0.03584586883257625,0.05975973381021735,0.6573423539970896,-0.004351414274424314,0.03628616780042648,-0.03825205191969872,0.005180925130844116,-0.002800107002258301,-0.02603262662887573,XArbitraryZVertical,0.322082932728616,0.03405408185317399,0.02659688234488156,0.9457249093030206,0.04727878421545029,-0.6110151410102844,-0.7902058362960815,0,0,0,-1,-1,5047.403190875,walking,2,2022-05-05T13:00:15.325+02:00,2022-05-05T12:55:18.700+02:00,166,0.7837186,0.715904,1.604483,121.79,0,0,2022-05-05T13:00:15.324+02:00,673441215.324246,0,0.7200003,101.4374,1,0.88
2022-05-05T13:00:16.540+02:00,1651748413.391737,53.22891671681146,10.39822840132788,35.25131,1.14,1.92,61.875,71.46957634282852,24,30,-9999,5048.617045375,0.0693206787109375,-0.634185791015625,-0.814788818359375,5048.612047375001,0.03527249136888681,0.06050602343835713,0.6572250827225633,-0.01080371998250484,0.03439585864543915,-0.04963599890470505,0.01329965144395828,-0.01484060287475586,-0.02338731288909912,XArbitraryZVertical,0.3220273608796853,0.03431422946631082,0.02644459281312541,0.9457387065334353,0.04787282645702362,-0.6109223365783691,-0.7902418375015259,0,0,0,-1,-1,5047.403190875,walking,2,2022-05-05T13:00:15.325+02:00,2022-05-05T12:55:18.700+02:00,166,0.7837186,0.715904,1.604483,121.79,0,0,2022-05-05T13:00:15.324+02:00,673441215.324246,0,0.7200003,101.4374,1,0.88
2022-05-05T13:00:16.550+02:00,1651748413.391737,53.22891671681146,10.39822840132788,35.25131,1.14,1.92,61.875,71.46957634282852,24,30,-9999,5048.627040375,0.07183837890625,-0.6330108642578125,-0.8137054443359375,5048.622042375,0.034635879554872,0.06117712461350682,0.6569723420001564,-0.03456337749958038,0.02015247382223606,-0.05329225212335587,0.02090808749198914,-0.02346354722976685,-0.02442526817321777,XArbitraryZVertical,0.3219099410993587,0.03452824843636418,0.02624866748468966,0.9457762877617367,0.04841258376836777,-0.6107222437858582,-0.7903635501861572,0,0,0,-1,-1,5047.403190875,walking,2,2022-05-05T13:00:15.325+02:00,2022-05-05T12:55:18.700+02:00,166,0.7837186,0.715904,1.604483,121.79,0,0,2022-05-05T13:00:15.324+02:00,673441215.324246,0,0.7200003,101.4374,1,0.88
2022-05-05T13:00:16.560+02:00,1651748413.391737,53.22891671681146,10.39822840132788,35.25131,1.14,1.92,61.875,71.46957634282852,24,30,-9999,5048.637036375,0.069549560546875,-0.628082275390625,-0.81549072265625,5048.632038375,0.03410568268589242,0.06161775462309924,0.6564403334509507,-0.05660822242498398,0.007198590785264969,-0.04291444644331932,0.02305752411484718,-0.02270996570587158,-0.02303904294967651,XArbitraryZVertical,0.3216616464393928,0.03464962656763907,0.02606256992164829,0.9458615203741567,0.04878083989024162,-0.6103008389472961,-0.790666401386261,0,0,0,-1,-1,5047.403190875,walking,2,2022-05-05T13:00:15.325+02:00,2022-05-05T12:55:18.700+02:00,166,0.7837186,0.715904,1.604483,121.79,0,0,2022-05-05T13:00:15.324+02:00,673441215.324246,0,0.7200003,101.4374,1,0.88
2022-05-05T13:00:16.570+02:00,1651748413.391737,53.22891671681146,10.39822840132788,35.25131,1.14,1.92,61.875,71.46957634282852,24,30,-9999,5048.647031375001,0.066162109375,-0.62493896484375,-0.815582275390625,5048.642033375,0.03364676867467647,0.06186526427949762,0.6557429304010507,-0.05764526128768921,-0.008665859699249268,-0.03985926881432533,0.02054671570658684,-0.01833397150039673,-0.02441185712814331,XArbitraryZVertical,0.3213364217263086,0.03469079638653851,0.02587702300361153,0.9459756572890435,0.04900283738970757,-0.6097482442855835,-0.7910789251327515,0,0,0,-1,-1,5047.403190875,walking,2,2022-05-05T13:00:15.325+02:00,2022-05-05T12:55:18.700+02:00,166,0.7837186,0.715904,1.604483,121.79,0,0,2022-05-05T13:00:15.324+02:00,673441215.324246,0,0.7200003,101.4374,1,0.88
2022-05-05T13:00:16.580+02:00,1651748413.391737,53.22891671681146,10.39822840132788,35.25131,1.14,1.92,61.875,71.46957634282852,24,30,-9999,5048.657026375,0.0593719482421875,-0.618377685546875,-0.8157501220703125,5048.652029375,0.03318494499115947,0.06195857939873765,0.6550752828970696,-0.04565774276852608,-0.02260384522378445,-0.04648301750421524,0.01706024631857872,-0.0157199501991272,-0.02410179376602173,XArbitraryZVertical,0.3210273060711,0.03465881830744551,0.02566557184554883,0.9460875387831568,0.04910185188055038,-0.609218955039978,-0.7914804816246033,0,0,0,-1,-1,5047.403190875,walking,2,2022-05-05T13:00:15.325+02:00,2022-05-05T12:55:18.700+02:00,166,0.7837186,0.715904,1.604483,121.79,0,0,2022-05-05T13:00:15.324+02:00,673441215.324246,0,0.7200003,101.4374,1,0.88
2022-05-05T13:00:16.590+02:00,1651748413.391737,53.22891671681146,10.39822840132788,35.25131,1.14,1.92,61.875,71.46957634282852,24,30,-9999,5048.667022375001,0.0542144775390625,-0.6093902587890625,-0.8076171875,5048.662024375,0.03265106058451908,0.06202868117018451,0.654639439879493,-0.02315589413046837,-0.01992577128112316,-0.0446009635925293,0.01019814610481262,-0.009504437446594238,-0.02400815486907959,XArbitraryZVertical,0.3208293876969623,0.0346050867320567,0.02541901655381154,0.9461633363697793,0.04917379468679428,-0.6088732481002808,-0.7917419672012329,0,0,0,-1,-1,5047.403190875,walking,2,2022-05-05T13:00:15.325+02:00,2022-05-05T12:55:18.700+02:00,166,0.7837186,0.715904,1.604483,121.79,0,0,2022-05-05T13:00:15.324+02:00,673441215.324246,0,0.7200003,101.4374,1,0.88
2022-05-05T13:00:16.600+02:00,1651748413.391737,53.22891671681146,10.39822840132788,35.25131,1.14,1.92,61.875,71.46957634282852,24,30,-9999,5048.677017375,0.0545806884765625,-0.613067626953125,-0.79571533203125,5048.672019375001,0.0321031514227613,0.06217964534678638,0.654363051884903,-0.01598979532718658,-0.01503314450383186,-0.04840009659528732,0.004910696297883987,-0.0007362961769104004,-0.01571476459503174,XArbitraryZVertical,0.3207061948370601,0.03458789857716388,0.02518067861993089,0.9462119935096405,0.04930377006530762,-0.6086539626121521,-0.7919024229049683,0,0,0,-1,-1,5047.403190875,walking,2,2022-05-05T13:00:15.325+02:00,2022-05-05T12:55:18.700+02:00,166,0.7837186,0.715904,1.604483,121.79,0,0,2022-05-05T13:00:15.324+02:00,673441215.324246,0,0.7200003,101.4374,1,0.88
2022-05-05T13:00:16.610+02:00,1651748413.391737,53.22891671681146,10.39822840132788,35.25131,1.14,1.92,61.875,71.46957634282852,24,30,-9999,5048.687012375,0.0571136474609375,-0.62115478515625,-0.790008544921875,5048.682015375,0.03132655319317701,0.06250538437429928,0.6541334351460626,-0.01798396930098534,-0.01786142215132713,-0.07338240742683411,0.005010232329368591,-0.00459587574005127,-0.00368952751159668,XArbitraryZVertical,0.3206068791732219,0.03461692618945721,0.02486267860657383,0.9462530089472175,0.04957044869661331,-0.6084718108177185,-0.7920258045196533,0,0,0,-1,-1,5047.403190875,walking,2,2022-05-05T13:00:15.325+02:00,2022-05-05T12:55:18.700+02:00,166,0.7837186,0.715904,1.604483,121.79,0,0,2022-05-05T13:00:15.324+02:00,673441215.324246,0,0.7200003,101.4374,1,0.88
2022-05-05T13:00:16.620+02:00,1651748413.391737,53.22891671681146,10.39822840132788,35.25131,1.14,1.92,61.875,71.46957634282852,24,30,-9999,5048.697008375,0.052215576171875,-0.6221771240234375,-0.7851409912109375,5048.692010375,0.03038519414847191,0.06292342903731819,0.6538651926582633,-0.02308385632932186,-0.01933667995035648,-0.07431065291166306,0.007201828062534332,-0.01289588212966919,0.002159357070922852,XArbitraryZVertical,0.3204910358202696,0.0346632306697419,0.02448096535162651,0.9463005953148107,0.04991181194782257,-0.6082589030265808,-0.7921679019927979,0,0,0,-1,-1,5047.403190875,walking,2,2022-05-05T13:00:15.325+02:00,2022-05-05T12:55:18.700+02:00,166,0.7837186,0.715904,1.604483,121.79,0,0,2022-05-05T13:00:15.324+02:00,673441215.324246,0,0.7200003,101.4374,1,0.88
2022-05-05T13:00:16.630+02:00,1651748413.391737,53.22891671681146,10.39822840132788,35.25131,1.14,1.92,61.875,71.46957634282852,24,30,-9999,5048.707003375001,0.04339599609375,-0.616607666015625,-0.7833404541015625,5048.702006375001,0.02946662076901452,0.06333355496367404,0.6535548772684502,-0.03227655589580536,-0.01752706244587898,-0.06905543804168701,0.001966927200555801,-0.0141645073890686,0.007194697856903076,XArbitraryZVertical,0.3203551349246461,0.03470949952521544,0.02410814858686983,0.9463544148608348,0.0502486377954483,-0.6080125570297241,-0.7923356890678406,0,0,0,-1,-1,5047.403190875,walking,2,2022-05-05T13:00:15.325+02:00,2022-05-05T12:55:18.700+02:00,166,0.7837186,0.715904,1.604483,121.79,0,0,2022-05-05T13:00:15.324+02:00,673441215.324246,0,0.7200003,101.4374,1,0.88
2022-05-05T13:00:16.640+02:00,1651748413.391737,53.22891671681146,10.39822840132788,35.25131,1.14,1.92,61.875,71.46957634282852,24,30,-9999,5048.716999375,0.03680419921875,-0.6047515869140625,-0.7847137451171875,5048.712001375,0.02857838233727488,0.06375944695465376,0.6532345438134324,-0.02785810641944408,-0.01358984410762787,-0.06813398748636246,-0.007202506065368652,-0.008849442005157471,0.009168028831481934,XArbitraryZVertical,0.3202138395661758,0.03476821564021609,0.02375197232200346,0.9464090883633786,0.05059849098324776,-0.6077582240104675,-0.7925085425376892,0,0,0,-1,-1,5047.403190875,walking,2,2022-05-05T13:00:15.325+02:00,2022-05-05T12:55:18.700+02:00,166,0.7837186,0.715904,1.604483,121.79,0,0,2022-05-05T13:00:15.324+02:00,673441215.324246,0,0.7200003,101.4374,1,0.88
2022-05-05T13:00:16.650+02:00,1651748413.391737,53.22891671681146,10.39822840132788,35.25131,1.14,1.92,61.875,71.46957634282852,24,30,-9999,5048.726994375001,0.0364990234375,-0.6054229736328125,-0.7816162109375,5048.721996375,0.02765407626215889,0.06421598254409024,0.6529216172779085,-0.02618377469480038,-0.01556937210261822,-0.0758049488067627,-0.01416830718517303,0.00275808572769165,0.007961392402648926,XArbitraryZVertical,0.3200763931677688,0.03483582031293553,0.02338361497495439,0.9464623287345134,0.05097249522805214,-0.6075096726417542,-0.7926751375198364,0,0,0,-1,-1,5047.403190875,walking,2,2022-05-05T13:00:15.325+02:00,2022-05-05T12:55:18.700+02:00,166,0.7837186,0.715904,1.604483,121.79,0,0,2022-05-05T13:00:15.324+02:00,673441215.324246,0,0.7200003,101.4374,1,0.88
2022-05-05T13:00:16.660+02:00,1651748413.391737,53.22891671681146,10.39822840132788,35.25131,1.14,1.92,61.875,71.46957634282852,24,30,-9999,5048.736989375,0.050506591796875,-0.6129608154296875,-0.77996826171875,5048.731992375,0.02665844628123777,0.06472737194683231,0.6525687109727287,-0.03618644177913666,-0.009568937122821808,-0.08050496876239777,-0.01489270478487015,0.001806378364562988,0.01124662160873413,XArbitraryZVertical,0.3199207750925824,0.03491808946377069,0.02298964169519643,0.9465215367417369,0.05139172077178955,-0.6072292923927307,-0.7928628325462341,0,0,0,-1,-1,5047.403190875,walking,2,2022-05-05T13:00:15.325+02:00,2022-05-05T12:55:18.700+02:00,166,0.7837186,0.715904,1.604483,121.79,0,0,2022-05-05T13:00:15.324+02:00,673441215.324246,0,0.7200003,101.4374,1,0.88
2022-05-05T13:00:16.670+02:00,1651748413.391737,53.22891671681146,10.39822840132788,35.25131,1.14,1.92,61.875,71.46957634282852,24,30,-9999,5048.746985375,0.0599517822265625,-0.6181488037109375,-0.775909423828125,5048.741987375,0.02559985953973752,0.06523649986610311,0.6519542530665763,-0.07364513725042343,-0.02305625006556511,-0.09649884700775146,-0.001313112676143646,-0.006219804286956787,0.01324045658111572,XArbitraryZVertical,0.3196425919609999,0.03498919309972941,0.02256186550112148,0.9466231512912748,0.05181969329714775,-0.6067410111427307,-0.7932087182998657,0,0,0,-1,-1,5047.403190875,walking,2,2022-05-05T13:00:15.325+02:00,2022-05-05T12:55:18.700+02:00,166,0.7837186,0.715904,1.604483,121.79,0,0,2022-05-05T13:00:15.324+02:00,673441215.324246,0,0.7200003,101.4374,1,0.88
2022-05-05T13:00:16.680+02:00,1651748413.391737,53.22891671681146,10.39822840132788,35.25131,1.14,1.92,61.875,71.46957634282852,24,30,-9999,5048.756980375,0.0670623779296875,-0.615966796875,-0.77093505859375,5048.751982375,0.02426286889777251,0.0656867342502231,0.6508770303104874,-0.1240463629364967,-0.05139807611703873,-0.1294526010751724,0.007732082158327103,-0.0122644305229187,0.01792764663696289,XArbitraryZVertical,0.319150901345881,0.03498807914390237,0.0219863411929002,0.9468026571101906,0.0522196926176548,-0.6058843731880188,-0.7938370704650879,0,0,0,-1,-1,5047.403190875,walking,2,2022-05-05T13:00:15.325+02:00,2022-05-05T12:55:18.700+02:00,166,0.7837186,0.715904,1.604483,121.79,0,0,2022-05-05T13:00:15.324+02:00,673441215.324246,0,0.7200003,101.4374,1,0.88
2022-05-05T13:00:16.690+02:00,1651748413.391737,53.22891671681146,10.39822840132788,35.25131,1.14,1.92,61.875,71.46957634282852,24,30,-9999,5048.766975375001,0.069427490234375,-0.6156005859375,-0.7677459716796875,5048.761978375001,0.02246034780598815,0.06606095666546906,0.6492916316123354,-0.1803061664104462,-0.09331464022397995,-0.176537811756134,0.01448226347565651,-0.01134443283081055,0.02383989095687866,XArbitraryZVertical,0.3184274921574076,0.03487751229335104,0.02117077067650264,0.9470689255408393,0.05258010700345039,-0.6046223044395447,-0.7947750091552734,0,0,0,-1,-1,5047.403190875,walking,2,2022-05-05T13:00:15.325+02:00,2022-05-05T12:55:18.700+02:00,166,0.7837186,0.715904,1.604483,121.79,0,0,2022-05-05T13:00:15.324+02:00,673441215.324246,0,0.7200003,101.4374,1,0.88
2022-05-05T13:00:16.700+02:00,1651748413.391737,53.22891671681146,10.39822840132788,35.25131,1.14,1.92,61.875,71.46957634282852,24,30,-9999,5048.776971375,0.0708465576171875,-0.6169891357421875,-0.7622222900390625,5048.771973375,0.02012050660277646,0.06632123649063677,0.6472035034735639,-0.2337197214365005,-0.1457791775465012,-0.2228850871324539,0.01655696332454681,-0.01264274120330811,0.02827322483062744,XArbitraryZVertical,0.3174763003741525,0.03462928752015271,0.02007474526668736,0.9474210322215113,0.05287051945924759,-0.6029577851295471,-0.7960191965103149,0,0,0,-1,-1,5047.403190875,walking,2,2022-05-05T13:00:15.325+02:00,2022-05-05T12:55:18.700+02:00,166,0.7837186,0.715904,1.604483,121.79,0,0,2022-05-05T13:00:15.324+02:00,673441215.324246,0,0.7200003,101.4374,1,0.88
2022-05-05T13:00:16.710+02:00,1651748413.391737,53.22891671681146,10.39822840132788,35.25131,1.14,1.92,61.875,71.46957634282852,24,30,-9999,5048.786966375001,0.0588836669921875,-0.6165771484375,-0.7495574951171875,5048.781969375001,0.01706708047284027,0.06631906583029994,0.6445829321842739,-0.2932493686676025,-0.226545661687851,-0.299155056476593,0.01787322014570236,-0.01612401008605957,0.03537094593048096,XArbitraryZVertical,0.3162868372758162,0.03414670688245953,0.01859028552930518,0.9478666873147844,0.05297332629561424,-0.6008651256561279,-0.7975932955741882,0,0,0,-1,-1,5047.403190875,walking,2,2022-05-05T13:00:15.325+02:00,2022-05-05T12:55:18.700+02:00,166,0.7837186,0.715904,1.604483,121.79,0,0,2022-05-05T13:00:15.324+02:00,673441215.324246,0,0.7200003,101.4374,1,0.88
2022-05-05T13:00:16.720+02:00,1651748413.391737,53.22891671681146,10.39822840132788,35.25131,1.14,1.92,61.875,71.46957634282852,24,30,-9999,5048.796962375,-0.193359375,-0.850067138671875,-0.751068115234375,5048.791964375,0.01064382833014707,0.06684363751695675,0.6405363804485937,-0.5626301765441895,-0.5254711508750916,-1.131038665771484,0.005329977720975876,-0.01895153522491455,0.05042725801467896,XArbitraryZVertical,0.3144720607396436,0.03339050590477276,0.01556824200646552,0.9485515494762419,0.05355367809534073,-0.5976256132125854,-0.7999848127365112,0,0,0,-1,-1,5047.403190875,walking,2,2022-05-05T13:00:15.325+02:00,2022-05-05T12:55:18.700+02:00,166,0.7837186,0.715904,1.604483,121.79,0,0,2022-05-05T13:00:15.324+02:00,673441215.324246,0,0.7200003,101.4374,1,0.88
2022-05-05T13:00:16.730+02:00,1651748413.391737,53.22891671681146,10.39822840132788,35.25131,1.14,1.92,61.875,71.46957634282852,24,30,-9999,5048.806957375,0.231719970703125,-0.50201416015625,-0.707061767578125,5048.801959375,-0.001220676516754646,0.07245262925797789,0.6333940590421446,-0.7290310859680176,-0.1819108873605728,-0.8463816046714783,-0.2517068088054657,-0.2581833004951477,0.05284053087234497,XArbitraryZVertical,0.3112461425572355,0.03422726117830254,0.01069986708874986,0.9496525695650009,0.0583474300801754,-0.5918838381767273,-0.80390864610672,0,0,0,-1,-1,5047.403190875,walking,2,2022-05-05T13:00:15.325+02:00,2022-05-05T12:55:18.700+02:00,166,0.7837186,0.715904,1.604483,121.79,0,0,2022-05-05T13:00:15.324+02:00,673441215.324246,0,0.7200003,101.4374,1,0.88
2022-05-05T13:00:16.740+02:00,1651748413.391737,53.22891671681146,10.39822840132788,35.25131,1.14,1.92,61.875,71.46957634282852,24,30,-9999,5048.816952375,0.0611724853515625,-0.569976806640625,-0.6837921142578125,5048.811955375,-0.01044685073721333,0.07404383460951559,0.625450798798125,-0.7526288628578186,-0.5524740219116211,-0.7976526618003845,0.1717475056648254,0.08344864845275879,0.1014162302017212,XArbitraryZVertical,0.3076219168761766,0.03361188030899988,0.006420490421037,0.9508932118780814,0.05997245013713837,-0.5854628086090088,-0.8084779977798462,0,0,0,-1,-1,5047.403190875,walking,2,2022-05-05T13:00:15.325+02:00,2022-05-05T12:55:18.700+02:00,166,0.7837186,0.715904,1.604483,121.79,0,0,2022-05-05T13:00:15.324+02:00,673441215.324246,0,0.7200003,101.4374,1,0.88
2022-05-05T13:00:16.750+02:00,1651748413.391737,53.22891671681146,10.39822840132788,35.25131,1.14,1.92,61.875,71.46957634282852,24,30,-9999,5048.826948375,-0.15277099609375,-0.679718017578125,-0.72015380859375,5048.821950375001,-0.02221069976395788,0.07495673156810193,0.6158720875655176,-0.9386394619941711,-0.4361527264118195,-1.144106268882751,4.481896758079529e-05,0.007693827152252197,0.1301858425140381,XArbitraryZVertical,0.3032573832649516,0.03234134671746502,0.0007807274248813924,0.9523595023333693,0.06112765520811081,-0.5776705741882324,-0.8139780163764954,0,0,0,-1,-1,5047.403190875,walking,2,2022-05-05T13:00:15.325+02:00,2022-05-05T12:55:18.700+02:00,166,0.7837186,0.715904,1.604483,121.79,0,0,2022-05-05T13:00:15.324+02:00,673441215.324246,0,0.7200003,101.4374,1,0.88
2022-05-05T13:00:16.760+02:00,1651748413.391737,53.22891671681146,10.39822840132788,35.25131,1.14,1.92,61.875,71.46957634282852,24,30,-9999,5048.836943375,-0.184326171875,-0.6706390380859375,-0.6826019287109375,5048.831946375,-0.03411216915550226,0.07830344245907359,0.6064829487094179,-0.7922589778900146,-0.2794428765773773,-0.8910232186317444,-0.2170439064502716,-0.1097368001937866,0.09898626804351807,XArbitraryZVertical,0.2989801875283042,0.03226132721672816,-0.004577997163171497,0.9537029327708804,0.06427290290594101,-0.5699811577796936,-0.8191401362419128,0,0,0,-1,-1,5047.403190875,walking,2,2022-05-05T13:00:15.325+02:00,2022-05-05T12:55:18.700+02:00,166,0.7837186,0.715904,1.604483,121.79,0,0,2022-05-05T13:00:15.324+02:00,673441215.324246,0,0.7200003,101.4374,1,0.88
2022-05-05T13:00:16.770+02:00,1651748413.391737,53.22891671681146,10.39822840132788,35.25131,1.14,1.92,61.875,71.46957634282852,24,30,-9999,5048.846939375,-0.5442352294921875,-0.71112060546875,-0.727447509765625,5048.841941375001,-0.03382176447635914,0.07562985036922061,0.59884001545296,-0.777209460735321,-0.001130311517044902,0.3478952348232269,-0.246736153960228,-0.1069542765617371,0.1410269737243652,XArbitraryZVertical,0.2953238751576948,0.0311343419797829,-0.00499629219957444,0.9548767931610931,0.06240997090935707,-0.5636847019195557,-0.8236289024353027,0,0,0,-1,-1,5047.403190875,walking,2,2022-05-05T13:00:15.325+02:00,2022-05-05T12:55:18.700+02:00,166,0.7837186,0.715904,1.604483,121.79,0,0,2022-05-05T13:00:15.324+02:00,673441215.324246,0,0.7200003,101.4374,1,0.88
2022-05-05T13:00:16.780+02:00,1651748413.391737,53.22891671681146,10.39822840132788,35.25131,1.14,1.92,61.875,71.46957634282852,24,30,-9999,5048.856934375,-0.1579437255859375,-0.6785736083984375,-0.715789794921875,5048.851936375,-0.03373241330573213,0.07737378048311103,0.5911919208062979,-0.7406690716743469,0.334940642118454,-0.3700104057788849,-0.6084128618240356,-0.1537695527076721,0.1003453731536865,XArbitraryZVertical,0.2916746361458969,0.03208510867645676,-0.00485639656642565,0.955967043193049,0.06417758762836456,-0.5573510527610779,-0.8277928829193115,0,0,0,-1,-1,5047.403190875,walking,2,2022-05-05T13:00:15.325+02:00,2022-05-05T12:55:18.700+02:00,166,0.7837186,0.715904,1.604483,121.79,0,0,2022-05-05T13:00:15.324+02:00,673441215.324246,0,0.7200003,101.4374,1,0.88
2022-05-05T13:00:16.790+02:00,1651748413.391737,53.22891671681146,10.39822840132788,35.25131,1.14,1.92,61.875,71.46957634282852,24,30,-9999,5048.866929375,0.0750274658203125,-0.676849365234375,-0.6624298095703125,5048.861932375,-0.03800288225779637,0.08245606490745414,0.5830837868917682,-0.8390970826148987,0.1065410226583481,-0.4172010719776154,-0.2266975045204163,-0.1279727816581726,0.1161426901817322,XArbitraryZVertical,0.2878833793030727,0.03401336896191872,-0.006338402834373934,0.9570402808253143,0.06875377148389816,-0.5506008267402649,-0.8319324851036072,0,0,0,-1,-1,5047.403190875,walking,2,2022-05-05T13:00:15.325+02:00,2022-05-05T12:55:18.700+02:00,166,0.7837186,0.715904,1.604483,121.79,0,0,2022-05-05T13:00:15.324+02:00,673441215.324246,0,0.7200003,101.4374,1,0.88
2022-05-05T13:00:16.800+02:00,1651748413.391737,53.22891671681146,10.39822840132788,35.25131,1.14,1.92,61.875,71.46957634282852,24,30,-9999,5048.876925375001,-0.07763671875,-0.736053466796875,-0.7056884765625,5048.871927375,-0.04284413763344034,0.08419152766013283,0.5736600247421687,-0.9766284227371216,-0.2630960941314697,-0.5660369992256165,0.004396788775920868,-0.1341395378112793,0.1745154857635498,XArbitraryZVertical,0.2834622666666157,0.03430002261601674,-0.008623913476480519,0.9583310913038127,0.07063066214323044,-0.5427098274230957,-0.8369452953338623,0,0,0,-1,-1,5047.403190875,walking,2,2022-05-05T13:00:15.325+02:00,2022-05-05T12:55:18.700+02:00,166,0.7837186,0.715904,1.604483,121.79,0,0,2022-05-05T13:00:15.324+02:00,673441215.324246,0,0.7200003,101.4374,1,0.88
2022-05-05T13:00:16.810+02:00,1651748413.391737,53.22891671681146,10.39822840132788,35.25131,1.14,1.92,61.875,71.46957634282852,24,30,-9999,5048.886920375,-0.260955810546875,-0.724884033203125,-0.7325286865234375,5048.881922375001,-0.04971960501764584,0.08505531348110354,0.56258555963652,-1.126741170883179,-0.2826173305511475,-0.7593491673469543,-0.1494964957237244,-0.202678382396698,0.1371325254440308,XArbitraryZVertical,0.2782764123695819,0.03393719440585766,-0.01206031468858731,0.9598255750751482,0.07185977697372437,-0.5333750247955322,-0.8428210020065308,0,0,0,-1,-1,5047.403190875,walking,2,2022-05-05T13:00:15.325+02:00,2022-05-05T12:55:18.700+02:00,166,0.7837186,0.715904,1.604483,121.79,0,0,2022-05-05T13:00:15.324+02:00,673441215.324246,0,0.7200003,101.4374,1,0.88
2022-05-05T13:00:16.820+02:00,1651748413.391737,53.22891671681146,10.39822840132788,35.25131,1.14,1.92,61.875,71.46957634282852,24,30,-9999,5048.896916375001,-0.3277740478515625,-0.7237548828125,-0.752349853515625,5048.891918375,-0.0579138323625969,0.087030911309373,0.550238019375509,-1.215498924255371,-0.1897478401660919,-0.8262518048286438,-0.3350473642349243,-0.2019938826560974,0.1166452169418335,XArbitraryZVertical,0.2725026610478409,0.0339902642805591,-0.01602486990491522,0.9614209061088776,0.07409153878688812,-0.5228901505470276,-0.849173903465271,0,0,0,-1,-1,5047.403190875,walking,2,2022-05-05T13:00:15.325+02:00,2022-05-05T12:55:18.700+02:00,166,0.7837186,0.715904,1.604483,121.79,0,0,2022-05-05T13:00:15.324+02:00,673441215.324246,0,0.7200003,101.4374,1,0.88
