loggingTime(txt),locationTimestamp_since1970(s),locationLatitude(WGS84),locationLongitude(WGS84),locationAltitude(m),locationSpeed(m/s),locationSpeedAccuracy(m/s),locationCourse(°),locationCourseAccuracy(°),locationVerticalAccuracy(m),locationHorizontalAccuracy(m),locationFloor(Z),accelerometerTimestamp_sinceReboot(s),accelerometerAccelerationX(G),accelerometerAccelerationY(G),accelerometerAccelerationZ(G),motionTimestamp_sinceReboot(s),motionYaw(rad),motionRoll(rad),motionPitch(rad),motionRotationRateX(rad/s),motionRotationRateY(rad/s),motionRotationRateZ(rad/s),motionUserAccelerationX(G),motionUserAccelerationY(G),motionUserAccelerationZ(G),motionAttitudeReferenceFrame(txt),motionQuaternionX(R),motionQuaternionY(R),motionQuaternionZ(R),motionQuaternionW(R),motionGravityX(G),motionGravityY(G),motionGravityZ(G),motionMagneticFieldX(µT),motionMagneticFieldY(µT),motionMagneticFieldZ(µT),motionHeading(°),motionMagneticFieldCalibrationAccuracy(Z),activityTimestamp_sinceReboot(s),activity(txt),activityActivityConfidence(Z),activityActivityStartDate(txt),pedometerStartDate(txt),pedometerNumberofSteps(N),pedometerAverageActivePace(s/m),pedometerCurrentPace(s/m),pedometerCurrentCadence(steps/s),pedometerDistance(m),pedometerFloorAscended(N),pedometerFloorDescended(N),pedometerEndDate(txt),altimeterTimestamp_sinceReboot(s),altimeterReset(bool),altimeterRelativeAltitude(m),altimeterPressure(kPa),batteryState(N),batteryLevel(R)
2022-05-05T13:00:48.833+02:00,1651748445.391198,53.22886747750236,10.39797328778103,36.52425,0.5735041,0.3879698,60.52191008451118,41.13049114707324,2.400000095367432,5.999684891258126,-9999,5080.85204925,0.0421295166015625,-0.7125244140625,-0.661376953125,5080.85204925,0.1381442408766955,0.06077198528339009,0.8053500729693845,-0.06077943369746208,-0.008718656376004219,-0.04178919643163681,-0.00957927480340004,0.02177822589874268,0.03139305114746094,XArbitraryZVertical,0.3888367422319184,0.05491867229102013,0.07534508207203093,0.9165768781255795,0.04208049923181534,-0.7210732102394104,-0.6915798783302307,0,0,0,-1,-1,5080.63291325,unknown,2,2022-05-05T13:00:48.555+02:00,2022-05-05T12:55:18.700+02:00,176,0.9116709,0,0,128.845,0,0,2022-05-05T13:00:48.554+02:00,673441248.5544314,0,0.21,101.4428,1,0.88
2022-05-05T13:00:48.844+02:00,1651748445.391198,53.22886747750236,10.39797328778103,36.52425,0.5735041,0.3879698,60.52191008451118,41.13049114707324,2.400000095367432,5.999684891258126,-9999,5080.862044250001,0.0611724853515625,-0.7315826416015625,-0.662994384765625,5080.85204925,0.1381442408766955,0.06077198528339009,0.8053500729693845,-0.06077943369746208,-0.008718656376004219,-0.04178919643163681,-0.00957927480340004,0.02177822589874268,0.03139305114746094,XArbitraryZVertical,0.3888367422319184,0.05491867229102013,0.07534508207203093,0.9165768781255795,0.04208049923181534,-0.7210732102394104,-0.6915798783302307,0,0,0,-1,-1,5080.63291325,unknown,2,2022-05-05T13:00:48.555+02:00,2022-05-05T12:55:18.700+02:00,176,0.9116709,0,0,128.845,0,0,2022-05-05T13:00:48.554+02:00,673441248.5544314,0,0.21,101.4428,1,0.88
2022-05-05T13:00:48.849+02:00,1651748445.391198,53.22886747750236,10.39797328778103,36.52425,0.5735041,0.3879698,60.52191008451118,41.13049114707324,2.400000095367432,5.999684891258126,-9999,5080.87204025,0.0619659423828125,-0.73590087890625,-0.6719970703125,5080.862044250001,0.1376659409091986,0.06092685493567053,0.8045592329254077,-0.08092844486236572,-0.02746584638953209,-0.03768140450119972,0.01081723347306252,-0.004130065441131592,0.0302160382270813,XArbitraryZVertical,0.3884809040982767,0.05487634446711659,0.07515557712742066,0.9167458917354248,0.04222231358289719,-0.7205250859260559,-0.6921423673629761,0,0,0,-1,-1,5080.63291325,unknown,2,2022-05-05T13:00:48.555+02:00,2022-05-05T12:55:18.700+02:00,176,0.9116709,0,0,128.845,0,0,2022-05-05T13:00:48.554+02:00,673441248.5544314,0,0.21,101.4428,1,0.88
2022-05-05T13:00:48.851+02:00,1651748445.391198,53.22886747750236,10.39797328778103,36.52425,0.5735041,0.3879698,60.52191008451118,41.13049114707324,2.400000095367432,5.999684891258126,-9999,5080.882035250001,0.05108642578125,-0.745513916015625,-0.6832733154296875,5080.87204025,0.1373975063604294,0.06072894338349153,0.8035048463181458,-0.1111665070056915,-0.03755869716405869,-0.02502952329814434,0.02268792316317558,-0.01407790184020996,0.02718281745910645,XArbitraryZVertical,0.3880114838800806,0.0547064494384633,0.07499355350487621,0.9169680503597893,0.04213141277432442,-0.7197935581207275,-0.6929085850715637,0,0,0,-1,-1,5080.63291325,unknown,2,2022-05-05T13:00:48.555+02:00,2022-05-05T12:55:18.700+02:00,176,0.9116709,0,0,128.845,0,0,2022-05-05T13:00:48.554+02:00,673441248.5544314,0,0.21,101.4428,1,0.88
2022-05-05T13:00:48.852+02:00,1651748445.391198,53.22886747750236,10.39797328778103,36.52425,0.5735041,0.3879698,60.52191008451118,41.13049114707324,2.400000095367432,5.999684891258126,-9999,5080.89203125,0.0428009033203125,-0.750732421875,-0.69097900390625,5080.882035250001,0.1372621247757303,0.06034949722473658,0.8020889928093522,-0.144666314125061,-0.05154621228575706,-0.02554184943437576,0.01553468406200409,-0.02050888538360596,0.01674073934555054,XArbitraryZVertical,0.3873789906568821,0.05446986784387905,0.07485720987568584,0.917260657389391,0.04192991182208061,-0.718809962272644,-0.6939411163330078,0,0,0,-1,-1,5080.63291325,unknown,2,2022-05-05T13:00:48.555+02:00,2022-05-05T12:55:18.700+02:00,176,0.9116709,0,0,128.845,0,0,2022-05-05T13:00:48.554+02:00,673441248.5544314,0,0.21,101.4428,1,0.88
2022-05-05T13:00:48.854+02:00,1651748445.391198,53.22886747750236,10.39797328778103,36.52425,0.5735041,0.3879698,60.52191008451118,41.13049114707324,2.400000095367432,5.999684891258126,-9999,5080.902026250001,0.0373687744140625,-0.7324066162109375,-0.6907501220703125,5080.89203125,0.1366712552841046,0.06032298615419513,0.8007390845736534,-0.1507718861103058,-0.06920510530471802,-0.04202468693256378,0.004599843174219131,-0.03290742635726929,0.006647169589996338,XArbitraryZVertical,0.3867757570757694,0.05430876490477993,0.0745803515740083,0.9175472784455054,0.04196997359395027,-0.717870831489563,-0.6949101686477661,0,0,0,-1,-1,5080.63291325,unknown,2,2022-05-05T13:00:48.555+02:00,2022-05-05T12:55:18.700+02:00,176,0.9116709,0,0,128.845,0,0,2022-05-05T13:00:48.554+02:00,673441248.5544314,0,0.21,101.4428,1,0.88
2022-05-05T13:00:48.855+02:00,1651748445.391198,53.22886747750236,10.39797328778103,36.52425,0.5735041,0.3879698,60.52191008451118,41.13049114707324,2.400000095367432,5.999684891258126,-9999,5080.91202125,0.0327606201171875,-0.71380615234375,-0.6959686279296875,5080.902026250001,0.1361071357510021,0.06008638570078986,0.7996403171482801,-0.1451345980167389,-0.07262427359819412,-0.03785024583339691,-0.004499383270740509,-0.0277675986289978,0.00518566370010376,XArbitraryZVertical,0.3862948425478752,0.05406314782561679,0.07427517492222127,0.9177890479278435,0.04185289517045021,-0.7171054482460022,-0.6957069635391235,0,0,0,-1,-1,5080.63291325,unknown,2,2022-05-05T13:00:48.555+02:00,2022-05-05T12:55:18.700+02:00,176,0.9116709,0,0,128.845,0,0,2022-05-05T13:00:48.554+02:00,673441248.5544314,0,0.21,101.4428,1,0.88
2022-05-05T13:00:48.857+02:00,1651748445.391198,53.22886747750236,10.39797328778103,36.52425,0.5735041,0.3879698,60.52191008451118,41.13049114707324,2.400000095367432,5.999684891258126,-9999,5080.92201725,0.0395660400390625,-0.7167510986328125,-0.7083587646484375,5080.91202125,0.1357031854364508,0.05968536337282059,0.798507963447159,-0.126262903213501,-0.06248161941766739,-0.03467575833201408,-0.007015373557806015,-0.004723012447357178,0.003952622413635254,XArbitraryZVertical,0.3857999958173682,0.05377230060803778,0.07401173890090586,0.918035543886988,0.04162231087684631,-0.7163158059120178,-0.6965337991714478,0,0,0,-1,-1,5080.63291325,unknown,2,2022-05-05T13:00:48.555+02:00,2022-05-05T12:55:18.700+02:00,176,0.9116709,0,0,128.845,0,0,2022-05-05T13:00:48.554+02:00,673441248.5544314,0,0.21,101.4428,1,0.88
2022-05-05T13:00:48.859+02:00,1651748445.391198,53.22886747750236,10.39797328778103,36.52425,0.5735041,0.3879698,60.52191008451118,41.13049114707324,2.400000095367432,5.999684891258126,-9999,5080.93201225,0.0413665771484375,-0.71881103515625,-0.7130889892578125,5080.92201725,0.1354673441551687,0.05919750789022684,0.7974260430494575,-0.1167776882648468,-0.04864869266748428,-0.03309217840433121,-0.005439653992652893,0.0009608268737792969,-0.005172133445739746,XArbitraryZVertical,0.3853268152158618,0.05347534996151415,0.07380887040331938,0.9182679289061377,0.04132832214236259,-0.7155604362487793,-0.6973272562026978,0,0,0,-1,-1,5080.63291325,unknown,2,2022-05-05T13:00:48.555+02:00,2022-05-05T12:55:18.700+02:00,176,0.9116709,0,0,128.845,0,0,2022-05-05T13:00:48.554+02:00,673441248.5544314,0,0.21,101.4428,1,0.88
2022-05-05T13:00:48.865+02:00,1651748445.391198,53.22886747750236,10.39797328778103,36.52425,0.5735041,0.3879698,60.52191008451118,41.13049114707324,2.400000095367432,5.999684891258126,-9999,5080.94200825,0.03564453125,-0.7198638916015625,-0.714996337890625,5080.93201225,0.1351039243307886,0.05902144181331456,0.7964416498084348,-0.1001712828874588,-0.03450438007712364,-0.03624908626079559,-0.001421641558408737,-0.005540788173675537,-0.01164895296096802,XArbitraryZVertical,0.38489023598687,0.05329951068025981,0.07360762234601977,0.9184773495669181,0.04124707728624344,-0.714872419834137,-0.698037326335907,0,0,0,-1,-1,5080.63291325,unknown,2,2022-05-05T13:00:48.555+02:00,2022-05-05T12:55:18.700+02:00,176,0.9116709,0,0,128.845,0,0,2022-05-05T13:00:48.554+02:00,673441248.5544314,0,0.21,101.4428,1,0.88
2022-05-05T13:00:48.875+02:00,1651748445.391198,53.22886747750236,10.39797328778103,36.52425,0.5735041,0.3879698,60.52191008451118,41.13049114707324,2.400000095367432,5.999684891258126,-9999,5080.95200325,0.0292510986328125,-0.72222900390625,-0.7110443115234375,5080.94200825,0.1345903736653367,0.05920851110939089,0.79584098606844,-0.07029511779546738,-0.01865690760314465,-0.03283444792032242,-0.000906236469745636,-0.003870487213134766,-0.01635503768920898,XArbitraryZVertical,0.3846206625374204,0.05327140578644007,0.07340741574256594,0.9186080189111424,0.04140306264162064,-0.7144522666931152,-0.698458194732666,0,0,0,-1,-1,5080.63291325,unknown,2,2022-05-05T13:00:48.555+02:00,2022-05-05T12:55:18.700+02:00,176,0.9116709,0,0,128.845,0,0,2022-05-05T13:00:48.554+02:00,673441248.5544314,0,0.21,101.4428,1,0.88
2022-05-05T13:00:48.885+02:00,1651748445.391198,53.22886747750236,10.39797328778103,36.52425,0.5735041,0.3879698,60.52191008451118,41.13049114707324,2.400000095367432,5.999684891258126,-9999,5080.96199925,0.0257415771484375,-0.71630859375,-0.7105255126953125,5080.95200325,0.1340034045428508,0.05958396209919536,0.7956397138418748,-0.02654949575662613,-0.01705155335366726,-0.02773050218820572,-0.01080532744526863,-0.008039653301239014,-0.01387733221054077,XArbitraryZVertical,0.3845299841393042,0.05332593494590097,0.07320988339866305,0.9186584907238932,0.04167385399341583,-0.714311420917511,-0.6985860466957092,0,0,0,-1,-1,5080.63291325,unknown,2,2022-05-05T13:00:48.555+02:00,2022-05-05T12:55:18.700+02:00,176,0.9116709,0,0,128.845,0,0,2022-05-05T13:00:48.554+02:00,673441248.5544314,0,0.21,101.4428,1,0.88
2022-05-05T13:00:48.895+02:00,1651748445.391198,53.22886747750236,10.39797328778103,36.52425,0.5735041,0.3879698,60.52191008451118,41.13049114707324,2.400000095367432,5.999684891258126,-9999,5080.971994250001,0.025360107421875,-0.7074432373046875,-0.7069244384765625,5080.96199925,0.1334439864611269,0.05992624481730502,0.7958103492977193,0.01137335319072008,-0.01116869784891605,-0.03319071233272552,-0.01537063345313072,-0.005463540554046631,-0.01170921325683594,XArbitraryZVertical,0.3846108914721257,0.05337984978203558,0.07301887907808632,0.9186367154850388,0.04190566763281822,-0.7144308686256409,-0.6984500885009766,0,0,0,-1,-1,5080.63291325,unknown,2,2022-05-05T13:00:48.555+02:00,2022-05-05T12:55:18.700+02:00,176,0.9116709,0,0,128.845,0,0,2022-05-05T13:00:48.554+02:00,673441248.5544314,0,0.21,101.4428,1,0.88
2022-05-05T13:00:48.904+02:00,1651748445.391198,53.22886747750236,10.39797328778103,36.52425,0.5735041,0.3879698,60.52191008451118,41.13049114707324,2.400000095367432,5.999684891258126,-9999,5080.98198925,0.037078857421875,-0.7081146240234375,-0.7049713134765625,5080.971994250001,0.1328797240548997,0.0603099235388012,0.7963066735900017,0.0390465259552002,0.001463740598410368,-0.03578942641615868,-0.0168989785015583,0.00394737720489502,-0.01128590106964111,XArbitraryZVertical,0.384840328901103,0.05345986084669788,0.07283398698260768,0.9185506249577561,0.04215226694941521,-0.7147780656814575,-0.6980799436569214,0,0,0,-1,-1,5080.63291325,unknown,2,2022-05-05T13:00:48.555+02:00,2022-05-05T12:55:18.700+02:00,176,0.9116709,0,0,128.845,0,0,2022-05-05T13:00:48.554+02:00,673441248.5544314,0,0.21,101.4428,1,0.88
2022-05-05T13:00:48.914+02:00,1651748445.391198,53.22886747750236,10.39797328778103,36.52425,0.5735041,0.3879698,60.52191008451118,41.13049114707324,2.400000095367432,5.999684891258126,-9999,5080.991985250001,0.04840087890625,-0.71539306640625,-0.707855224609375,5080.98198925,0.1324954787137717,0.06060404499129001,0.7969711434806579,0.05434641987085342,0.004942694213241339,-0.01705495454370975,-0.01248262450098991,0.008333384990692139,-0.007439076900482178,XArbitraryZVertical,0.3851455512943493,0.05353736774445227,0.07271483145268559,0.9184276635757007,0.04232881218194962,-0.7152425646781921,-0.6975933313369751,0,0,0,-1,-1,5080.63291325,unknown,2,2022-05-05T13:00:48.555+02:00,2022-05-05T12:55:18.700+02:00,176,0.9116709,0,0,128.845,0,0,2022-05-05T13:00:48.554+02:00,673441248.5544314,0,0.21,101.4428,1,0.88
2022-05-05T13:00:48.925+02:00,1651748445.391198,53.22886747750236,10.39797328778103,36.52425,0.5735041,0.3879698,60.52191008451118,41.13049114707324,2.400000095367432,5.999684891258126,-9999,5081.00198025,0.052490234375,-0.7257232666015625,-0.7115478515625,5080.991985250001,0.1324209080776961,0.06063502492715798,0.7976097216404355,0.0530095100402832,-0.00429927371442318,0.006442914716899395,0.001622568815946579,0.004232406616210938,-0.00887298583984375,XArbitraryZVertical,0.3854401308421763,0.05355294123626912,0.07268725420612955,0.9183053749240253,0.04232273623347282,-0.7156887054443359,-0.6971359848976135,0,0,0,-1,-1,5080.63291325,unknown,2,2022-05-05T13:00:48.555+02:00,2022-05-05T12:55:18.700+02:00,176,0.9116709,0,0,128.845,0,0,2022-05-05T13:00:48.554+02:00,673441248.5544314,0,0.21,101.4428,1,0.88
2022-05-05T13:00:48.935+02:00,1651748445.391198,53.22886747750236,10.39797328778103,36.52425,0.5735041,0.3879698,60.52191008451118,41.13049114707324,2.400000095367432,5.999684891258126,-9999,5081.01197625,0.0548553466796875,-0.7362518310546875,-0.713470458984375,5081.00198025,0.1326664392153407,0.06034061716533386,0.7979586850069423,0.0245304349809885,-0.01362626254558563,0.02359720319509506,0.008526228368282318,-0.00412982702255249,-0.01214641332626343,XArbitraryZVertical,0.385604809957121,0.05347370941772522,0.07274361445102576,0.9182362866701534,0.04210242629051208,-0.7159324288368225,-0.6968989968299866,0,0,0,-1,-1,5080.63291325,unknown,2,2022-05-05T13:00:48.555+02:00,2022-05-05T12:55:18.700+02:00,176,0.9116709,0,0,128.845,0,0,2022-05-05T13:00:48.554+02:00,673441248.5544314,0,0.21,101.4428,1,0.88
2022-05-05T13:00:48.945+02:00,1651748445.391198,53.22886747750236,10.39797328778103,36.52425,0.5735041,0.3879698,60.52191008451118,41.13049114707324,2.400000095367432,5.999684891258126,-9999,5081.02197125,0.0498199462890625,-0.73760986328125,-0.7095947265625,5081.01197625,0.1330074395364069,0.05987511921445503,0.7980550996829084,0.001998759806156158,-0.02470607683062553,0.02310078963637352,0.01147928088903427,-0.01552188396453857,-0.01813143491744995,XArbitraryZVertical,0.3856569896830937,0.05332813009189656,0.07281050798164834,0.9182175253765301,0.04177388548851013,-0.7159997224807739,-0.6968495845794678,0,0,0,-1,-1,5080.63291325,unknown,2,2022-05-05T13:00:48.555+02:00,2022-05-05T12:55:18.700+02:00,176,0.9116709,0,0,128.845,0,0,2022-05-05T13:00:48.554+02:00,673441248.5544314,0,0.21,101.4428,1,0.88
2022-05-05T13:00:48.954+02:00,1651748445.391198,53.22886747750236,10.39797328778103,36.52425,0.5735041,0.3879698,60.52191008451118,41.13049114707324,2.400000095367432,5.999684891258126,-9999,5081.03196725,0.0389404296875,-0.7349395751953125,-0.7103271484375,5081.02197125,0.1333823932868962,0.05934377974698188,0.7979309963867581,-0.008655648678541183,-0.02508964017033577,0.02685005217790604,0.01227153465151787,-0.02178835868835449,-0.01307684183120728,XArbitraryZVertical,0.3856092784594959,0.0531533923514764,0.07288010486185149,0.9182421919690217,0.04140888527035713,-0.7159130573272705,-0.6969603896141052,0,0,0,-1,-1,5080.63291325,unknown,2,2022-05-05T13:00:48.555+02:00,2022-05-05T12:55:18.700+02:00,176,0.9116709,0,0,128.845,0,0,2022-05-05T13:00:48.554+02:00,673441248.5544314,0,0.21,101.4428,1,0.88
2022-05-05T13:00:48.965+02:00,1651748445.391198,53.22886747750236,10.39797328778103,36.52425,0.5735041,0.3879698,60.52191008451118,41.13049114707324,2.400000095367432,5.999684891258126,-9999,5081.04196225,0.0312957763671875,-0.723724365234375,-0.702362060546875,5081.03196725,0.1337538722498212,0.05879433980425657,0.7978211695995233,-0.004934946075081825,-0.02084030024707317,0.01410123333334923,0.003509841859340668,-0.02023231983184814,-0.01441001892089844,XArbitraryZVertical,0.3855689519881979,0.05297000403104003,0.07294466546955709,0.9182645821070922,0.04103055968880653,-0.7158364057540894,-0.6970615386962891,0,0,0,-1,-1,5080.63291325,unknown,2,2022-05-05T13:00:48.555+02:00,2022-05-05T12:55:18.700+02:00,176,0.9116709,0,0,128.845,0,0,2022-05-05T13:00:48.554+02:00,673441248.5544314,0,0.21,101.4428,1,0.88
2022-05-05T13:00:48.974+02:00,1651748445.391198,53.22886747750236,10.39797328778103,36.52425,0.5735041,0.3879698,60.52191008451118,41.13049114707324,2.400000095367432,5.999684891258126,-9999,5081.051957250001,0.026824951171875,-0.715667724609375,-0.702880859375,5081.04196225,0.1339706542821042,0.05839232211167349,0.7977377097691923,-0.005134583916515112,-0.01295474730432034,0.003936015069484711,-0.005597569048404694,-0.01400399208068848,-0.009207010269165039,XArbitraryZVertical,0.3855394928002983,0.05282511439088218,0.07296665612796117,0.9182835650730847,0.0407538153231144,-0.715778112411499,-0.6971375942230225,0,0,0,-1,-1,5080.63291325,unknown,2,2022-05-05T13:00:48.555+02:00,2022-05-05T12:55:18.700+02:00,176,0.9116709,0,0,128.845,0,0,2022-05-05T13:00:48.554+02:00,673441248.5544314,0,0.21,101.4428,1,0.88
2022-05-05T13:00:48.985+02:00,1651748445.391198,53.22886747750236,10.39797328778103,36.52425,0.5735041,0.3879698,60.52191008451118,41.13049114707324,2.400000095367432,5.999684891258126,-9999,5081.06195325,0.02935791015625,-0.71209716796875,-0.7001190185546875,5081.051957250001,0.1339831624867225,0.05833322726478426,0.7977323627368843,0.01822506822645664,0.01673869974911213,-0.0176401175558567,-0.01114131137728691,-0.002563655376434326,-0.005584418773651123,XArbitraryZVertical,0.3855388368024753,0.05280025183036972,0.07296099959600227,0.9182857651121027,0.04071284085512161,-0.7157743573188782,-0.6971438527107239,0,0,0,-1,-1,5080.63291325,unknown,2,2022-05-05T13:00:48.555+02:00,2022-05-05T12:55:18.700+02:00,176,0.9116709,0,0,128.845,0,0,2022-05-05T13:00:48.554+02:00,673441248.5544314,0,0.21,101.4428,1,0.88
2022-05-05T13:00:48.994+02:00,1651748445.391198,53.22886747750236,10.39797328778103,36.52425,0.5735041,0.3879698,60.52191008451118,41.13049114707324,2.400000095367432,5.999684891258126,-9999,5081.071946625,0.043792724609375,-0.7249603271484375,-0.6977081298828125,5081.06195325,0.1337328096186276,0.05874262406467919,0.7979159691766704,0.0342896543443203,0.03791961818933487,-0.02353715524077415,-0.01431817188858986,0.002889931201934814,-0.004999935626983643,XArbitraryZVertical,0.3856149740291918,0.05294457146266575,0.07292507025113398,0.9182483181382065,0.04099052771925926,-0.71590256690979,-0.6969959139823914,0,0,0,-1,-1,5080.63291325,unknown,2,2022-05-05T13:00:48.555+02:00,2022-05-05T12:55:18.700+02:00,176,0.9116709,0,0,128.845,0,0,2022-05-05T13:00:48.554+02:00,673441248.5544314,0,0.21,101.4428,1,0.88
2022-05-05T13:00:49.005+02:00,1651748445.391198,53.22886747750236,10.39797328778103,36.52425,0.5735041,0.3879698,60.52191008451118,41.13049114707324,2.400000095367432,5.999684891258126,-9999,5081.081942625,0.05364990234375,-0.7456817626953125,-0.704315185546875,5081.071946625,0.1333134814120311,0.05947001153682353,0.7982162044548886,0.04851146787405014,0.04207468032836914,-0.03303451836109161,-0.006572622805833817,0.001131117343902588,-0.001307785511016846,XArbitraryZVertical,0.3857376538171616,0.05320516143183773,0.0728730086572332,0.9181858713536654,0.04148472845554352,-0.7161121964454651,-0.6967513561248779,0,0,0,-1,-1,5080.63291325,unknown,2,2022-05-05T13:00:48.555+02:00,2022-05-05T12:55:18.700+02:00,176,0.9116709,0,0,128.845,0,0,2022-05-05T13:00:48.554+02:00,673441248.5544314,0,0.21,101.4428,1,0.88
2022-05-05T13:00:49.014+02:00,1651748445.391198,53.22886747750236,10.39797328778103,36.52425,0.5735041,0.3879698,60.52191008451118,41.13049114707324,2.400000095367432,5.999684891258126,-9999,5081.091937625,0.043670654296875,-0.7427825927734375,-0.7083587646484375,5081.081942625,0.1326045404490794,0.06036848420611308,0.7986967097388072,0.05666210502386093,0.02411865070462227,-0.05162584781646729,0.008340336382389069,-0.02081143856048584,-0.002787470817565918,XArbitraryZVertical,0.3859448068531425,0.05349275785588033,0.07272130126843597,0.9180941579549879,0.04208996146917343,-0.7164474725723267,-0.6963702440261841,0,0,0,-1,-1,5080.63291325,unknown,2,2022-05-05T13:00:48.555+02:00,2022-05-05T12:55:18.700+02:00,176,0.9116709,0,0,128.845,0,0,2022-05-05T13:00:48.554+02:00,673441248.5544314,0,0.21,101.4428,1,0.88
2022-05-05T13:00:49.024+02:00,1651748445.391198,53.22886747750236,10.39797328778103,36.52425,0.5735041,0.3879698,60.52191008451118,41.13049114707324,2.400000095367432,5.999684891258126,-9999,5081.101933625,0.0346832275390625,-0.740631103515625,-0.7044677734375,5081.091937625,0.1317388853024552,0.06123064165522892,0.7991588452522218,0.0452459342777729,0.01791641488671303,-0.05413347855210304,0.007744975388050079,-0.02759969234466553,-0.01102811098098755,XArbitraryZVertical,0.3861491970768992,0.05373274250008757,0.07249088117786251,0.9180124375445449,0.04267005994915962,-0.716769814491272,-0.6960031986236572,0,0,0,-1,-1,5080.63291325,unknown,2,2022-05-05T13:00:48.555+02:00,2022-05-05T12:55:18.700+02:00,176,0.9116709,0,0,128.845,0,0,2022-05-05T13:00:48.554+02:00,673441248.5544314,0,0.21,101.4428,1,0.88
2022-05-05T13:00:49.034+02:00,1651748445.391198,53.22886747750236,10.39797328778103,36.52425,0.5735041,0.3879698,60.52191008451118,41.13049114707324,2.400000095367432,5.999684891258126,-9999,5081.111928625,0.033721923828125,-0.7401123046875,-0.699188232421875,5081.101933625,0.1308114252160217,0.06208586617024375,0.7995809416442561,0.04227630794048309,0.01348611433058977,-0.06538653373718262,-0.005160573869943619,-0.02335339784622192,-0.01092445850372314,XArbitraryZVertical,0.3863373218789391,0.05395639541357074,0.07223095318895051,0.9179405965237362,0.04324650391936302,-0.7170640826225281,-0.6956643462181091,0,0,0,-1,-1,5080.63291325,unknown,2,2022-05-05T13:00:48.555+02:00,2022-05-05T12:55:18.700+02:00,176,0.9116709,0,0,128.845,0,0,2022-05-05T13:00:48.554+02:00,673441248.5544314,0,0.21,101.4428,1,0.88
2022-05-05T13:00:49.044+02:00,1651748445.391198,53.22886747750236,10.39797328778103,36.52425,0.5735041,0.3879698,60.52191008451118,41.13049114707324,2.400000095367432,5.999684891258126,-9999,5081.121923625,0.0353240966796875,-0.7418060302734375,-0.6956024169921875,5081.111928625,0.129755708788478,0.06295560037188087,0.799960549088274,0.03968345373868942,0.01097049284726381,-0.07412250339984894,-0.01069231703877449,-0.02366870641708374,-0.005542457103729248,XArbitraryZVertical,0.3865090317437436,0.05416065655970274,0.07191511242355804,0.9178810932495614,0.04383440315723419,-0.7173286080360413,-0.6953547596931458,0,0,0,-1,-1,5080.63291325,unknown,2,2022-05-05T13:00:48.555+02:00,2022-05-05T12:55:18.700+02:00,176,0.9116709,0,0,128.845,0,0,2022-05-05T13:00:48.554+02:00,673441248.5544314,0,0.21,101.4428,1,0.88
2022-05-05T13:00:49.054+02:00,1651748445.391198,53.22886747750236,10.39797328778103,36.52425,0.5735041,0.3879698,60.52191008451118,41.13049114707324,2.400000095367432,5.999684891258126,-9999,5081.131919625001,0.0314483642578125,-0.7337188720703125,-0.69219970703125,5081.121923625,0.128687324966905,0.06382610136076003,0.800247436498197,0.02677151747047901,0.01339636649936438,-0.07708447426557541,-0.009636532515287399,-0.02377402782440186,-0.001468062400817871,XArbitraryZVertical,0.3866386721709474,0.05436040934107111,0.07159362712047163,0.917839824283575,0.0444265678524971,-0.7175284624099731,-0.6951109766960144,0,0,0,-1,-1,5080.63291325,unknown,2,2022-05-05T13:00:48.555+02:00,2022-05-05T12:55:18.700+02:00,176,0.9116709,0,0,128.845,0,0,2022-05-05T13:00:48.554+02:00,673441248.5544314,0,0.21,101.4428,1,0.88
2022-05-05T13:00:49.064+02:00,1651748445.391198,53.22886747750236,10.39797328778103,36.52425,0.5735041,0.3879698,60.52191008451118,41.13049114707324,2.400000095367432,5.999684891258126,-9999,5081.141914625,0.0323486328125,-0.72607421875,-0.6894683837890625,5081.131919625001,0.1276223440189871,0.0646603020770827,0.8003726428094943,0.01525441184639931,0.01193056348711252,-0.07960062474012375,-0.01166015863418579,-0.02101659774780273,0.001823008060455322,XArbitraryZVertical,0.3866953949385023,0.05454024039706087,0.07126644516611205,0.9178307978580559,0.04500061273574829,-0.7176156640052795,-0.6949840784072876,0,0,0,-1,-1,5080.63291325,unknown,2,2022-05-05T13:00:48.555+02:00,2022-05-05T12:55:18.700+02:00,176,0.9116709,0,0,128.845,0,0,2022-05-05T13:00:48.554+02:00,673441248.5544314,0,0.21,101.4428,1,0.88
2022-05-05T13:00:49.074+02:00,1651748445.391198,53.22886747750236,10.39797328778103,36.52425,0.5735041,0.3879698,60.52191008451118,41.13049114707324,2.400000095367432,5.999684891258126,-9999,5081.151910625001,0.038665771484375,-0.719146728515625,-0.687713623046875,5081.141914625,0.1265002237878881,0.06551262788716085,0.8004992505915796,0.02698693424463272,0.008180499076843262,-0.09314300119876862,-0.01426070556044579,-0.01195615530014038,0.0035552978515625,XArbitraryZVertical,0.3867539919085716,0.05471731765858071,0.07091663509330526,0.9178225842196757,0.04558699578046799,-0.7177038192749023,-0.694854736328125,0,0,0,-1,-1,5080.63291325,unknown,2,2022-05-05T13:00:48.555+02:00,2022-05-05T12:55:18.700+02:00,176,0.9116709,0,0,128.845,0,0,2022-05-05T13:00:48.554+02:00,673441248.5544314,0,0.21,101.4428,1,0.88
2022-05-05T13:00:49.084+02:00,1651748445.391198,53.22886747750236,10.39797328778103,36.52425,0.5735041,0.3879698,60.52191008451118,41.13049114707324,2.400000095367432,5.999684891258126,-9999,5081.161905625,0.046966552734375,-0.71978759765625,-0.6831207275390625,5081.151910625001,0.1251953832961214,0.06648592829700975,0.8007079623891963,0.02895314432680607,0.006328270304948092,-0.0925469845533371,-0.01192104816436768,-0.004654467105865479,0.006229698657989502,XArbitraryZVertical,0.386851332272712,0.05491632521447656,0.07050669265967484,0.9178011771756973,0.04625331982970238,-0.7178491353988647,-0.694660484790802,0,0,0,-1,-1,5080.63291325,unknown,2,2022-05-05T13:00:48.555+02:00,2022-05-05T12:55:18.700+02:00,176,0.9116709,0,0,128.845,0,0,2022-05-05T13:00:48.554+02:00,673441248.5544314,0,0.21,101.4428,1,0.88
2022-05-05T13:00:49.094+02:00,1651748445.391198,53.22886747750236,10.39797328778103,36.52425,0.5735041,0.3879698,60.52191008451118,41.13049114707324,2.400000095367432,5.999684891258126,-9999,5081.171901625,0.05029296875,-0.720123291015625,-0.6793975830078125,5081.161905625,0.1237512395221326,0.06757502149800655,0.8009685171510093,0.02667620778083801,0.00135548273101449,-0.1042075008153915,-0.003479145467281342,-0.00125354528427124,0.009074568748474121,XArbitraryZVertical,0.3869725536528026,0.05514247793923035,0.07005552696517987,0.9177711046130653,0.04699721187353134,-0.7180305123329163,-0.6944230794906616,0,0,0,-1,-1,5080.63291325,unknown,2,2022-05-05T13:00:48.555+02:00,2022-05-05T12:55:18.700+02:00,176,0.9116709,0,0,128.845,0,0,2022-05-05T13:00:48.554+02:00,673441248.5544314,0,0.21,101.4428,1,0.88
2022-05-05T13:00:49.104+02:00,1651748445.391198,53.22886747750236,10.39797328778103,36.52425,0.5735041,0.3879698,60.52191008451118,41.13049114707324,2.400000095367432,5.999684891258126,-9999,5081.181896625,0.0492401123046875,-0.720306396484375,-0.67901611328125,5081.171901625,0.1221425708088645,0.0687568588496914,0.8011372644792381,0.007573621347546577,-0.001060270704329014,-0.1124409288167953,0.000301409512758255,-0.002692461013793945,0.01321595907211304,XArbitraryZVertical,0.3870532795979323,0.05537715413352692,0.06954663977179333,0.91776173215215,0.04780955612659454,-0.7181479930877686,-0.694246232509613,0,0,0,-1,-1,5080.63291325,unknown,2,2022-05-05T13:00:48.555+02:00,2022-05-05T12:55:18.700+02:00,176,0.9116709,0,0,128.845,0,0,2022-05-05T13:00:48.554+02:00,673441248.5544314,0,0.21,101.4428,1,0.88
2022-05-05T13:00:49.114+02:00,1651748445.391198,53.22886747750236,10.39797328778103,36.52425,0.5735041,0.3879698,60.52191008451118,41.13049114707324,2.400000095367432,5.999684891258126,-9999,5081.191891625001,0.0309906005859375,-0.735015869140625,-0.67340087890625,5081.181896625,0.1205959283560995,0.06975408014317504,0.8010262154095257,-0.02077802643179893,-0.01256386190652847,-0.122692696750164,0.004288002848625183,-0.002449333667755127,0.01585674285888672,XArbitraryZVertical,0.3870105673733763,0.05553312128963377,0.06902942075086431,0.9178093645298168,0.04850740730762482,-0.7180706858634949,-0.6942777633666992,0,0,0,-1,-1,5080.63291325,unknown,2,2022-05-05T13:00:48.555+02:00,2022-05-05T12:55:18.700+02:00,176,0.9116709,0,0,128.845,0,0,2022-05-05T13:00:48.554+02:00,673441248.5544314,0,0.21,101.4428,1,0.88
2022-05-05T13:00:49.124+02:00,1651748445.391198,53.22886747750236,10.39797328778103,36.52425,0.5735041,0.3879698,60.52191008451118,41.13049114707324,2.400000095367432,5.999684891258126,-9999,5081.201887625,0.015716552734375,-0.74249267578125,-0.668701171875,5081.191891625001,0.1185865811138789,0.07096566701285306,0.8006101799355885,-0.0688246488571167,-0.01566591113805771,-0.1894999593496323,-0.006462015211582184,-0.007987916469573975,0.01632422208786011,XArbitraryZVertical,0.3868335929295924,0.0556918447125796,0.0683397840040578,0.9179258853014068,0.04936972260475159,-0.7177810668945312,-0.6945163607597351,0,0,0,-1,-1,5080.63291325,unknown,2,2022-05-05T13:00:48.555+02:00,2022-05-05T12:55:18.700+02:00,176,0.9116709,0,0,128.845,0,0,2022-05-05T13:00:48.554+02:00,673441248.5544314,0,0.21,101.4428,1,0.88
2022-05-05T13:00:49.135+02:00,1651748445.391198,53.22886747750236,10.39797328778103,36.52425,0.5735041,0.3879698,60.52191008451118,41.13049114707324,2.400000095367432,5.999684891258126,-9999,5081.211882625001,0.042022705078125,-0.7283477783203125,-0.6645965576171875,5081.201887625,0.1155774897639076,0.07308367778091297,0.7994712482544261,-0.1498846411705017,0.01665414497256279,-0.2488561570644379,-0.03609924018383026,-0.02724450826644897,0.02669179439544678,XArbitraryZVertical,0.3863220952416964,0.05605976033726264,0.06736203203719521,0.9181910842580902,0.05090026184916496,-0.7169876098632812,-0.6952250599861145,0,0,0,-1,-1,5080.63291325,unknown,2,2022-05-05T13:00:48.555+02:00,2022-05-05T12:55:18.700+02:00,176,0.9116709,0,0,128.845,0,0,2022-05-05T13:00:48.554+02:00,673441248.5544314,0,0.21,101.4428,1,0.88
2022-05-05T13:00:49.145+02:00,1651748445.391198,53.22886747750236,10.39797328778103,36.52425,0.5735041,0.3879698,60.52191008451118,41.13049114707324,2.400000095367432,5.999684891258126,-9999,5081.221878625,0.0350799560546875,-0.7207794189453125,-0.6637420654296875,5081.211882625001,0.1121085603012821,0.0755613067492745,0.7977171983631783,-0.1877172440290451,0.003087203484028578,-0.2856634259223938,-0.01942279934883118,-0.01589518785476685,0.0296475887298584,XArbitraryZVertical,0.3855300384651225,0.05649479668758322,0.06623662113806436,0.9185791772011245,0.05271747335791588,-0.7157638072967529,-0.6963498592376709,0,0,0,-1,-1,5080.63291325,unknown,2,2022-05-05T13:00:48.555+02:00,2022-05-05T12:55:18.700+02:00,176,0.9116709,0,0,128.845,0,0,2022-05-05T13:00:48.554+02:00,673441248.5544314,0,0.21,101.4428,1,0.88
2022-05-05T13:00:49.155+02:00,1651748445.391198,53.22886747750236,10.39797328778103,36.52425,0.5735041,0.3879698,60.52191008451118,41.13049114707324,2.400000095367432,5.999684891258126,-9999,5081.231873625,0.017333984375,-0.7251739501953125,-0.65093994140625,5081.221878625,0.1081607543298466,0.07835108022829919,0.7955612893481386,-0.22535540163517,0.009411212056875229,-0.3220553398132324,-0.01683197543025017,-0.01428955793380737,0.03440672159194946,XArbitraryZVertical,0.3845583423439517,0.05697781769946639,0.06494489979154242,0.9190487368110721,0.05478057637810707,-0.7142565846443176,-0.6977367997169495,0,0,0,-1,-1,5080.63291325,unknown,2,2022-05-05T13:00:48.555+02:00,2022-05-05T12:55:18.700+02:00,176,0.9116709,0,0,128.845,0,0,2022-05-05T13:00:48.554+02:00,673441248.5544314,0,0.21,101.4428,1,0.88
2022-05-05T13:00:49.165+02:00,1651748445.391198,53.22886747750236,10.39797328778103,36.52425,0.5735041,0.3879698,60.52191008451118,41.13049114707324,2.400000095367432,5.999684891258126,-9999,5081.241869625001,0.03216552734375,-0.71563720703125,-0.661590576171875,5081.231873625,0.1035024400800363,0.08153251751573849,0.7928097012417772,-0.2933712005615234,-0.02645304426550865,-0.4162548184394836,-0.02543693035840988,-0.003873705863952637,0.03906905651092529,XArbitraryZVertical,0.3833225069671828,0.05750016082689531,0.06339183264780661,0.9196407294140246,0.05715994909405708,-0.7123280763626099,-0.699515163898468,0,0,0,-1,-1,5080.63291325,unknown,2,2022-05-05T13:00:48.555+02:00,2022-05-05T12:55:18.700+02:00,176,0.9116709,0,0,128.845,0,0,2022-05-05T13:00:48.554+02:00,673441248.5544314,0,0.21,101.4428,1,0.88
2022-05-05T13:00:49.175+02:00,1651748445.391198,53.22886747750236,10.39797328778103,36.52425,0.5735041,0.3879698,60.52191008451118,41.13049114707324,2.400000095367432,5.999684891258126,-9999,5081.251864625,0.0371551513671875,-0.717010498046875,-0.6544036865234375,5081.241869625001,0.09798598522189486,0.08529910970493541,0.7894852982503723,-0.3362997174263,-0.02073650248348713,-0.4223396480083466,-0.04890260845422745,-0.02012687921524048,0.04312694072723389,XArbitraryZVertical,0.381832428276673,0.0581270605343514,0.06154313691313798,0.9203464826285114,0.05999574065208435,-0.709990918636322,-0.7016505002975464,0,0,0,-1,-1,5080.63291325,unknown,2,2022-05-05T13:00:48.555+02:00,2022-05-05T12:55:18.700+02:00,176,0.9116709,0,0,128.845,0,0,2022-05-05T13:00:48.554+02:00,673441248.5544314,0,0.21,101.4428,1,0.88
2022-05-05T13:00:49.185+02:00,1651748445.391198,53.22886747750236,10.39797328778103,36.52425,0.5735041,0.3879698,60.52191008451118,41.13049114707324,2.400000095367432,5.999684891258126,-9999,5081.261859625,0.014617919921875,-0.7169189453125,-0.6639404296875,5081.251864625,0.09227652763678894,0.08884179089856496,0.7858026497863083,-0.3625749945640564,-0.06521022319793701,-0.4574345350265503,-0.01586815714836121,0.0001936554908752441,0.04811882972717285,XArbitraryZVertical,0.3801935089519356,0.05862025108490639,0.0595492298705016,0.9211245593323794,0.0627126470208168,-0.7073927521705627,-0.7040331363677979,0,0,0,-1,-1,5080.63291325,unknown,2,2022-05-05T13:00:48.555+02:00,2022-05-05T12:55:18.700+02:00,176,0.9116709,0,0,128.845,0,0,2022-05-05T13:00:48.554+02:00,673441248.5544314,0,0.21,101.4428,1,0.88
2022-05-05T13:00:49.195+02:00,1651748445.391198,53.22886747750236,10.39797328778103,36.52425,0.5735041,0.3879698,60.52191008451118,41.13049114707324,2.400000095367432,5.999684891258126,-9999,5081.271855625,-0.03955078125,-0.7022552490234375,-0.6511383056640625,5081.261859625,0.08640260554466149,0.09220815125086028,0.7819385929405326,-0.3714219927787781,-0.08943720161914825,-0.4531495571136475,-0.03924098610877991,-0.01813727617263794,0.04799568653106689,XArbitraryZVertical,0.3784843998627128,0.05901096373107799,0.05743343849816541,0.9219374219021381,0.06533350795507431,-0.7046562433242798,-0.7065345048904419,0,0,0,-1,-1,5080.63291325,unknown,2,2022-05-05T13:00:48.555+02:00,2022-05-05T12:55:18.700+02:00,176,0.9116709,0,0,128.845,0,0,2022-05-05T13:00:48.554+02:00,673441248.5544314,0,0.21,101.4428,1,0.88
2022-05-05T13:00:49.204+02:00,1651748445.391198,53.22886747750236,10.39797328778103,36.52425,0.5735041,0.3879698,60.52191008451118,41.13049114707324,2.400000095367432,5.999684891258126,-9999,5081.281850625001,-0.2794647216796875,-0.613372802734375,-0.6968536376953125,5081.271855625,0.08215618737917342,0.09396836598135339,0.7786067392561274,-0.1556476205587387,-0.2150997966527939,0.03189993649721146,-0.06888744980096817,-0.01798760890960693,0.04531514644622803,XArbitraryZVertical,0.3770208380571555,0.05898523031162409,0.05576271124762909,0.9226411726410082,0.06679699569940567,-0.7022882699966431,-0.7087520360946655,0,0,0,-1,-1,5080.63291325,unknown,2,2022-05-05T13:00:48.555+02:00,2022-05-05T12:55:18.700+02:00,176,0.9116709,0,0,128.845,0,0,2022-05-05T13:00:48.554+02:00,673441248.5544314,0,0.21,101.4428,1,0.88
2022-05-05T13:00:49.215+02:00,1651748445.391198,53.22886747750236,10.39797328778103,36.52425,0.5735041,0.3879698,60.52191008451118,41.13049114707324,2.400000095367432,5.999684891258126,-9999,5081.291846625,-0.038787841796875,-0.8402099609375,-0.6452789306640625,5081.281850625001,0.0838253267520471,0.093506732866686,0.7777526433891085,-0.06758261471986771,0.2802257835865021,-0.03844692930579185,-0.2433293759822845,0.1147964596748352,0.05937051773071289,XArbitraryZVertical,0.3765898828744743,0.05907794264530911,0.05643402476350047,0.9227703501346867,0.06652577966451645,-0.7016799449920654,-0.7093797326087952,0,0,0,-1,-1,5080.63291325,unknown,2,2022-05-05T13:00:48.555+02:00,2022-05-05T12:55:18.700+02:00,176,0.9116709,0,0,128.845,0,0,2022-05-05T13:00:48.554+02:00,673441248.5544314,0,0.21,101.4428,1,0.88
2022-05-05T13:00:49.225+02:00,1651748445.391198,53.22886747750236,10.39797328778103,36.52425,0.5735041,0.3879698,60.52191008451118,41.13049114707324,2.400000095367432,5.999684891258126,-9999,5081.301841625001,0.0973358154296875,-0.80712890625,-0.6025543212890625,5081.291846625,0.08034506632285539,0.09871028064381636,0.7769898233597453,-0.1084003522992134,0.2206223905086517,-0.39706951379776,-0.2802145779132843,-0.05370074510574341,0.02637463808059692,XArbitraryZVertical,0.3761956802151892,0.06081640159868035,0.05579648488060534,0.9228569259256161,0.07026888430118561,-0.7011362314224243,-0.7095563411712646,0,0,0,-1,-1,5080.63291325,unknown,2,2022-05-05T13:00:48.555+02:00,2022-05-05T12:55:18.700+02:00,176,0.9116709,0,0,128.845,0,0,2022-05-05T13:00:48.554+02:00,673441248.5544314,0,0.21,101.4428,1,0.88
2022-05-05T13:00:49.235+02:00,1651748445.391198,53.22886747750236,10.39797328778103,36.52425,0.5735041,0.3879698,60.52191008451118,41.13049114707324,2.400000095367432,5.999684891258126,-9999,5081.311837625,-0.071075439453125,-0.786529541015625,-0.6256256103515625,5081.301841625001,0.07474430899417298,0.1033010217130459,0.7743044470163046,-0.3368850946426392,-0.06223467737436295,-0.4747442603111267,0.007869333028793335,-0.1345517635345459,0.09665560722351074,XArbitraryZVertical,0.3749999363257774,0.06186097639673012,0.05403049119355501,0.923379130874217,0.07371940463781357,-0.6992189884185791,-0.7110965251922607,0,0,0,-1,-1,5080.63291325,unknown,2,2022-05-05T13:00:48.555+02:00,2022-05-05T12:55:18.700+02:00,176,0.9116709,0,0,128.845,0,0,2022-05-05T13:00:48.554+02:00,673441248.5544314,0,0.21,101.4428,1,0.88
2022-05-05T13:00:49.245+02:00,1651748445.391198,53.22886747750236,10.39797328778103,36.52425,0.5735041,0.3879698,60.52191008451118,41.13049114707324,2.400000095367432,5.999684891258126,-9999,5081.321832625001,-0.189666748046875,-0.805755615234375,-0.623016357421875,5081.311837625,0.06764715103147455,0.1073156470051122,0.7698477100701964,-0.4546149373054504,-0.1013293489813805,-0.6402919888496399,-0.05046313256025314,-0.09997934103012085,0.0973241925239563,XArbitraryZVertical,0.3730527121410271,0.06235889613778283,0.05142422922597564,0.9242827638130174,0.07690660655498505,-0.6960259079933167,-0.7138860821723938,0,0,0,-1,-1,5080.63291325,unknown,2,2022-05-05T13:00:48.555+02:00,2022-05-05T12:55:18.700+02:00,176,0.9116709,0,0,128.845,0,0,2022-05-05T13:00:48.554+02:00,673441248.5544314,0,0.21,101.4428,1,0.88
2022-05-05T13:00:49.255+02:00,1651748445.391198,53.22886747750236,10.39797328778103,36.52425,0.5735041,0.3879698,60.52191008451118,41.13049114707324,2.400000095367432,5.999684891258126,-9999,5081.331827625,-0.1999969482421875,-0.8597259521484375,-0.6346282958984375,5081.321832625001,0.05928876758437803,0.1124776204703844,0.764105183195098,-0.5665947794914246,-0.02727922424674034,-0.6762151718139648,-0.2302841395139694,-0.09353971481323242,0.09187495708465576,XArbitraryZVertical,0.3705269210559626,0.06316674316577191,0.04840656881733837,0.9254062346978041,0.08103792369365692,-0.6918911933898926,-0.7174395322799683,0,0,0,-1,-1,5080.63291325,unknown,2,2022-05-05T13:00:48.555+02:00,2022-05-05T12:55:18.700+02:00,176,0.9116709,0,0,128.845,0,0,2022-05-05T13:00:48.554+02:00,673441248.5544314,0,0.21,101.4428,1,0.88
2022-05-05T13:00:49.265+02:00,1651748445.391198,53.22886747750236,10.39797328778103,36.52425,0.5735041,0.3879698,60.52191008451118,41.13049114707324,2.400000095367432,5.999684891258126,-9999,5081.341823625,-0.166046142578125,-0.8468475341796875,-0.647064208984375,5081.331827625,0.05099452103401508,0.1182349473135606,0.7571550047994318,-0.7012399435043335,0.04055654630064964,-0.6881972551345825,-0.2918937802314758,-0.1566646099090576,0.09819900989532471,XArbitraryZVertical,0.3674338264135993,0.06428788514871259,0.04547781778503378,0.9267099412868116,0.08573226630687714,-0.6868565082550049,-0.7217189073562622,0,0,0,-1,-1,5080.63291325,unknown,2,2022-05-05T13:00:48.555+02:00,2022-05-05T12:55:18.700+02:00,176,0.9116709,0,0,128.845,0,0,2022-05-05T13:00:48.554+02:00,673441248.5544314,0,0.21,101.4428,1,0.88
2022-05-05T13:00:49.275+02:00,1651748445.391198,53.22886747750236,10.39797328778103,36.52425,0.5735041,0.3879698,60.52191008451118,41.13049114707324,2.400000095367432,5.999684891258126,-9999,5081.351818625,-0.171966552734375,-0.839263916015625,-0.655548095703125,5081.341823625,0.04208536354766614,0.1248117930501411,0.7484920875562699,-0.8610811233520508,0.04646610468626022,-0.8243207931518555,-0.2737399637699127,-0.1688305735588074,0.08343100547790527,XArbitraryZVertical,0.3635570246655898,0.06571287685403765,0.04234053021312043,0.9282863221545542,0.09121433645486832,-0.6805346608161926,-0.7270162105560303,0,0,0,-1,-1,5080.63291325,unknown,2,2022-05-05T13:00:48.555+02:00,2022-05-05T12:55:18.700+02:00,176,0.9116709,0,0,128.845,0,0,2022-05-05T13:00:48.554+02:00,673441248.5544314,0,0.21,101.4428,1,0.88
2022-05-05T13:00:49.285+02:00,1651748445.391198,53.22886747750236,10.39797328778103,36.52425,0.5735041,0.3879698,60.52191008451118,41.13049114707324,2.400000095367432,5.999684891258126,-9999,5081.361814625,-0.2179718017578125,-0.818115234375,-0.6708221435546875,5081.351818625,0.03182443464962995,0.1320693411957958,0.7383068019753567,-0.9757592678070068,0.03244802355766296,-0.9403840303421021,-0.2582388818264008,-0.1752147674560547,0.08456301689147949,XArbitraryZVertical,0.3590147659219686,0.0672623670720163,0.03861398805081109,0.9301038551499401,0.09739599376916885,-0.6730365753173828,-0.733168363571167,0,0,0,-1,-1,5080.63291325,unknown,2,2022-05-05T13:00:48.555+02:00,2022-05-05T12:55:18.700+02:00,176,0.9116709,0,0,128.845,0,0,2022-05-05T13:00:48.554+02:00,673441248.5544314,0,0.21,101.4428,1,0.88
2022-05-05T13:00:49.295+02:00,1651748445.391198,53.22886747750236,10.39797328778103,36.52425,0.5735041,0.3879698,60.52191008451118,41.13049114707324,2.400000095367432,5.999684891258126,-9999,5081.371809625,-0.2382354736328125,-0.8071441650390625,-0.6808929443359375,5081.361814625,0.02018249649854964,0.1403930151396407,0.7268266687507863,-1.069951176643372,0.08069857954978943,-1.088734865188599,-0.2982035875320435,-0.1630130410194397,0.07315576076507568,XArbitraryZVertical,0.3539116564726916,0.06913289592320736,0.03433955083322183,0.9320879925898422,0.1045695468783379,-0.6645016074180603,-0.7399343848228455,0,0,0,-1,-1,5080.63291325,unknown,2,2022-05-05T13:00:48.555+02:00,2022-05-05T12:55:18.700+02:00,176,0.9116709,0,0,128.845,0,0,2022-05-05T13:00:48.554+02:00,673441248.5544314,0,0.21,101.4428,1,0.88
2022-05-05T13:00:49.305+02:00,1651748445.391198,53.22886747750236,10.39797328778103,36.52425,0.5735041,0.3879698,60.52191008451118,41.13049114707324,2.400000095367432,5.999684891258126,-9999,5081.381805625,-0.23565673828125,-0.81268310546875,-0.7020263671875,5081.371809625,0.007335542823591515,0.1498609919763307,0.7142174281260126,-1.162395596504211,0.124774158000946,-1.190965294837952,-0.3468518257141113,-0.1566802263259888,0.07439237833023071,XArbitraryZVertical,0.3483263692855531,0.07141562636960555,0.02959526675104567,0.9341801678381411,0.1128124967217445,-0.6550263166427612,-0.7471370697021484,0,0,0,-1,-1,5080.63291325,unknown,2,2022-05-05T13:00:48.555+02:00,2022-05-05T12:55:18.700+02:00,176,0.9116709,0,0,128.845,0,0,2022-05-05T13:00:48.554+02:00,673441248.5544314,0,0.21,101.4428,1,0.88
2022-05-05T13:00:49.334+02:00,1651748445.391198,53.22886747750236,10.39797328778103,36.52425,0.5735041,0.3879698,60.52191008451118,41.13049114707324,2.400000095367432,5.999684891258126,-9999,5081.391800625001,-0.226959228515625,-0.820831298828125,-0.7124176025390625,5081.381805625,-0.006495340836965732,0.1602433050334701,0.7003439308757532,-1.26495897769928,0.1562042534351349,-1.32629120349884,-0.3581314086914062,-0.1636552810668945,0.06204509735107422,XArbitraryZVertical,0.3422011063025601,0.07406789970730335,0.02441613742229402,0.9363847546590665,0.1220016479492188,-0.6444807052612305,-0.754824697971344,0,0,0,-1,-1,5080.63291325,unknown,2,2022-05-05T13:00:48.555+02:00,2022-05-05T12:55:18.700+02:00,176,0.9116709,0,0,128.845,0,0,2022-05-05T13:00:48.554+02:00,673441248.5544314,0,0.21,101.4428,1,0.88
2022-05-05T13:00:49.337+02:00,1651748445.391198,53.22886747750236,10.39797328778103,36.52425,0.5735041,0.3879698,60.52191008451118,41.13049114707324,2.400000095367432,5.999684891258126,-9999,5081.401795625,-0.2279815673828125,-0.826873779296875,-0.741729736328125,5081.391800625001,-0.0216736198217065,0.1714982414204914,0.6851486093983499,-1.364648580551147,0.1563240885734558,-1.484221458435059,-0.3644604682922363,-0.1852050423622131,0.0557515025138855,XArbitraryZVertical,0.3355332223603582,0.0770360439533454,0.01859784898251121,0.938688986777248,0.1321453750133514,-0.6327880620956421,-0.7629657983779907,0,0,0,-1,-1,5080.63291325,unknown,2,2022-05-05T13:00:48.555+02:00,2022-05-05T12:55:18.700+02:00,176,0.9116709,0,0,128.845,0,0,2022-05-05T13:00:48.554+02:00,673441248.5544314,0,0.21,101.4428,1,0.88
2022-05-05T13:00:49.339+02:00,1651748445.391198,53.22886747750236,10.39797328778103,36.52425,0.5735041,0.3879698,60.52191008451118,41.13049114707324,2.400000095367432,5.999684891258126,-9999,5081.411791625001,-0.25323486328125,-0.825469970703125,-0.7641754150390625,5081.401795625,-0.03810995990664733,0.1833522630216782,0.6684643611047553,-1.475761413574219,0.165946289896965,-1.639396786689758,-0.3652837872505188,-0.2030639052391052,0.04946726560592651,XArbitraryZVertical,0.328254858932216,0.0802417929534229,0.01210238400688315,0.9410970431611683,0.1430853009223938,-0.6197816133499146,-0.771619975566864,0,0,0,-1,-1,5080.63291325,unknown,2,2022-05-05T13:00:48.555+02:00,2022-05-05T12:55:18.700+02:00,176,0.9116709,0,0,128.845,0,0,2022-05-05T13:00:48.554+02:00,673441248.5544314,0,0.21,101.4428,1,0.88
2022-05-05T13:00:49.345+02:00,1651748445.391198,53.22886747750236,10.39797328778103,36.52425,0.5735041,0.3879698,60.52191008451118,41.13049114707324,2.400000095367432,5.999684891258126,-9999,5081.421786625,-0.27728271484375,-0.8130950927734375,-0.7852020263671875,5081.411791625001,-0.05588397879940359,0.1959827310445065,0.6503669804422214,-1.565336585044861,0.1912319362163544,-1.804723739624023,-0.3962505459785461,-0.2237145900726318,0.02398872375488281,XArbitraryZVertical,0.320415964335036,0.08378811996111302,0.004897100153183499,0.9435514172755869,0.1549785733222961,-0.6054785251617432,-0.7806262969970703,0,0,0,-1,-1,5080.63291325,unknown,2,2022-05-05T13:00:48.555+02:00,2022-05-05T12:55:18.700+02:00,176,0.9116709,0,0,128.845,0,0,2022-05-05T13:00:48.554+02:00,673441248.5544314,0,0.21,101.4428,1,0.88
2022-05-05T13:00:49.354+02:00,1651748445.391198,53.22886747750236,10.39797328778103,36.52425,0.5735041,0.3879698,60.52191008451118,41.13049114707324,2.400000095367432,5.999684891258126,-9999,5081.431782625,-0.3011932373046875,-0.793792724609375,-0.8140716552734375,5081.421786625,-0.07480865222542725,0.2093687152758071,0.6310649919488444,-1.613485217094421,0.2333081513643265,-1.951740741729736,-0.4328570961952209,-0.2290868163108826,0.01675760746002197,XArbitraryZVertical,0.3121226782984542,0.08772389877314747,-0.002950871022760844,0.9459785067608015,0.1678119152784348,-0.5900049805641174,-0.7897679209709167,0,0,0,-1,-1,5080.63291325,unknown,2,2022-05-05T13:00:48.555+02:00,2022-05-05T12:55:18.700+02:00,176,0.9116709,0,0,128.845,0,0,2022-05-05T13:00:48.554+02:00,673441248.5544314,0,0.21,101.4428,1,0.88
2022-05-05T13:00:49.364+02:00,1651748445.391198,53.22886747750236,10.39797328778103,36.52425,0.5735041,0.3879698,60.52191008451118,41.13049114707324,2.400000095367432,5.999684891258126,-9999,5081.441777625,-0.3142547607421875,-0.7813720703125,-0.8476104736328125,5081.431782625,-0.09482587524074489,0.2237817248081119,0.6107993944817331,-1.650824427604675,0.3270317316055298,-2.103502511978149,-0.472763329744339,-0.2296696305274963,-0.002048313617706299,XArbitraryZVertical,0.3035055528707387,0.09220971023944018,-0.01138456121545932,0.9482891298530283,0.1817934811115265,-0.5735225081443787,-0.7987635135650635,0,0,0,-1,-1,5080.63291325,unknown,2,2022-05-05T13:00:48.555+02:00,2022-05-05T12:55:18.700+02:00,176,0.9116709,0,0,128.845,0,0,2022-05-05T13:00:48.554+02:00,673441248.5544314,0,0.21,101.4428,1,0.88
2022-05-05T13:00:49.374+02:00,1651748445.391198,53.22886747750236,10.39797328778103,36.52425,0.5735041,0.3879698,60.52191008451118,41.13049114707324,2.400000095367432,5.999684891258126,-9999,5081.451773625,-0.3108673095703125,-0.7640228271484375,-0.8691253662109375,5081.441777625,-0.1159029467486666,0.239428023601283,0.5897715183737163,-1.658064246177673,0.4241015911102295,-2.25665020942688,-0.5073574781417847,-0.232830286026001,-0.02380096912384033,XArbitraryZVertical,0.2946846194404101,0.09736878728891382,-0.02037111292009102,0.9504027999490033,0.1970852464437485,-0.556171178817749,-0.8073605895042419,0,0,0,-1,-1,5080.63291325,unknown,2,2022-05-05T13:00:48.555+02:00,2022-05-05T12:55:18.700+02:00,176,0.9116709,0,0,128.845,0,0,2022-05-05T13:00:48.554+02:00,673441248.5544314,0,0.21,101.4428,1,0.88
2022-05-05T13:00:49.384+02:00,1651748445.391198,53.22886747750236,10.39797328778103,36.52425,0.5735041,0.3879698,60.52191008451118,41.13049114707324,2.400000095367432,5.999684891258126,-9999,5081.461768625,-0.30108642578125,-0.74957275390625,-0.876983642578125,5081.451773625,-0.1380875837425131,0.2562976734969586,0.5678848275741323,-1.68910276889801,0.5304712057113647,-2.424584150314331,-0.5264861583709717,-0.2332985997200012,-0.04252952337265015,XArbitraryZVertical,0.2856469058850422,0.1032205867081035,-0.02996703886309517,0.9522884663686048,0.2137115299701691,-0.5378500819206238,-0.8155027031898499,0,0,0,-1,-1,5080.63291325,unknown,2,2022-05-05T13:00:48.555+02:00,2022-05-05T12:55:18.700+02:00,176,0.9116709,0,0,128.845,0,0,2022-05-05T13:00:48.554+02:00,673441248.5544314,0,0.21,101.4428,1,0.88
2022-05-05T13:00:49.395+02:00,1651748445.391198,53.22886747750236,10.39797328778103,36.52425,0.5735041,0.3879698,60.52191008451118,41.13049114707324,2.400000095367432,5.999684891258126,-9999,5081.471764625,-0.2783660888671875,-0.748260498046875,-0.879730224609375,5081.461768625,-0.1611653069676103,0.2743550600687976,0.5446200386542009,-1.791516184806824,0.6456508040428162,-2.580225706100464,-0.5390570163726807,-0.2390326857566833,-0.05134433507919312,XArbitraryZVertical,0.2761677979093096,0.109835000299437,-0.04014116296949873,0.9539688389746843,0.231729730963707,-0.5180931091308594,-0.8233352303504944,0,0,0,-1,-1,5080.63291325,unknown,2,2022-05-05T13:00:48.555+02:00,2022-05-05T12:55:18.700+02:00,176,0.9116709,0,0,128.845,0,0,2022-05-05T13:00:48.554+02:00,673441248.5544314,0,0.21,101.4428,1,0.88
2022-05-05T13:00:49.405+02:00,1651748445.391198,53.22886747750236,10.39797328778103,36.52425,0.5735041,0.3879698,60.52191008451118,41.13049114707324,2.400000095367432,5.999684891258126,-9999,5081.481759625,-0.2604827880859375,-0.7427978515625,-0.8751068115234375,5081.471764625,-0.1847147448773888,0.2932246161924027,0.5192577675686403,-1.947014451026917,0.7436780333518982,-2.745564460754395,-0.5398973226547241,-0.2519635558128357,-0.0478060245513916,XArbitraryZVertical,0.2659068586138141,0.1171673479646524,-0.05083487123308861,0.9555004602689088,0.2509416043758392,-0.4962358772754669,-0.8311306834220886,0,0,0,-1,-1,5080.63291325,unknown,2,2022-05-05T13:00:48.555+02:00,2022-05-05T12:55:18.700+02:00,176,0.9116709,0,0,128.845,0,0,2022-05-05T13:00:48.554+02:00,673441248.5544314,0,0.21,101.4428,1,0.88
2022-05-05T13:00:49.415+02:00,1651748445.391198,53.22886747750236,10.39797328778103,36.52425,0.5735041,0.3879698,60.52191008451118,41.13049114707324,2.400000095367432,5.999684891258126,-9999,5081.491754625,-0.2468109130859375,-0.7241668701171875,-0.8941650390625,5081.481759625,-0.2086547089461829,0.3127436895901543,0.4914686443771271,-2.123070240020752,0.8470304608345032,-2.912717580795288,-0.5404808521270752,-0.2766291797161102,-0.03836804628372192,XArbitraryZVertical,0.2547246989837894,0.125211108908046,-0.06209780656452556,0.9568602607693475,0.2712547481060028,-0.4719212055206299,-0.8388749957084656,0,0,0,-1,-1,5080.63291325,unknown,2,2022-05-05T13:00:48.555+02:00,2022-05-05T12:55:18.700+02:00,176,0.9116709,0,0,128.845,0,0,2022-05-05T13:00:48.554+02:00,673441248.5544314,0,0.21,101.4428,1,0.88
2022-05-05T13:00:49.425+02:00,1651748445.391198,53.22886747750236,10.39797328778103,36.52425,0.5735041,0.3879698,60.52191008451118,41.13049114707324,2.400000095367432,5.999684891258126,-9999,5081.501750625001,-0.240203857421875,-0.690399169921875,-0.9012603759765625,5081.491754625,-0.2325741349690249,0.3328211578753838,0.4608955385317541,-2.343222856521606,0.982815682888031,-3.064862489700317,-0.5442068576812744,-0.2883733510971069,-0.03783339262008667,XArbitraryZVertical,0.2424475288056343,0.1340399251902617,-0.07381780689311514,0.9580205813836341,0.292619913816452,-0.4447503685951233,-0.8465049862861633,0,0,0,-1,-1,5080.63291325,unknown,2,2022-05-05T13:00:48.555+02:00,2022-05-05T12:55:18.700+02:00,176,0.9116709,0,0,128.845,0,0,2022-05-05T13:00:48.554+02:00,673441248.5544314,0,0.21,101.4428,1,0.88
2022-05-05T13:00:49.435+02:00,1651748445.391198,53.22886747750236,10.39797328778103,36.52425,0.5735041,0.3879698,60.52191008451118,41.13049114707324,2.400000095367432,5.999684891258126,-9999,5081.511745625,-0.2143707275390625,-0.6460113525390625,-0.9280853271484375,5081.501750625001,-0.2560009217515474,0.3533656465503251,0.4269596406843024,-2.629652976989746,1.109652519226074,-3.205245494842529,-0.5602613091468811,-0.2949095666408539,-0.04498261213302612,XArbitraryZVertical,0.2287848142427942,0.1437463786822661,-0.08587805142929859,0.9589679645619542,0.3149915337562561,-0.4141052961349487,-0.8539889454841614,0,0,0,-1,-1,5080.63291325,unknown,2,2022-05-05T13:00:48.555+02:00,2022-05-05T12:55:18.700+02:00,176,0.9116709,0,0,128.845,0,0,2022-05-05T13:00:48.554+02:00,673441248.5544314,0,0.21,101.4428,1,0.88
2022-05-05T13:00:49.445+02:00,1651748445.391198,53.22886747750236,10.39797328778103,36.52425,0.5735041,0.3879698,60.52191008451118,41.13049114707324,2.400000095367432,5.999684891258126,-9999,5081.521741625001,-0.19805908203125,-0.562225341796875,-0.9718475341796875,5081.511745625,-0.2786027034544019,0.3739352524315646,0.3894832044720198,-2.901520252227783,1.221886873245239,-3.348575353622437,-0.5661343932151794,-0.2912490665912628,-0.04734563827514648,XArbitraryZVertical,0.2136205530940184,0.1541988629557744,-0.09823074685017506,0.9596560548912746,0.3379239439964294,-0.3797103762626648,-0.861177921295166,0,0,0,-1,-1,5080.63291325,unknown,2,2022-05-05T13:00:48.555+02:00,2022-05-05T12:55:18.700+02:00,176,0.9116709,0,0,128.845,0,0,2022-05-05T13:00:48.554+02:00,673441248.5544314,0,0.21,101.4428,1,0.88
2022-05-05T13:00:49.455+02:00,1651748445.391198,53.22886747750236,10.39797328778103,36.52425,0.5735041,0.3879698,60.52191008451118,41.13049114707324,2.400000095367432,5.999684891258126,-9999,5081.531736625,-0.183197021484375,-0.4710693359375,-0.9939422607421875,5081.521741625001,-0.3004733229465852,0.3949135199473374,0.3486867752901077,-3.129395246505737,1.395249962806702,-3.496463060379028,-0.5675088763237,-0.2659410238265991,-0.08486288785934448,XArbitraryZVertical,0.1970919659027586,0.1655680814694324,-0.1108932619233597,0.9599190717742025,0.3615762591362,-0.3416638970375061,-0.867483913898468,0,0,0,-1,-1,5080.63291325,unknown,2,2022-05-05T13:00:48.555+02:00,2022-05-05T12:55:18.700+02:00,176,0.9116709,0,0,128.845,0,0,2022-05-05T13:00:48.554+02:00,673441248.5544314,0,0.21,101.4428,1,0.88
2022-05-05T13:00:49.465+02:00,1651748445.391198,53.22886747750236,10.39797328778103,36.52425,0.5735041,0.3879698,60.52191008451118,41.13049114707324,2.400000095367432,5.999684891258126,-9999,5081.541732625,-0.1608123779296875,-0.3657684326171875,-0.984893798828125,5081.531736625,-0.3217432407801936,0.4165590862346691,0.3052423549426678,-3.260318040847778,1.570850014686584,-3.638581275939941,-0.576357364654541,-0.2154668569564819,-0.1167694926261902,XArbitraryZVertical,0.1795593900461482,0.1779089264058903,-0.1238649279451749,0.9595646558029576,0.3859124481678009,-0.3005243241786957,-0.8722136616706848,0,0,0,-1,-1,5080.63291325,unknown,2,2022-05-05T13:00:48.555+02:00,2022-05-05T12:55:18.700+02:00,176,0.9116709,0,0,128.845,0,0,2022-05-05T13:00:48.554+02:00,673441248.5544314,0,0.21,101.4428,1,0.88
2022-05-05T13:00:49.475+02:00,1651748445.391198,53.22886747750236,10.39797328778103,36.52425,0.5735041,0.3879698,60.52191008451118,41.13049114707324,2.400000095367432,5.999684891258126,-9999,5081.551727625,-0.1183624267578125,-0.253173828125,-0.9708099365234375,5081.541732625,-0.3425520815769835,0.438876112370042,0.2600229262588094,-3.315309286117554,1.731537580490112,-3.75249171257019,-0.5835050344467163,-0.1656419634819031,-0.1169300675392151,XArbitraryZVertical,0.1614735592037148,0.191118957700296,-0.1371402937951148,0.9584322321108806,0.4106382131576538,-0.2571026980876923,-0.8747996687889099,0,0,0,-1,-1,5080.63291325,unknown,2,2022-05-05T13:00:48.555+02:00,2022-05-05T12:55:18.700+02:00,176,0.9116709,0,0,128.845,0,0,2022-05-05T13:00:48.554+02:00,673441248.5544314,0,0.21,101.4428,1,0.88
2022-05-05T13:00:49.485+02:00,1651748445.391198,53.22886747750236,10.39797328778103,36.52425,0.5735041,0.3879698,60.52191008451118,41.13049114707324,2.400000095367432,5.999684891258126,-9999,5081.561722625001,-0.09027099609375,-0.153778076171875,-0.9927825927734375,5081.551727625,-0.3628782987924202,0.4615578968796719,0.2138237023959279,-3.273420810699463,1.86054253578186,-3.834982633590698,-0.5768794417381287,-0.09326758980751038,-0.097625732421875,XArbitraryZVertical,0.1432127738021297,0.2049521030853711,-0.1506510894758477,0.956446041576842,0.4352015852928162,-0.2121980637311935,-0.874969482421875,0,0,0,-1,-1,5080.63291325,unknown,2,2022-05-05T13:00:48.555+02:00,2022-05-05T12:55:18.700+02:00,176,0.9116709,0,0,128.845,0,0,2022-05-05T13:00:48.554+02:00,673441248.5544314,0,0.21,101.4428,1,0.88
