loggingTime(txt),locationTimestamp_since1970(s),locationLatitude(WGS84),locationLongitude(WGS84),locationAltitude(m),locationSpeed(m/s),locationSpeedAccuracy(m/s),locationCourse(°),locationCourseAccuracy(°),locationVerticalAccuracy(m),locationHorizontalAccuracy(m),locationFloor(Z),accelerometerTimestamp_sinceReboot(s),accelerometerAccelerationX(G),accelerometerAccelerationY(G),accelerometerAccelerationZ(G),motionTimestamp_sinceReboot(s),motionYaw(rad),motionRoll(rad),motionPitch(rad),motionRotationRateX(rad/s),motionRotationRateY(rad/s),motionRotationRateZ(rad/s),motionUserAccelerationX(G),motionUserAccelerationY(G),motionUserAccelerationZ(G),motionAttitudeReferenceFrame(txt),motionQuaternionX(R),motionQuaternionY(R),motionQuaternionZ(R),motionQuaternionW(R),motionGravityX(G),motionGravityY(G),motionGravityZ(G),motionMagneticFieldX(µT),motionMagneticFieldY(µT),motionMagneticFieldZ(µT),motionHeading(°),motionMagneticFieldCalibrationAccuracy(Z),activityTimestamp_sinceReboot(s),activity(txt),activityActivityConfidence(Z),activityActivityStartDate(txt),pedometerStartDate(txt),pedometerNumberofSteps(N),pedometerAverageActivePace(s/m),pedometerCurrentPace(s/m),pedometerCurrentCadence(steps/s),pedometerDistance(m),pedometerFloorAscended(N),pedometerFloorDescended(N),pedometerEndDate(txt),altimeterTimestamp_sinceReboot(s),altimeterReset(bool),altimeterRelativeAltitude(m),altimeterPressure(kPa),batteryState(N),batteryLevel(R)
2022-05-05T13:02:04.984+02:00,1651748523.999926,53.22894460009811,10.39802651436757,36.633,0,20,-1,-1,2.400000095367432,11.99936978251625,-9999,5148.703423666667,0.0587615966796875,-0.6437530517578125,-0.732818603515625,5148.693428666667,-3.021461537560362,0.07661005123228722,0.7118062449016542,-0.01368925720453262,-0.0305599719285965,-0.01958728767931461,-0.005750805139541626,-0.0125996470451355,0.0267520546913147,XArbitraryZVertical,-0.05673215681928782,0.3453986845476855,0.9341545765125066,-0.06954583518166231,0.05795112624764442,-0.6532024741172791,-0.7549624443054199,0,0,0,-1,-1,5143.922651041667,walking,2,2022-05-05T13:02:00.155+02:00,2022-05-05T12:55:18.700+02:00,270,0.8798907,0.7456771,1.900869,196.189,0,0,2022-05-05T13:02:02.713+02:00,673441320.1545693,0,0.8100004,101.4398,1,0.88
2022-05-05T13:02:04.989+02:00,1651748523.999926,53.22894460009811,10.39802651436757,36.633,0,20,-1,-1,2.400000095367432,11.99936978251625,-9999,5148.713419666667,0.07586669921875,-0.662322998046875,-0.7416839599609375,5148.703423666667,-3.021551966192911,0.07635429855030354,0.7113206347929963,-0.0645316019654274,-0.02721703797578812,-0.003418570384383202,-0.01498131453990936,0.006579101085662842,0.02444320917129517,XArbitraryZVertical,-0.05658666424073214,0.3451829580735733,0.9342497375669518,-0.06945581176716274,0.05778222903609276,-0.6528347134590149,-0.7552933692932129,0,0,0,-1,-1,5143.922651041667,walking,2,2022-05-05T13:02:00.155+02:00,2022-05-05T12:55:18.700+02:00,270,0.8798907,0.7456771,1.900869,196.189,0,0,2022-05-05T13:02:02.713+02:00,673441320.1545693,0,0.8100004,101.4398,1,0.88
2022-05-05T13:02:04.992+02:00,1651748523.999926,53.22894460009811,10.39802651436757,36.633,0,20,-1,-1,2.400000095367432,11.99936978251625,-9999,5148.723414666667,0.076324462890625,-0.6617279052734375,-0.759521484375,5148.713419666667,-3.021458535866851,0.07587232262367913,0.7102277527159092,-0.1201032549142838,-0.05491950735449791,-0.004134428221732378,0.00128936767578125,0.008253335952758789,0.02321362495422363,XArbitraryZVertical,-0.05635411122377003,0.3446855860197031,0.9344510099631868,-0.06940829133493082,0.05747223645448685,-0.6520064473152161,-0.7560321092605591,0,0,0,-1,-1,5143.922651041667,walking,2,2022-05-05T13:02:00.155+02:00,2022-05-05T12:55:18.700+02:00,270,0.8798907,0.7456771,1.900869,196.189,0,0,2022-05-05T13:02:02.713+02:00,673441320.1545693,0,0.8100004,101.4398,1,0.88
2022-05-05T13:02:05.002+02:00,1651748523.999926,53.22894460009811,10.39802651436757,36.633,0,20,-1,-1,2.400000095367432,11.99936978251625,-9999,5148.733410666667,0.0612945556640625,-0.6390533447265625,-0.7779083251953125,5148.723414666667,-3.021352067306779,0.0751464718084177,0.7089634917765517,-0.1145251244306564,-0.07459307461977005,0.007003976032137871,0.0188814140856266,-0.0112757682800293,0.01521110534667969,XArbitraryZVertical,-0.05600596596394082,0.3441160039350591,0.9346881019059342,-0.0693238965907166,0.05698529630899429,-0.6510473489761353,-0.7568950057029724,0,0,0,-1,-1,5143.922651041667,walking,2,2022-05-05T13:02:00.155+02:00,2022-05-05T12:55:18.700+02:00,270,0.8798907,0.7456771,1.900869,196.189,0,0,2022-05-05T13:02:02.713+02:00,673441320.1545693,0,0.8100004,101.4398,1,0.88
2022-05-05T13:02:05.004+02:00,1651748523.999926,53.22894460009811,10.39802651436757,36.633,0,20,-1,-1,2.400000095367432,11.99936978251625,-9999,5148.743405666667,0.0579071044921875,-0.6450347900390625,-0.7811126708984375,5148.733410666667,-3.020965382174415,0.07415739852540122,0.7079783331521702,-0.07179603725671768,-0.05797921121120453,0.02974604070186615,0.02004033699631691,-0.01142871379852295,-0.001931190490722656,XArbitraryZVertical,-0.05558875454730591,0.3436783089557578,0.9348736836975992,-0.06932761489267954,0.05628413334488869,-0.6502993106842041,-0.7575902342796326,0,0,0,-1,-1,5143.922651041667,walking,2,2022-05-05T13:02:00.155+02:00,2022-05-05T12:55:18.700+02:00,270,0.8798907,0.7456771,1.900869,196.189,0,0,2022-05-05T13:02:02.713+02:00,673441320.1545693,0,0.8100004,101.4398,1,0.88
2022-05-05T13:02:05.006+02:00,1651748523.999926,53.22894460009811,10.39802651436757,36.633,0,20,-1,-1,2.400000095367432,11.99936978251625,-9999,5148.753400666667,0.0583953857421875,-0.6496429443359375,-0.78472900390625,5148.743405666667,-3.020119294659346,0.07282707404096346,0.7072760160605466,-0.04533676430583,-0.04049615934491158,0.04483557865023613,0.005985096096992493,0.0107121467590332,-0.01978844404220581,XArbitraryZVertical,-0.05509674431241589,0.3433721983406214,0.9350032655742981,-0.06948991504711566,0.05530946329236031,-0.6497656106948853,-0.7581197619438171,0,0,0,-1,-1,5143.922651041667,walking,2,2022-05-05T13:02:00.155+02:00,2022-05-05T12:55:18.700+02:00,270,0.8798907,0.7456771,1.900869,196.189,0,0,2022-05-05T13:02:02.713+02:00,673441320.1545693,0,0.8100004,101.4398,1,0.88
2022-05-05T13:02:05.009+02:00,1651748523.999926,53.22894460009811,10.39802651436757,36.633,0,20,-1,-1,2.400000095367432,11.99936978251625,-9999,5148.763396666667,0.051239013671875,-0.6565399169921875,-0.7853851318359375,5148.753400666667,-3.01933019005044,0.07203159178414412,0.7069359000658966,-0.02379897981882095,-0.02529536932706833,0.07475273311138153,0.003184836357831955,0.004472136497497559,-0.02272868156433105,XArbitraryZVertical,-0.05485271164771861,0.3432189304194292,0.9350567343024591,-0.06972010553220685,0.05472227558493614,-0.6495070457458496,-0.7583838701248169,0,0,0,-1,-1,5143.922651041667,walking,2,2022-05-05T13:02:00.155+02:00,2022-05-05T12:55:18.700+02:00,270,0.8798907,0.7456771,1.900869,196.189,0,0,2022-05-05T13:02:02.713+02:00,673441320.1545693,0,0.8100004,101.4398,1,0.88
2022-05-05T13:02:05.015+02:00,1651748523.999926,53.22894460009811,10.39802651436757,36.633,0,20,-1,-1,2.400000095367432,11.99936978251625,-9999,5148.773391666667,0.0514373779296875,-0.6658935546875,-0.790374755859375,5148.763396666667,-3.018432937311405,0.07150700923069769,0.707130750919953,0.006807463709264994,-0.0006644583772867918,0.09688825905323029,0.004080004990100861,1.215934753417969e-05,-0.02644264698028564,XArbitraryZVertical,-0.05476585066481513,0.3433039279239819,0.9350058817350738,-0.07005075240552576,0.05431538820266724,-0.6496551632881165,-0.7582862377166748,0,0,0,-1,-1,5143.922651041667,walking,2,2022-05-05T13:02:00.155+02:00,2022-05-05T12:55:18.700+02:00,270,0.8798907,0.7456771,1.900869,196.189,0,0,2022-05-05T13:02:02.713+02:00,673441320.1545693,0,0.8100004,101.4398,1,0.88
2022-05-05T13:02:05.018+02:00,1651748523.999926,53.22894460009811,10.39802651436757,36.633,0,20,-1,-1,2.400000095367432,11.99936978251625,-9999,5148.783387666667,0.057342529296875,-0.6701812744140625,-0.7862396240234375,5148.773391666667,-3.016964336022303,0.07066779136535377,0.7075421459442411,0.02014377526938915,0.02376551739871502,0.1292707026004791,-0.002421107143163681,-0.006572186946868896,-0.02732014656066895,XArbitraryZVertical,-0.05463510092383912,0.3434858799113933,0.9349057682571167,-0.07059564445751587,0.05366012826561928,-0.6499678492546082,-0.7580649256706238,0,0,0,-1,-1,5143.922651041667,walking,2,2022-05-05T13:02:00.155+02:00,2022-05-05T12:55:18.700+02:00,270,0.8798907,0.7456771,1.900869,196.189,0,0,2022-05-05T13:02:02.713+02:00,673441320.1545693,0,0.8100004,101.4398,1,0.88
2022-05-05T13:02:05.027+02:00,1651748523.999926,53.22894460009811,10.39802651436757,36.633,0,20,-1,-1,2.400000095367432,11.99936978251625,-9999,5148.793382666667,0.06414794921875,-0.6685028076171875,-0.7859039306640625,5148.783387666667,-3.015110399438298,0.06969398744188518,0.7078873286346048,0.00815315917134285,0.02722922340035439,0.1477812677621841,-0.001468878239393234,-0.01566344499588013,-0.03248172998428345,XArbitraryZVertical,-0.05450644321727751,0.3436314811659744,0.9348064823931342,-0.07129685361518862,0.05290626734495163,-0.6502301692962646,-0.757892906665802,0,0,0,-1,-1,5143.922651041667,walking,2,2022-05-05T13:02:00.155+02:00,2022-05-05T12:55:18.700+02:00,270,0.8798907,0.7456771,1.900869,196.189,0,0,2022-05-05T13:02:02.713+02:00,673441320.1545693,0,0.8100004,101.4398,1,0.88
2022-05-05T13:02:05.037+02:00,1651748523.999926,53.22894460009811,10.39802651436757,36.633,0,20,-1,-1,2.400000095367432,11.99936978251625,-9999,5148.803378666667,0.06976318359375,-0.671875,-0.788330078125,5148.793382666667,-3.01324691912391,0.06879478211289618,0.7081013950078995,0.009943601675331593,0.0306394025683403,0.1358409821987152,0.005127359181642532,-0.01978856325149536,-0.02843821048736572,XArbitraryZVertical,-0.05441148852470374,0.3437131585669489,0.9347270084450314,-0.07201440984226661,0.05221517384052277,-0.6503927707672119,-0.7578012943267822,0,0,0,-1,-1,5143.922651041667,walking,2,2022-05-05T13:02:00.155+02:00,2022-05-05T12:55:18.700+02:00,270,0.8798907,0.7456771,1.900869,196.189,0,0,2022-05-05T13:02:02.713+02:00,673441320.1545693,0,0.8100004,101.4398,1,0.88
2022-05-05T13:02:05.046+02:00,1651748523.999926,53.22894460009811,10.39802651436757,36.633,0,20,-1,-1,2.400000095367432,11.99936978251625,-9999,5148.813373666667,0.0691070556640625,-0.64215087890625,-0.7830963134765625,5148.803378666667,-3.011736077827598,0.06824441690411787,0.7084704542043151,0.02896250039339066,0.03710462152957916,0.111928328871727,0.01236623153090477,-0.01782989501953125,-0.02831339836120605,XArbitraryZVertical,-0.05442295750804461,0.3438646899041997,0.93462320014915,-0.07262767715933838,0.05178172886371613,-0.6506730318069458,-0.7575904130935669,0,0,0,-1,-1,5143.922651041667,walking,2,2022-05-05T13:02:00.155+02:00,2022-05-05T12:55:18.700+02:00,270,0.8798907,0.7456771,1.900869,196.189,0,0,2022-05-05T13:02:02.713+02:00,673441320.1545693,0,0.8100004,101.4398,1,0.88
2022-05-05T13:02:05.056+02:00,1651748523.999926,53.22894460009811,10.39802651436757,36.633,0,20,-1,-1,2.400000095367432,11.99936978251625,-9999,5148.823369666667,0.053619384765625,-0.6373291015625,-0.7918701171875,5148.813373666667,-3.010356894746663,0.06780061668981996,0.7087334519912951,0.002468574792146683,0.04234146326780319,0.1223143935203552,0.01832928135991096,-0.02100235223770142,-0.0308874249458313,XArbitraryZVertical,-0.05445922679491062,0.3439664201881977,0.9345392441982886,-0.07319705494906577,0.05143390968441963,-0.6508727669715881,-0.7574425935745239,0,0,0,-1,-1,5143.922651041667,walking,2,2022-05-05T13:02:00.155+02:00,2022-05-05T12:55:18.700+02:00,270,0.8798907,0.7456771,1.900869,196.189,0,0,2022-05-05T13:02:02.713+02:00,673441320.1545693,0,0.8100004,101.4398,1,0.88
2022-05-05T13:02:05.066+02:00,1651748523.999926,53.22894460009811,10.39802651436757,36.633,0,20,-1,-1,2.400000095367432,11.99936978251625,-9999,5148.833364666667,0.05914306640625,-0.68023681640625,-0.783843994140625,5148.823369666667,-3.008732646583999,0.0673389248363515,0.7087349183457436,0.006174696609377861,0.07258951663970947,0.1195850521326065,0.01802292838692665,0.008722901344299316,-0.0256308913230896,XArbitraryZVertical,-0.05452286770529012,0.3439398516784222,0.9344917858688654,-0.07387659398154738,0.05108413472771645,-0.6508738398551941,-0.7574652433395386,0,0,0,-1,-1,5143.922651041667,walking,2,2022-05-05T13:02:00.155+02:00,2022-05-05T12:55:18.700+02:00,270,0.8798907,0.7456771,1.900869,196.189,0,0,2022-05-05T13:02:02.713+02:00,673441320.1545693,0,0.8100004,101.4398,1,0.88
2022-05-05T13:02:05.076+02:00,1651748523.999926,53.22894460009811,10.39802651436757,36.633,0,20,-1,-1,2.400000095367432,11.99936978251625,-9999,5148.843360666667,0.0847015380859375,-0.69232177734375,-0.7716217041015625,5148.833364666667,-3.007630602727012,0.06739523698504543,0.7088172055195227,0.0108615942299366,0.06802432239055634,0.05268191546201706,0.002496208995580673,0.01360714435577393,-0.03446108102798462,XArbitraryZVertical,-0.05474078944064626,0.3439461692485006,0.9344350788228013,-0.07440153466152688,0.05112318322062492,-0.6509363055229187,-0.7574089765548706,0,0,0,-1,-1,5143.922651041667,walking,2,2022-05-05T13:02:00.155+02:00,2022-05-05T12:55:18.700+02:00,270,0.8798907,0.7456771,1.900869,196.189,0,0,2022-05-05T13:02:02.713+02:00,673441320.1545693,0,0.8100004,101.4398,1,0.88
2022-05-05T13:02:05.086+02:00,1651748524.999939,53.22894750940593,10.39803363735475,36.722,0,20,-1,-1,2.400000095367432,11.99936978251625,-9999,5148.853355666667,0.068572998046875,-0.685546875,-0.775390625,5148.843360666667,-3.007062567546597,0.06756239854052842,0.7085974023049507,-0.05068862065672874,0.0359313040971756,0.04352496936917305,0.007883623242378235,-0.02946746349334717,-0.02630072832107544,XArbitraryZVertical,-0.05491093266784981,0.3438214505204064,0.9344477086548619,-0.07469478237153998,0.05125945433974266,-0.6507694721221924,-0.7575432062149048,0,0,0,-1,-1,5143.922651041667,walking,2,2022-05-05T13:02:00.155+02:00,2022-05-05T12:55:18.700+02:00,270,0.8798907,0.7456771,1.900869,196.189,0,0,2022-05-05T13:02:02.713+02:00,673441320.1545693,0,0.8100004,101.4398,1,0.88
2022-05-05T13:02:05.096+02:00,1651748524.999939,53.22894750940593,10.39803363735475,36.722,0,20,-1,-1,2.400000095367432,11.99936978251625,-9999,5148.863350666667,0.0476837158203125,-0.6878814697265625,-0.7812652587890625,5148.853355666667,-3.0063917772558,0.0673340782581336,0.7076534512447369,-0.1282595843076706,0.01205712929368019,0.04233533516526222,0.03357374668121338,-0.04226940870285034,-0.01345419883728027,XArbitraryZVertical,-0.0548951812060421,0.343369807241549,0.9345929461027159,-0.07496509948653449,0.05112779513001442,-0.6500524282455444,-0.7581673860549927,0,0,0,-1,-1,5143.922651041667,walking,2,2022-05-05T13:02:00.155+02:00,2022-05-05T12:55:18.700+02:00,270,0.8798907,0.7456771,1.900869,196.189,0,0,2022-05-05T13:02:02.713+02:00,673441320.1545693,0,0.8100004,101.4398,1,0.88
2022-05-05T13:02:05.106+02:00,1651748524.999939,53.22894750940593,10.39803363735475,36.722,0,20,-1,-1,2.400000095367432,11.99936978251625,-9999,5148.873346666667,0.010406494140625,-0.7267303466796875,-0.783905029296875,5148.863350666667,-3.005768169368105,0.06712188010198993,0.7060935442806114,-0.2042431235313416,0.03868640959262848,0.04923738539218903,0.01753814518451691,-0.03668063879013062,-0.01620149612426758,XArbitraryZVertical,-0.05486249460665194,0.3426303927053524,0.9348462194774952,-0.0752138898880689,0.05103486031293869,-0.6488662958145142,-0.7591890692710876,0,0,0,-1,-1,5143.922651041667,walking,2,2022-05-05T13:02:00.155+02:00,2022-05-05T12:55:18.700+02:00,270,0.8798907,0.7456771,1.900869,196.189,0,0,2022-05-05T13:02:02.713+02:00,673441320.1545693,0,0.8100004,101.4398,1,0.88
2022-05-05T13:02:05.116+02:00,1651748524.999939,53.22894750940593,10.39803363735475,36.722,0,20,-1,-1,2.400000095367432,11.99936978251625,-9999,5148.883341666667,0.077423095703125,-0.6190948486328125,-0.7759552001953125,5148.873346666667,-3.004883627313932,0.06710305772268203,0.704113301633808,-0.1872524321079254,0.05029220134019852,0.01994820311665535,-0.003422904759645462,-0.04052335023880005,-0.02079463005065918,XArbitraryZVertical,-0.05495323756075975,0.3416795012284205,0.9351563767734586,-0.07561634899245774,0.05110662803053856,-0.647358238697052,-0.7604705095291138,0,0,0,-1,-1,5143.922651041667,walking,2,2022-05-05T13:02:00.155+02:00,2022-05-05T12:55:18.700+02:00,270,0.8798907,0.7456771,1.900869,196.189,0,0,2022-05-05T13:02:02.713+02:00,673441320.1545693,0,0.8100004,101.4398,1,0.88
2022-05-05T13:02:05.126+02:00,1651748524.999939,53.22894750940593,10.39803363735475,36.722,0,20,-1,-1,2.400000095367432,11.99936978251625,-9999,5148.893337666667,0.0511322021484375,-0.6414642333984375,-0.7746734619140625,5148.883341666667,-3.004979738206076,0.06756777753049578,0.7022467380751101,-0.1589571684598923,0.02478810586035252,-0.04617535322904587,-0.0411350205540657,-0.0807960033416748,-0.02225399017333984,XArbitraryZVertical,-0.05510517212641503,0.340790164400251,0.9354697736045643,-0.07564320831375469,0.0515415221452713,-0.6459344625473022,-0.7616509795188904,0,0,0,-1,-1,5143.922651041667,walking,2,2022-05-05T13:02:00.155+02:00,2022-05-05T12:55:18.700+02:00,270,0.8798907,0.7456771,1.900869,196.189,0,0,2022-05-05T13:02:02.713+02:00,673441320.1545693,0,0.8100004,101.4398,1,0.88
2022-05-05T13:02:05.136+02:00,1651748524.999939,53.22894750940593,10.39803363735475,36.722,0,20,-1,-1,2.400000095367432,11.99936978251625,-9999,5148.903332666667,-0.0181427001953125,-0.6198577880859375,-0.7808074951171875,5148.893337666667,-3.005061247707175,0.06782814042693208,0.7009561278944253,-0.1095645874738693,0.01953981257975101,0.03406568616628647,0.02562681958079338,0.02585369348526001,-0.01348650455474854,XArbitraryZVertical,-0.0551792520258823,0.3401777937970735,0.9356882264129619,-0.07564407107871257,0.05179628729820251,-0.6449486613273621,-0.7624686360359192,0,0,0,-1,-1,5143.922651041667,walking,2,2022-05-05T13:02:00.155+02:00,2022-05-05T12:55:18.700+02:00,270,0.8798907,0.7456771,1.900869,196.189,0,0,2022-05-05T13:02:02.713+02:00,673441320.1545693,0,0.8100004,101.4398,1,0.88
2022-05-05T13:02:05.146+02:00,1651748524.999939,53.22894750940593,10.39803363735475,36.722,0,20,-1,-1,2.400000095367432,11.99936978251625,-9999,5148.913328666667,0.0091552734375,-0.62518310546875,-0.7770538330078125,5148.903332666667,-3.003953006350481,0.06762000601206246,0.7002958616293951,-0.01675372198224068,0.08339142799377441,0.1060925424098969,-0.0005341395735740662,0.002979576587677002,-0.01176929473876953,XArbitraryZVertical,-0.05525288249439448,0.3398456417931369,0.9357656452175459,-0.07612448057929994,0.05166635289788246,-0.6444439291954041,-0.7629041075706482,0,0,0,-1,-1,5143.922651041667,walking,2,2022-05-05T13:02:00.155+02:00,2022-05-05T12:55:18.700+02:00,270,0.8798907,0.7456771,1.900869,196.189,0,0,2022-05-05T13:02:02.713+02:00,673441320.1545693,0,0.8100004,101.4398,1,0.88
2022-05-05T13:02:05.156+02:00,1651748524.999939,53.22894750940593,10.39803363735475,36.722,0,20,-1,-1,2.400000095367432,11.99936978251625,-9999,5148.923323666667,0.0590667724609375,-0.67657470703125,-0.7517547607421875,5148.913328666667,-3.002925854882038,0.06806771568488512,0.7007449360473916,0.1018448248505592,0.1321264803409576,0.04585742950439453,-0.07013089954853058,0.02492940425872803,-0.01821541786193848,XArbitraryZVertical,-0.05564886540963902,0.3400105680890432,0.9356365519438946,-0.07668292774389628,0.05198821425437927,-0.6447872519493103,-0.7625920176506042,0,0,0,-1,-1,5143.922651041667,walking,2,2022-05-05T13:02:00.155+02:00,2022-05-05T12:55:18.700+02:00,270,0.8798907,0.7456771,1.900869,196.189,0,0,2022-05-05T13:02:02.713+02:00,673441320.1545693,0,0.8100004,101.4398,1,0.88
2022-05-05T13:02:05.166+02:00,1651748524.999939,53.22894750940593,10.39803363735475,36.722,0,20,-1,-1,2.400000095367432,11.99936978251625,-9999,5148.933319666667,0.0603179931640625,-0.6828460693359375,-0.7446746826171875,5148.923323666667,-3.002798260397312,0.06918752519525746,0.7019321953019081,0.1110881268978119,0.09903191030025482,-0.002186791971325874,-0.04363389313220978,0.02051115036010742,-0.01528465747833252,XArbitraryZVertical,-0.05622601172831811,0.3405203166564463,0.9353956787617462,-0.07693808005592502,0.05278917774558067,-0.6456943154335022,-0.7617691159248352,0,0,0,-1,-1,5143.922651041667,walking,2,2022-05-05T13:02:00.155+02:00,2022-05-05T12:55:18.700+02:00,270,0.8798907,0.7456771,1.900869,196.189,0,0,2022-05-05T13:02:02.713+02:00,673441320.1545693,0,0.8100004,101.4398,1,0.88
2022-05-05T13:02:05.176+02:00,1651748524.999939,53.22894750940593,10.39803363735475,36.722,0,20,-1,-1,2.400000095367432,11.99936978251625,-9999,5148.943314666667,0.0333099365234375,-0.6676483154296875,-0.755584716796875,5148.933319666667,-3.003113783525328,0.07010607970843154,0.7029061675578748,0.07529710233211517,0.04189964756369591,-0.02338182553648949,0.005621973425149918,-0.03013706207275391,0.009337902069091797,XArbitraryZVertical,-0.05662765388237393,0.3409501733564745,0.9352137496305357,-0.07695129915345386,0.05344480276107788,-0.6464377045631409,-0.7610926032066345,0,0,0,-1,-1,5143.922651041667,walking,2,2022-05-05T13:02:00.155+02:00,2022-05-05T12:55:18.700+02:00,270,0.8798907,0.7456771,1.900869,196.189,0,0,2022-05-05T13:02:02.713+02:00,673441320.1545693,0,0.8100004,101.4398,1,0.88
2022-05-05T13:02:05.186+02:00,1651748524.999939,53.22894750940593,10.39803363735475,36.722,0,20,-1,-1,2.400000095367432,11.99936978251625,-9999,5148.953310666667,0.0232086181640625,-0.6583709716796875,-0.7656402587890625,5148.943314666667,-3.003606877842047,0.07082571629218143,0.7035564206809889,0.05261822789907455,0.03870372101664543,-0.03500905260443687,0.006355259567499161,-0.03591245412826538,0.01595985889434814,XArbitraryZVertical,-0.05689717541897446,0.3412410690365567,0.9350999496969786,-0.07684647753564768,0.05396274477243423,-0.6469337344169617,-0.7606344819068909,0,0,0,-1,-1,5143.922651041667,walking,2,2022-05-05T13:02:00.155+02:00,2022-05-05T12:55:18.700+02:00,270,0.8798907,0.7456771,1.900869,196.189,0,0,2022-05-05T13:02:02.713+02:00,673441320.1545693,0,0.8100004,101.4398,1,0.88
2022-05-05T13:02:05.197+02:00,1651748524.999939,53.22894750940593,10.39803363735475,36.722,0,20,-1,-1,2.400000095367432,11.99936978251625,-9999,5148.963305666667,0.0301361083984375,-0.6603851318359375,-0.7762298583984375,5148.953310666667,-3.004003536152597,0.07148202038147174,0.7040203693607445,0.03781211748719215,0.04568146914243698,-0.02329806983470917,-0.02113055437803268,-0.02036094665527344,0.004714846611022949,XArbitraryZVertical,-0.05714846068805838,0.341444427109346,0.9350163466455198,-0.0767752879970371,0.05444050207734108,-0.6472874283790588,-0.7602995038032532,0,0,0,-1,-1,5143.922651041667,walking,2,2022-05-05T13:02:00.155+02:00,2022-05-05T12:55:18.700+02:00,270,0.8798907,0.7456771,1.900869,196.189,0,0,2022-05-05T13:02:02.713+02:00,673441320.1545693,0,0.8100004,101.4398,1,0.88
2022-05-05T13:02:05.206+02:00,1651748524.999939,53.22894750940593,10.39803363735475,36.722,0,20,-1,-1,2.400000095367432,11.99936978251625,-9999,5148.973300666667,0.03131103515625,-0.66162109375,-0.7812347412109375,5148.963305666667,-3.004199404174491,0.07191751666964591,0.704433272813502,0.01840279996395111,0.03631899505853653,-0.02678481303155422,-0.03154376521706581,-0.01076894998550415,-0.005631089210510254,XArbitraryZVertical,-0.05732936036389302,0.3416267323873098,0.9349398368568016,-0.07676011536699055,0.05475239083170891,-0.6476020812988281,-0.7600090503692627,0,0,0,-1,-1,5143.922651041667,walking,2,2022-05-05T13:02:00.155+02:00,2022-05-05T12:55:18.700+02:00,270,0.8798907,0.7456771,1.900869,196.189,0,0,2022-05-05T13:02:02.713+02:00,673441320.1545693,0,0.8100004,101.4398,1,0.88
2022-05-05T13:02:05.216+02:00,1651748524.999939,53.22894750940593,10.39803363735475,36.722,0,20,-1,-1,2.400000095367432,11.99936978251625,-9999,5148.983296666667,0.02783203125,-0.6654510498046875,-0.7891082763671875,5148.973300666667,-3.004662166638684,0.07261763804680446,0.7043923584168582,0.003491228446364403,0.03609289228916168,-0.03638790547847748,-0.02515028417110443,-0.01281434297561646,-0.01623284816741943,XArbitraryZVertical,-0.05757654441735906,0.3415940249067665,0.9349445207105186,-0.07666315667336529,0.05528639629483223,-0.6475709080696106,-0.7599969506263733,0,0,0,-1,-1,5143.922651041667,walking,2,2022-05-05T13:02:00.155+02:00,2022-05-05T12:55:18.700+02:00,270,0.8798907,0.7456771,1.900869,196.189,0,0,2022-05-05T13:02:02.713+02:00,673441320.1545693,0,0.8100004,101.4398,1,0.88
2022-05-05T13:02:05.226+02:00,1651748524.999939,53.22894750940593,10.39803363735475,36.722,0,20,-1,-1,2.400000095367432,11.99936978251625,-9999,5148.993291666667,0.0305023193359375,-0.6644744873046875,-0.7873687744140625,5148.983296666667,-3.005124479698941,0.07337287134391468,0.7043529287181237,0.006006051786243916,0.05815691500902176,-0.03555966168642044,-0.02455118298530579,-0.01408034563064575,-0.02125424146652222,XArbitraryZVertical,-0.05784962239209065,0.3415599666992644,0.9349472646463427,-0.07657581344465089,0.05586222931742668,-0.6475408673286438,-0.7599804401397705,0,0,0,-1,-1,5143.922651041667,walking,2,2022-05-05T13:02:00.155+02:00,2022-05-05T12:55:18.700+02:00,270,0.8798907,0.7456771,1.900869,196.189,0,0,2022-05-05T13:02:02.713+02:00,673441320.1545693,0,0.8100004,101.4398,1,0.88
2022-05-05T13:02:05.236+02:00,1651748524.999939,53.22894750940593,10.39803363735475,36.722,0,20,-1,-1,2.400000095367432,11.99936978251625,-9999,5149.003287666667,0.038482666015625,-0.6548004150390625,-0.786529541015625,5148.993291666667,-3.005466707230353,0.07407693951819923,0.7043785232525098,0.02382100187242031,0.07477530092000961,-0.03934800624847412,-0.02856402844190598,-0.01789075136184692,-0.02918380498886108,XArbitraryZVertical,-0.05812096249258103,0.3415548943225103,0.9349356030814332,-0.07653622678199275,0.05639606714248657,-0.6475603580474854,-0.7599244117736816,0,0,0,-1,-1,5143.922651041667,walking,2,2022-05-05T13:02:00.155+02:00,2022-05-05T12:55:18.700+02:00,270,0.8798907,0.7456771,1.900869,196.189,0,0,2022-05-05T13:02:02.713+02:00,673441320.1545693,0,0.8100004,101.4398,1,0.88
2022-05-05T13:02:05.246+02:00,1651748524.999939,53.22894750940593,10.39803363735475,36.722,0,20,-1,-1,2.400000095367432,11.99936978251625,-9999,5149.013282666667,0.048583984375,-0.6424407958984375,-0.789306640625,5149.003287666667,-3.00590732803075,0.07507846960860598,0.7046331178303649,0.05262122303247452,0.08674008399248123,-0.04156295955181122,-0.02664242684841156,-0.0167202353477478,-0.02766561508178711,XArbitraryZVertical,-0.05852034717563859,0.3416486764316557,0.9348791176133118,-0.07650277509985721,0.05714475736021996,-0.6477543711662292,-0.7597030997276306,0,0,0,-1,-1,5143.922651041667,walking,2,2022-05-05T13:02:00.155+02:00,2022-05-05T12:55:18.700+02:00,270,0.8798907,0.7456771,1.900869,196.189,0,0,2022-05-05T13:02:02.713+02:00,673441320.1545693,0,0.8100004,101.4398,1,0.88
2022-05-05T13:02:05.256+02:00,1651748524.999939,53.22894750940593,10.39803363735475,36.722,0,20,-1,-1,2.400000095367432,11.99936978251625,-9999,5149.023278666667,0.0558013916015625,-0.647552490234375,-0.791473388671875,5149.013282666667,-3.006500387167104,0.07640932217138105,0.7054204743277882,0.09094890207052231,0.1007760092616081,-0.03848301619291306,-0.01963413506746292,-0.006446540355682373,-0.0274118185043335,XArbitraryZVertical,-0.05906086994055171,0.3419839174987548,0.9347262380996877,-0.0764578050269047,0.05811680853366852,-0.6483539938926697,-0.759117603302002,0,0,0,-1,-1,5143.922651041667,walking,2,2022-05-05T13:02:00.155+02:00,2022-05-05T12:55:18.700+02:00,270,0.8798907,0.7456771,1.900869,196.189,0,0,2022-05-05T13:02:02.713+02:00,673441320.1545693,0,0.8100004,101.4398,1,0.88
2022-05-05T13:02:05.266+02:00,1651748524.999939,53.22894750940593,10.39803363735475,36.722,0,20,-1,-1,2.400000095367432,11.99936978251625,-9999,5149.033273666667,0.0584716796875,-0.6642303466796875,-0.785125732421875,5149.023278666667,-3.007171072448745,0.0778711020930395,0.7066091158660315,0.1260264664888382,0.103971540927887,-0.045161422342062,-0.01058242097496986,0.00681757926940918,-0.03104358911514282,XArbitraryZVertical,-0.05965881491128008,0.3425044942373073,0.9345021703733198,-0.07640216148580634,0.05916641652584076,-0.6492584943771362,-0.7582629919052124,0,0,0,-1,-1,5143.922651041667,walking,2,2022-05-05T13:02:00.155+02:00,2022-05-05T12:55:18.700+02:00,270,0.8798907,0.7456771,1.900869,196.189,0,0,2022-05-05T13:02:02.713+02:00,673441320.1545693,0,0.8100004,101.4398,1,0.88
2022-05-05T13:02:05.276+02:00,1651748524.999939,53.22894750940593,10.39803363735475,36.722,0,20,-1,-1,2.400000095367432,11.99936978251625,-9999,5149.043269666667,0.0593414306640625,-0.6719512939453125,-0.7807464599609375,5149.033273666667,-3.007824154996231,0.07924831523164153,0.7080018425707737,0.1430672109127045,0.1010659709572792,-0.04387851059436798,-0.004337605088949203,0.002764523029327393,-0.03419464826583862,XArbitraryZVertical,-0.06022457110260326,0.34312340358923,0.9342436874147162,-0.07634256719386955,0.0601390078663826,-0.6503171324729919,-0.7572786808013916,0,0,0,-1,-1,5143.922651041667,walking,2,2022-05-05T13:02:00.155+02:00,2022-05-05T12:55:18.700+02:00,270,0.8798907,0.7456771,1.900869,196.189,0,0,2022-05-05T13:02:02.713+02:00,673441325.264267,0,1.28,101.4331,1,0.88
2022-05-05T13:02:05.286+02:00,1651748524.999939,53.22894750940593,10.39803363735475,36.722,0,20,-1,-1,2.400000095367432,11.99936978251625,-9999,5149.053264666667,0.05712890625,-0.6759796142578125,-0.768035888671875,5149.043269666667,-3.008409156862661,0.08048723921970338,0.709344686862921,0.1266190111637115,0.09687528014183044,-0.04689114540815353,-0.002535220235586166,-0.01289373636245728,-0.02879321575164795,XArbitraryZVertical,-0.06073545305604029,0.3437222739350667,0.9339945395760293,-0.07629162341415913,0.06100690364837646,-0.651336669921875,-0.7563323974609375,0,0,0,-1,-1,5143.922651041667,walking,2,2022-05-05T13:02:00.155+02:00,2022-05-05T12:55:18.700+02:00,270,0.8798907,0.7456771,1.900869,196.189,0,0,2022-05-05T13:02:02.713+02:00,673441325.264267,0,1.28,101.4331,1,0.88
2022-05-05T13:02:05.296+02:00,1651748524.999939,53.22894750940593,10.39803363735475,36.722,0,20,-1,-1,2.400000095367432,11.99936978251625,-9999,5149.063260666667,0.0603485107421875,-0.6739501953125,-0.7541046142578125,5149.053264666667,-3.009115779478367,0.08183634994059966,0.7103641574809144,0.09395215660333633,0.09984390437602997,-0.05758027359843254,-0.002631470561027527,-0.01984149217605591,-0.02515912055969238,XArbitraryZVertical,-0.06126842273863481,0.3441693809797045,0.9338024556816864,-0.07620128175164403,0.06197291240096092,-0.6521098613739014,-0.7555872201919556,0,0,0,-1,-1,5143.922651041667,walking,2,2022-05-05T13:02:00.155+02:00,2022-05-05T12:55:18.700+02:00,270,0.8798907,0.7456771,1.900869,196.189,0,0,2022-05-05T13:02:02.713+02:00,673441325.264267,0,1.28,101.4331,1,0.88
2022-05-05T13:02:05.306+02:00,1651748524.999939,53.22894750940593,10.39803363735475,36.722,0,20,-1,-1,2.400000095367432,11.99936978251625,-9999,5149.073255666667,0.069549560546875,-0.668060302734375,-0.7490386962890625,5149.063260666667,-3.009908882457665,0.08330721464098051,0.7110957138323336,0.07025834172964096,0.1038979068398476,-0.06254347413778305,-0.00591558963060379,-0.02331537008285522,-0.01301610469818115,XArbitraryZVertical,-0.06183594696193567,0.3444800436378291,0.933659510386097,-0.0760899594940927,0.06304449588060379,-0.6526643037796021,-0.7550196051597595,0,0,0,-1,-1,5143.922651041667,walking,2,2022-05-05T13:02:00.155+02:00,2022-05-05T12:55:18.700+02:00,270,0.8798907,0.7456771,1.900869,196.189,0,0,2022-05-05T13:02:02.713+02:00,673441325.264267,0,1.28,101.4331,1,0.88
2022-05-05T13:02:05.316+02:00,1651748524.999939,53.22894750940593,10.39803363735475,36.722,0,20,-1,-1,2.400000095367432,11.99936978251625,-9999,5149.083250666667,0.07379150390625,-0.669281005859375,-0.7522735595703125,5149.073255666667,-3.010717208310334,0.08477318250672515,0.7116216277563536,0.05471506714820862,0.09874122589826584,-0.06658322364091873,-0.003773674368858337,-0.02088755369186401,0.0004796981811523438,XArbitraryZVertical,-0.06239331213096697,0.3446954317832809,0.9335527147264274,-0.0759695356783102,0.06412218511104584,-0.6530627012252808,-0.7545842528343201,0,0,0,-1,-1,5143.922651041667,walking,2,2022-05-05T13:02:00.155+02:00,2022-05-05T12:55:18.700+02:00,270,0.8798907,0.7456771,1.900869,196.189,0,0,2022-05-05T13:02:02.713+02:00,673441325.264267,0,1.28,101.4331,1,0.88
2022-05-05T13:02:05.326+02:00,1651748524.999939,53.22894750940593,10.39803363735475,36.722,0,20,-1,-1,2.400000095367432,11.99936978251625,-9999,5149.093246666667,0.0709075927734375,-0.6685028076171875,-0.74859619140625,5149.083250666667,-3.011582610145122,0.08619576461221455,0.7120289449939391,0.04401791468262672,0.09189151227474213,-0.07265304028987885,0.004376888275146484,-0.01468932628631592,0.005188643932342529,XArbitraryZVertical,-0.06291752773357749,0.3448590405576651,0.9334697966806857,-0.07581437336207812,0.06517267972230911,-0.6533710956573486,-0.7542272806167603,0,0,0,-1,-1,5143.922651041667,walking,2,2022-05-05T13:02:00.155+02:00,2022-05-05T12:55:18.700+02:00,270,0.8798907,0.7456771,1.900869,196.189,0,0,2022-05-05T13:02:02.713+02:00,673441325.264267,0,1.28,101.4331,1,0.88
2022-05-05T13:02:05.336+02:00,1651748524.999939,53.22894750940593,10.39803363735475,36.722,0,20,-1,-1,2.400000095367432,11.99936978251625,-9999,5149.103241666667,0.0655670166015625,-0.6688385009765625,-0.7389984130859375,5149.093246666667,-3.012555331806886,0.08764285801861735,0.7122617893235484,0.02974017709493637,0.08315473794937134,-0.08131016790866852,0.007540777325630188,-0.01573371887207031,0.001707136631011963,XArbitraryZVertical,-0.06343046840881927,0.344943896750258,0.9334201144893128,-0.07561203717102408,0.06625072658061981,-0.6535473465919495,-0.7539805769920349,0,0,0,-1,-1,5143.922651041667,walking,2,2022-05-05T13:02:00.155+02:00,2022-05-05T12:55:18.700+02:00,270,0.8798907,0.7456771,1.900869,196.189,0,0,2022-05-05T13:02:02.713+02:00,673441325.264267,0,1.28,101.4331,1,0.88
2022-05-05T13:02:05.346+02:00,1651748524.999939,53.22894750940593,10.39803363735475,36.722,0,20,-1,-1,2.400000095367432,11.99936978251625,-9999,5149.113237666667,0.0615692138671875,-0.664764404296875,-0.7257080078125,5149.103241666667,-3.013661185541905,0.08912190830413068,0.7123186422691781,0.02060460299253464,0.07672427594661713,-0.09027277678251266,0.003545075654983521,-0.01491248607635498,0.005248665809631348,XArbitraryZVertical,-0.06393129085302358,0.3449498594190175,0.9334048460171951,-0.07535157062770818,0.06736252456903458,-0.6535903811454773,-0.7538447976112366,0,0,0,-1,-1,5143.922651041667,walking,2,2022-05-05T13:02:00.155+02:00,2022-05-05T12:55:18.700+02:00,270,0.8798907,0.7456771,1.900869,196.189,0,0,2022-05-05T13:02:02.713+02:00,673441325.264267,0,1.28,101.4331,1,0.88
2022-05-05T13:02:05.356+02:00,1651748524.999939,53.22894750940593,10.39803363735475,36.722,0,20,-1,-1,2.400000095367432,11.99936978251625,-9999,5149.123232666667,0.0550994873046875,-0.6512451171875,-0.71966552734375,5149.113237666667,-3.014922880708981,0.09063388752639839,0.7123249690150565,0.02300064638257027,0.06965571641921997,-0.1036554276943207,-0.002934843301773071,-0.01524347066879272,0.01473963260650635,XArbitraryZVertical,-0.06441946611736285,0.3449364515983965,0.9334026822237618,-0.07502357521289026,0.06850187480449677,-0.6535951495170593,-0.7537379264831543,0,0,0,-1,-1,5143.922651041667,walking,2,2022-05-05T13:02:00.155+02:00,2022-05-05T12:55:18.700+02:00,270,0.8798907,0.7456771,1.900869,196.189,0,0,2022-05-05T13:02:02.713+02:00,673441325.264267,0,1.28,101.4331,1,0.88
2022-05-05T13:02:05.366+02:00,1651748524.999939,53.22894750940593,10.39803363735475,36.722,0,20,-1,-1,2.400000095367432,11.99936978251625,-9999,5149.133228291667,0.051025390625,-0.63543701171875,-0.7073974609375,5149.123232666667,-3.016361308567248,0.09223820122489904,0.7125164315712421,0.04892086237668991,0.07043721526861191,-0.1186603382229805,-0.008130267262458801,-0.01102441549301147,0.0277944803237915,XArbitraryZVertical,-0.06492419726196402,0.3450125049143556,0.9333710353726332,-0.07463098107009966,0.0696994885802269,-0.6537400484085083,-0.7535024285316467,0,0,0,-1,-1,5143.922651041667,walking,2,2022-05-05T13:02:00.155+02:00,2022-05-05T12:55:18.700+02:00,270,0.8798907,0.7456771,1.900869,196.189,0,0,2022-05-05T13:02:02.713+02:00,673441325.264267,0,1.28,101.4331,1,0.88
2022-05-05T13:02:05.376+02:00,1651748524.999939,53.22894750940593,10.39803363735475,36.722,0,20,-1,-1,2.400000095367432,11.99936978251625,-9999,5149.143223291667,0.0555267333984375,-0.6274566650390625,-0.7066802978515625,5149.133228291667,-3.018051390253512,0.09406369760604115,0.7131296156154482,0.09603830426931381,0.08274048566818237,-0.1279699504375458,-0.01593773066997528,0.002958774566650391,0.03330934047698975,XArbitraryZVertical,-0.06549728192509066,0.3452864259748356,0.9332670218125727,-0.07416404894129576,0.07103722542524338,-0.6542039513587952,-0.752974808216095,0,0,0,-1,-1,5143.922651041667,walking,2,2022-05-05T13:02:00.155+02:00,2022-05-05T12:55:18.700+02:00,270,0.8798907,0.7456771,1.900869,196.189,0,0,2022-05-05T13:02:02.713+02:00,673441325.264267,0,1.28,101.4331,1,0.88
2022-05-05T13:02:05.386+02:00,1651748524.999939,53.22894750940593,10.39803363735475,36.722,0,20,-1,-1,2.400000095367432,11.99936978251625,-9999,5149.153219291667,0.064544677734375,-0.6388702392578125,-0.7120208740234375,5149.143223291667,-3.019780832613114,0.0960159944456974,0.7142326532368843,0.1358858495950699,0.08898160606622696,-0.1181010752916336,-0.02141249179840088,0.01960068941116333,0.04471844434738159,XArbitraryZVertical,-0.06613191378521387,0.345787010722629,0.9330729651385118,-0.07370709554708502,0.07243788987398148,-0.6550378203392029,-0.7521158456802368,0,0,0,-1,-1,5143.922651041667,walking,2,2022-05-05T13:02:00.155+02:00,2022-05-05T12:55:18.700+02:00,270,0.8798907,0.7456771,1.900869,196.189,0,0,2022-05-05T13:02:02.713+02:00,673441325.264267,0,1.28,101.4331,1,0.88
2022-05-05T13:02:05.396+02:00,1651748524.999939,53.22894750940593,10.39803363735475,36.722,0,20,-1,-1,2.400000095367432,11.99936978251625,-9999,5149.163214291667,0.07183837890625,-0.6577606201171875,-0.7176361083984375,5149.153219291667,-3.021469323460789,0.09791515747769027,0.7155734395540955,0.1370837390422821,0.07687433809041977,-0.1154882535338402,-0.01825348287820816,0.02859354019165039,0.0444219708442688,XArbitraryZVertical,-0.06675221110108494,0.346400122469355,0.932836272588432,-0.07326432272683114,0.07378022372722626,-0.6560503244400024,-0.7511022090911865,0,0,0,-1,-1,5143.922651041667,walking,2,2022-05-05T13:02:00.155+02:00,2022-05-05T12:55:18.700+02:00,270,0.8798907,0.7456771,1.900869,196.189,0,0,2022-05-05T13:02:02.713+02:00,673441325.264267,0,1.28,101.4331,1,0.88
2022-05-05T13:02:05.406+02:00,1651748524.999939,53.22894750940593,10.39803363735475,36.722,0,20,-1,-1,2.400000095367432,11.99936978251625,-9999,5149.173210291667,0.0734100341796875,-0.6579437255859375,-0.7198333740234375,5149.163214291667,-3.023184687067282,0.09971763942407086,0.7166607342701274,0.09221866726875305,0.05709877237677574,-0.1239829361438751,-0.01051820814609528,0.01800018548965454,0.03823697566986084,XArbitraryZVertical,-0.06731643624782309,0.3469000105443396,0.9326470268337738,-0.07279050181082911,0.07506289333105087,-0.6568705439567566,-0.7502577304840088,0,0,0,-1,-1,5143.922651041667,walking,2,2022-05-05T13:02:00.155+02:00,2022-05-05T12:55:18.700+02:00,270,0.8798907,0.7456771,1.900869,196.189,0,0,2022-05-05T13:02:02.713+02:00,673441325.264267,0,1.28,101.4331,1,0.88
2022-05-05T13:02:05.416+02:00,1651748524.999939,53.22894750940593,10.39803363735475,36.722,0,20,-1,-1,2.400000095367432,11.99936978251625,-9999,5149.183205291667,0.0711517333984375,-0.6496429443359375,-0.7219085693359375,5149.173210291667,-3.02495895677458,0.1013269480867074,0.7171732086624172,0.03052840568125248,0.03095052763819695,-0.1300192624330521,-0.004397749900817871,-0.000503838062286377,0.03216499090194702,XArbitraryZVertical,-0.06776857187900925,0.3471410541399316,0.9325667344209423,-0.07224915351704911,0.07623613625764847,-0.6572568416595459,-0.7498010396957397,0,0,0,-1,-1,5143.922651041667,walking,2,2022-05-05T13:02:00.155+02:00,2022-05-05T12:55:18.700+02:00,270,0.8798907,0.7456771,1.900869,196.189,0,0,2022-05-05T13:02:02.713+02:00,673441325.264267,0,1.28,101.4331,1,0.88
2022-05-05T13:02:05.426+02:00,1651748524.999939,53.22894750940593,10.39803363735475,36.722,0,20,-1,-1,2.400000095367432,11.99936978251625,-9999,5149.193200291667,0.066619873046875,-0.637420654296875,-0.7255096435546875,5149.183205291667,-3.026693908393897,0.1026397958038386,0.7171036253318192,-0.02157547697424889,0.007344931829720736,-0.1339062750339508,-0.00381508469581604,-0.0007393956184387207,0.02991247177124023,XArbitraryZVertical,-0.06807835324257529,0.3471202348974045,0.9325968077641251,-0.07166706998705853,0.07722512632608414,-0.6572043895721436,-0.749745786190033,0,0,0,-1,-1,5143.922651041667,walking,2,2022-05-05T13:02:00.155+02:00,2022-05-05T12:55:18.700+02:00,270,0.8798907,0.7456771,1.900869,196.189,0,0,2022-05-05T13:02:02.713+02:00,673441325.264267,0,1.28,101.4331,1,0.88
2022-05-05T13:02:05.436+02:00,1651748524.999939,53.22894750940593,10.39803363735475,36.722,0,20,-1,-1,2.400000095367432,11.99936978251625,-9999,5149.203196291667,0.0621795654296875,-0.6306610107421875,-0.7294158935546875,5149.193200291667,-3.028439592373744,0.1037606180326168,0.7167050892804924,-0.0493040420114994,-0.003468034323304892,-0.1419697999954224,-0.006940789520740509,0.007260918617248535,0.02801072597503662,XArbitraryZVertical,-0.06829108967846051,0.3469535022904259,0.9326911335290691,-0.07104187234648786,0.0780925378203392,-0.6569039821624756,-0.7499191761016846,0,0,0,-1,-1,5143.922651041667,walking,2,2022-05-05T13:02:00.155+02:00,2022-05-05T12:55:18.700+02:00,270,0.8798907,0.7456771,1.900869,196.189,0,0,2022-05-05T13:02:02.713+02:00,673441325.264267,0,1.28,101.4331,1,0.88
2022-05-05T13:02:05.446+02:00,1651748524.999939,53.22894750940593,10.39803363735475,36.722,0,20,-1,-1,2.400000095367432,11.99936978251625,-9999,5149.213191291667,0.05377197265625,-0.63116455078125,-0.7328643798828125,5149.203196291667,-3.030178471187716,0.1047436256986442,0.7161818584847065,-0.05667643994092941,-0.01430037617683411,-0.1436540335416794,-0.01224572211503983,0.01908862590789795,0.02467423677444458,XArbitraryZVertical,-0.06843902312379121,0.3467336244560508,0.9328111906068506,-0.07039377112071149,0.07886559516191483,-0.6565093994140625,-0.7501837611198425,0,0,0,-1,-1,5143.922651041667,walking,2,2022-05-05T13:02:00.155+02:00,2022-05-05T12:55:18.700+02:00,270,0.8798907,0.7456771,1.900869,196.189,0,0,2022-05-05T13:02:02.713+02:00,673441325.264267,0,1.28,101.4331,1,0.88
2022-05-05T13:02:05.456+02:00,1651748524.999939,53.22894750940593,10.39803363735475,36.722,0,20,-1,-1,2.400000095367432,11.99936978251625,-9999,5149.223187291667,0.0467987060546875,-0.6251983642578125,-0.7311248779296875,5149.213191291667,-3.031997017283921,0.1057830684035373,0.7155694614007672,-0.05244573950767517,-0.005451223812997341,-0.1536081284284592,-0.01750818639993668,0.02538615465164185,0.02108526229858398,XArbitraryZVertical,-0.06859851973973208,0.3464732220755645,0.9329471439442083,-0.06971652510931201,0.07968776673078537,-0.6560472846031189,-0.7505010962486267,0,0,0,-1,-1,5143.922651041667,walking,2,2022-05-05T13:02:00.155+02:00,2022-05-05T12:55:18.700+02:00,270,0.8798907,0.7456771,1.900869,196.189,0,0,2022-05-05T13:02:02.713+02:00,673441325.264267,0,1.28,101.4331,1,0.88
2022-05-05T13:02:05.466+02:00,1651748524.999939,53.22894750940593,10.39803363735475,36.722,0,20,-1,-1,2.400000095367432,11.99936978251625,-9999,5149.233182291667,0.048431396484375,-0.61981201171875,-0.7359466552734375,5149.223187291667,-3.033958592037618,0.1070096662976398,0.7150374594297103,-0.03386925905942917,0.006741526536643505,-0.1621853858232498,-0.02687355130910873,0.02448105812072754,0.01788538694381714,XArbitraryZVertical,-0.06882246695485725,0.3462493974454383,0.9330664906361563,-0.06900567286389252,0.08064553141593933,-0.6556457281112671,-0.7507496476173401,0,0,0,-1,-1,5143.922651041667,walking,2,2022-05-05T13:02:00.155+02:00,2022-05-05T12:55:18.700+02:00,270,0.8798907,0.7456771,1.900869,196.189,0,0,2022-05-05T13:02:02.713+02:00,673441325.264267,0,1.28,101.4331,1,0.88
2022-05-05T13:02:05.476+02:00,1651748524.999939,53.22894750940593,10.39803363735475,36.722,0,20,-1,-1,2.400000095367432,11.99936978251625,-9999,5149.243178291667,0.051483154296875,-0.6229400634765625,-0.7332305908203125,5149.233182291667,-3.035982931971115,0.1083833306595273,0.7146723882137196,-0.01358609274029732,0.009949569590389729,-0.1613177359104156,-0.03490391373634338,0.03017157316207886,0.01975131034851074,XArbitraryZVertical,-0.06910729833303068,0.3461013169670411,0.9331528900601909,-0.06829318999067631,0.08170262724161148,-0.6553699970245361,-0.7508761286735535,0,0,0,-1,-1,5143.922651041667,walking,2,2022-05-05T13:02:00.155+02:00,2022-05-05T12:55:18.700+02:00,270,0.8798907,0.7456771,1.900869,196.189,0,0,2022-05-05T13:02:02.713+02:00,673441325.264267,0,1.28,101.4331,1,0.88
2022-05-05T13:02:05.486+02:00,1651748524.999939,53.22894750940593,10.39803363735475,36.722,0,20,-1,-1,2.400000095367432,11.99936978251625,-9999,5149.253173291667,0.0551605224609375,-0.638916015625,-0.727264404296875,5149.243178291667,-3.038110406242474,0.1098834321044126,0.7144005218248568,-0.01406662631779909,0.01668956503272057,-0.1701203286647797,-0.0344170480966568,0.03535252809524536,0.01498317718505859,XArbitraryZVertical,-0.06943507836777632,0.3459969644265595,0.9332208726849922,-0.06755561485279304,0.0828484520316124,-0.6551646590232849,-0.7509297132492065,0,0,0,-1,-1,5143.922651041667,walking,2,2022-05-05T13:02:00.155+02:00,2022-05-05T12:55:18.700+02:00,270,0.8798907,0.7456771,1.900869,196.189,0,0,2022-05-05T13:02:02.713+02:00,673441325.264267,0,1.28,101.4331,1,0.88
2022-05-05T13:02:05.496+02:00,1651748524.999939,53.22894750940593,10.39803363735475,36.722,0,20,-1,-1,2.400000095367432,11.99936978251625,-9999,5149.263169291667,0.0564117431640625,-0.647857666015625,-0.718780517578125,5149.253173291667,-3.040391064024979,0.1115312561455211,0.7140635548814011,-0.02704687044024467,0.01606425456702709,-0.1847133934497833,-0.03262714296579361,0.03196990489959717,0.01778101921081543,XArbitraryZVertical,-0.06980472153787286,0.3458634503946583,0.9332992632008225,-0.06677069191988336,0.08411030471324921,-0.6549100279808044,-0.7510115504264832,0,0,0,-1,-1,5143.922651041667,walking,2,2022-05-05T13:02:00.155+02:00,2022-05-05T12:55:18.700+02:00,270,0.8798907,0.7456771,1.900869,196.189,0,0,2022-05-05T13:02:02.713+02:00,673441325.264267,0,1.28,101.4331,1,0.88
2022-05-05T13:02:05.506+02:00,1651748524.999939,53.22894750940593,10.39803363735475,36.722,0,20,-1,-1,2.400000095367432,11.99936978251625,-9999,5149.273164291667,0.050872802734375,-0.6514129638671875,-0.71380615234375,5149.263169291667,-3.042811119421986,0.113206813556281,0.7134497835915717,-0.06488689780235291,0.007073755376040936,-0.1933306455612183,-0.03025341033935547,0.01552999019622803,0.02400451898574829,XArbitraryZVertical,-0.07015999251438508,0.3456055243872989,0.9334285906660829,-0.06592016341060075,0.08541394025087357,-0.6544460654258728,-0.7512688040733337,0,0,0,-1,-1,5143.922651041667,walking,2,2022-05-05T13:02:00.155+02:00,2022-05-05T12:55:18.700+02:00,270,0.8798907,0.7456771,1.900869,196.189,0,0,2022-05-05T13:02:02.713+02:00,673441325.264267,0,1.28,101.4331,1,0.88
2022-05-05T13:02:05.516+02:00,1651748524.999939,53.22894750940593,10.39803363735475,36.722,0,20,-1,-1,2.400000095367432,11.99936978251625,-9999,5149.283160291667,0.0495147705078125,-0.647491455078125,-0.7024993896484375,5149.273164291667,-3.045293416766566,0.1148791840029589,0.7124115820410959,-0.1066026538610458,0.005994643084704876,-0.2092398405075073,-0.03033629804849625,0.005803048610687256,0.03301900625228882,XArbitraryZVertical,-0.07049856751866733,0.3451524845037926,0.9336329720446215,-0.06503143381228801,0.08674804866313934,-0.6536607146263123,-0.7517994046211243,0,0,0,-1,-1,5143.922651041667,walking,2,2022-05-05T13:02:00.155+02:00,2022-05-05T12:55:18.700+02:00,270,0.8798907,0.7456771,1.900869,196.189,0,0,2022-05-05T13:02:02.713+02:00,673441325.264267,0,1.28,101.4331,1,0.88
2022-05-05T13:02:05.527+02:00,1651748524.999939,53.22894750940593,10.39803363735475,36.722,0,20,-1,-1,2.400000095367432,11.99936978251625,-9999,5149.293155291667,0.0464630126953125,-0.641845703125,-0.7037811279296875,5149.283160291667,-3.047916972694382,0.1165587303865715,0.7108633831117899,-0.1612641215324402,-0.009344299323856831,-0.2256380617618561,-0.03725539147853851,0.001075208187103271,0.03885090351104736,XArbitraryZVertical,-0.07081159854603525,0.3444665946002997,0.9339293377476646,-0.06406695987668444,0.08812820166349411,-0.6524882912635803,-0.7526569366455078,0,0,0,-1,-1,5143.922651041667,walking,2,2022-05-05T13:02:00.155+02:00,2022-05-05T12:55:18.700+02:00,270,0.8798907,0.7456771,1.900869,196.189,0,0,2022-05-05T13:02:02.713+02:00,673441325.264267,0,1.28,101.4331,1,0.88
2022-05-05T13:02:05.536+02:00,1651748524.999939,53.22894750940593,10.39803363735475,36.722,0,20,-1,-1,2.400000095367432,11.99936978251625,-9999,5149.303150291667,0.0462188720703125,-0.644195556640625,-0.70623779296875,5149.293155291667,-3.05065120303432,0.1182334791333582,0.7088486036611699,-0.18929523229599,-0.004768988583236933,-0.2324331104755402,-0.04002870619297028,0.003468632698059082,0.05131292343139648,XArbitraryZVertical,-0.07110050268441197,0.3435674519331017,0.9343085124076449,-0.06303875402788751,0.08954348415136337,-0.6509601473808289,-0.7538122534751892,0,0,0,-1,-1,5143.922651041667,walking,2,2022-05-05T13:02:00.155+02:00,2022-05-05T12:55:18.700+02:00,270,0.8798907,0.7456771,1.900869,196.189,0,0,2022-05-05T13:02:02.713+02:00,673441325.264267,0,1.28,101.4331,1,0.88
2022-05-05T13:02:05.547+02:00,1651748524.999939,53.22894750940593,10.39803363735475,36.722,0,20,-1,-1,2.400000095367432,11.99936978251625,-9999,5149.313146291667,0.042938232421875,-0.6560516357421875,-0.702911376953125,5149.303150291667,-3.053422105724187,0.1199112234094307,0.706519264301258,-0.2226815819740295,-0.009483116678893566,-0.2491230815649033,-0.04452616721391678,0.007344365119934082,0.05138325691223145,XArbitraryZVertical,-0.07138435108039148,0.3425231839119762,0.9347406258962544,-0.06198487264230306,0.09098919481039047,-0.6491901874542236,-0.7551642656326294,0,0,0,-1,-1,5143.922651041667,walking,2,2022-05-05T13:02:00.155+02:00,2022-05-05T12:55:18.700+02:00,270,0.8798907,0.7456771,1.900869,196.189,0,0,2022-05-05T13:02:02.713+02:00,673441325.264267,0,1.28,101.4331,1,0.88
2022-05-05T13:02:05.556+02:00,1651748524.999939,53.22894750940593,10.39803363735475,36.722,0,20,-1,-1,2.400000095367432,11.99936978251625,-9999,5149.323141291667,0.0317840576171875,-0.663055419921875,-0.70794677734375,5149.313146291667,-3.056363454980132,0.121557504422258,0.703729108165646,-0.2797589898109436,-0.03133381903171539,-0.2753850221633911,-0.0462326854467392,0.002869725227355957,0.0505707859992981,XArbitraryZVertical,-0.07162356532729131,0.3412708665483045,0.9352559346297207,-0.0608331489933036,0.09245156496763229,-0.6470654010772705,-0.7568085193634033,0,0,0,-1,-1,5143.922651041667,walking,2,2022-05-05T13:02:00.155+02:00,2022-05-05T12:55:18.700+02:00,270,0.8798907,0.7456771,1.900869,196.189,0,0,2022-05-05T13:02:02.713+02:00,673441325.264267,0,1.28,101.4331,1,0.88
2022-05-05T13:02:05.567+02:00,1651748524.999939,53.22894750940593,10.39803363735475,36.722,0,20,-1,-1,2.400000095367432,11.99936978251625,-9999,5149.333137291667,0.0207061767578125,-0.652496337890625,-0.7187042236328125,5149.323141291667,-3.059566510427913,0.1232238787725583,0.7003429824227686,-0.3251501023769379,-0.03368552401661873,-0.2988606691360474,-0.0510430783033371,-0.01157176494598389,0.05591219663619995,XArbitraryZVertical,-0.07182697087668065,0.3397486322698183,0.9358772141102806,-0.05954566738484685,0.09398133307695389,-0.6444799900054932,-0.7588235139846802,0,0,0,-1,-1,5143.922651041667,walking,2,2022-05-05T13:02:00.155+02:00,2022-05-05T12:55:18.700+02:00,270,0.8798907,0.7456771,1.900869,196.189,0,0,2022-05-05T13:02:02.713+02:00,673441325.264267,0,1.28,101.4331,1,0.88
2022-05-05T13:02:05.576+02:00,1651748524.999939,53.22894750940593,10.39803363735475,36.722,0,20,-1,-1,2.400000095367432,11.99936978251625,-9999,5149.343132291667,0.00592041015625,-0.652984619140625,-0.7218017578125,5149.333137291667,-3.063087626008479,0.1250049448137247,0.6965362791976669,-0.3586177825927734,-0.05422541871666908,-0.337477833032608,-0.06385381519794464,-0.02149087190628052,0.05313688516616821,XArbitraryZVertical,-0.07203280869512006,0.338037687535342,0.9365706242671499,-0.05811443672625646,0.09563788771629333,-0.6415646076202393,-0.7610836029052734,0,0,0,-1,-1,5143.922651041667,walking,2,2022-05-05T13:02:00.155+02:00,2022-05-05T12:55:18.700+02:00,270,0.8798907,0.7456771,1.900869,196.189,0,0,2022-05-05T13:02:02.713+02:00,673441325.264267,0,1.28,101.4331,1,0.88
2022-05-05T13:02:05.586+02:00,1651748524.999939,53.22894750940593,10.39803363735475,36.722,0,20,-1,-1,2.400000095367432,11.99936978251625,-9999,5149.353128291667,-0.0283966064453125,-0.7144012451171875,-0.7062225341796875,5149.343132291667,-3.066917906748988,0.1268107625335039,0.6925108271476071,-0.3804200291633606,-0.06572654843330383,-0.3576691448688507,-0.07663175463676453,-0.01402479410171509,0.04476118087768555,XArbitraryZVertical,-0.07220385799680407,0.336234922966116,0.9373030383617854,-0.05653167020513811,0.09733794629573822,-0.6384716629981995,-0.7634653449058533,0,0,0,-1,-1,5143.922651041667,walking,2,2022-05-05T13:02:00.155+02:00,2022-05-05T12:55:18.700+02:00,270,0.8798907,0.7456771,1.900869,196.189,0,0,2022-05-05T13:02:02.713+02:00,673441325.264267,0,1.28,101.4331,1,0.88
2022-05-05T13:02:05.598+02:00,1651748524.999939,53.22894750940593,10.39803363735475,36.722,0,20,-1,-1,2.400000095367432,11.99936978251625,-9999,5149.363123291667,-0.0555419921875,-0.7476959228515625,-0.7370452880859375,5149.353128291667,-3.071225367346024,0.1288206309607185,0.6876204208861356,-0.4906165599822998,-0.07577040046453476,-0.4241051375865936,-0.09335172176361084,-0.01828455924987793,0.04455387592315674,XArbitraryZVertical,-0.07239396890151548,0.334037941255001,0.9381802906720299,-0.0547318744838521,0.09927214682102203,-0.6347001194953918,-0.7663555145263672,0,0,0,-1,-1,5143.922651041667,walking,2,2022-05-05T13:02:00.155+02:00,2022-05-05T12:55:18.700+02:00,270,0.8798907,0.7456771,1.900869,196.189,0,0,2022-05-05T13:02:02.713+02:00,673441325.264267,0,1.28,101.4331,1,0.88
2022-05-05T13:02:05.607+02:00,1651748524.999939,53.22894750940593,10.39803363735475,36.722,0,20,-1,-1,2.400000095367432,11.99936978251625,-9999,5149.373119291667,-0.0670166015625,-0.720672607421875,-0.7466888427734375,5149.363123291667,-3.075762422419366,0.1312213375476134,0.681597580172411,-0.6378567814826965,-0.02181055583059788,-0.4429501295089722,-0.1300065815448761,-0.08436685800552368,0.06366842985153198,XArbitraryZVertical,-0.07273533544315726,0.3313066805741042,0.9392295631021997,-0.05285187785380641,0.1016099974513054,-0.6300344467163086,-0.7698909044265747,0,0,0,-1,-1,5143.922651041667,walking,2,2022-05-05T13:02:00.155+02:00,2022-05-05T12:55:18.700+02:00,270,0.8798907,0.7456771,1.900869,196.189,0,0,2022-05-05T13:02:02.713+02:00,673441325.264267,0,1.28,101.4331,1,0.88
2022-05-05T13:02:05.616+02:00,1651748524.999939,53.22894750940593,10.39803363735475,36.722,0,20,-1,-1,2.400000095367432,11.99936978251625,-9999,5149.383114291667,-0.09722900390625,-0.7013702392578125,-0.7444915771484375,5149.373119291667,-3.08090033612851,0.1342057891174509,0.6741073718759329,-0.7269490957260132,-0.02784128487110138,-0.5423555374145508,-0.1600777357816696,-0.1234958171844482,0.03719407320022583,XArbitraryZVertical,-0.07326216479280506,0.3278917650610851,0.9405029682080435,-0.05073444337745527,0.1045357510447502,-0.624200165271759,-0.7742393016815186,0,0,0,-1,-1,5143.922651041667,walking,2,2022-05-05T13:02:00.155+02:00,2022-05-05T12:55:18.700+02:00,270,0.8798907,0.7456771,1.900869,196.189,0,0,2022-05-05T13:02:02.713+02:00,673441325.264267,0,1.28,101.4331,1,0.88
2022-05-05T13:02:05.626+02:00,1651748524.999939,53.22894750940593,10.39803363735475,36.722,0,20,-1,-1,2.400000095367432,11.99936978251625,-9999,5149.393110291667,-0.1019287109375,-0.694061279296875,-0.7528839111328125,5149.383114291667,-3.086735892878745,0.1376994742377284,0.6660252088219454,-0.7435436844825745,0.006631671451032162,-0.5903277993202209,-0.1749456226825714,-0.1028071641921997,0.03215235471725464,XArbitraryZVertical,-0.07393514985560465,0.3242113890947566,0.9418514777341506,-0.048337025864957,0.107929028570652,-0.6178655624389648,-0.7788411378860474,0,0,0,-1,-1,5143.922651041667,walking,2,2022-05-05T13:02:00.155+02:00,2022-05-05T12:55:18.700+02:00,270,0.8798907,0.7456771,1.900869,196.189,0,0,2022-05-05T13:02:02.713+02:00,673441325.264267,0,1.28,101.4331,1,0.88
2022-05-05T13:02:05.636+02:00,1651748524.999939,53.22894750940593,10.39803363735475,36.722,0,20,-1,-1,2.400000095367432,11.99936978251625,-9999,5149.403105291667,-0.09503173828125,-0.690338134765625,-0.7553863525390625,5149.393110291667,-3.093369564204187,0.1420159866689345,0.657955285862203,-0.7059624791145325,0.03740769252181053,-0.6680955290794373,-0.2092209756374359,-0.08987003564834595,0.03878700733184814,XArbitraryZVertical,-0.0748935513654876,0.3205490528156236,0.9431612843691711,-0.04567382838575689,0.1119919940829277,-0.6115002632141113,-0.7832785248756409,0,0,0,-1,-1,5143.922651041667,walking,2,2022-05-05T13:02:00.155+02:00,2022-05-05T12:55:18.700+02:00,270,0.8798907,0.7456771,1.900869,196.189,0,0,2022-05-05T13:02:02.713+02:00,673441325.264267,0,1.28,101.4331,1,0.88
2022-05-05T13:02:05.646+02:00,1651748524.999939,53.22894750940593,10.39803363735475,36.722,0,20,-1,-1,2.400000095367432,11.99936978251625,-9999,5149.413100291667,-0.0905303955078125,-0.7218170166015625,-0.76544189453125,5149.403105291667,-3.100826924786489,0.1469772678081958,0.6500872723848565,-0.6915057301521301,0.04583939537405968,-0.7312573194503784,-0.2185063809156418,-0.08880549669265747,0.03456461429595947,XArbitraryZVertical,-0.07605465988667105,0.3170039005223979,0.9444049360005107,-0.04270469950854483,0.1165776774287224,-0.6052559018135071,-0.7874484062194824,0,0,0,-1,-1,5143.922651041667,walking,2,2022-05-05T13:02:00.155+02:00,2022-05-05T12:55:18.700+02:00,270,0.8798907,0.7456771,1.900869,196.189,0,0,2022-05-05T13:02:02.713+02:00,673441325.264267,0,1.28,101.4331,1,0.88
2022-05-05T13:02:05.656+02:00,1651748524.999939,53.22894750940593,10.39803363735475,36.722,0,20,-1,-1,2.400000095367432,11.99936978251625,-9999,5149.423096291667,-0.103973388671875,-0.750396728515625,-0.7785186767578125,5149.413100291667,-3.109013525637224,0.1523283983259568,0.6420413703577866,-0.7056679129600525,0.04099510610103607,-0.8047970533370972,-0.2165564745664597,-0.09150665998458862,0.03621494770050049,XArbitraryZVertical,-0.07731862738269588,0.3134026263016786,0.9456463242535919,-0.03941797387435884,0.1215247586369514,-0.5988315939903259,-0.7916012406349182,0,0,0,-1,-1,5143.922651041667,walking,2,2022-05-05T13:02:00.155+02:00,2022-05-05T12:55:18.700+02:00,270,0.8798907,0.7456771,1.900869,196.189,0,0,2022-05-05T13:02:02.713+02:00,673441325.264267,0,1.28,101.4331,1,0.88
